,Block Name,Distance,GP Name,GP_lat,GP_long,Village Name,Village_lat,Village_long
0,Ballarpur,1.82872327767,AMDI,19.803062,79.45676,Amdi,19.79477351,79.4416628
1,Ballarpur,3.79056736212,GILBILI,19.928423,79.47311,Asegaon,19.91868718,79.43836062
2,Ballarpur,3.34115321221,KALMANA,19.81851,79.43411,Ashti,19.81461516,79.4024404
3,Ballarpur,1.68185619261,BAMNI,19.83867,79.37766,Bamhani,19.8306486,79.36402821
4,Ballarpur,1.5911908131,VISAPUR,19.88309,79.32738,Bhivkund,19.89736925,79.32837584
5,Ballarpur,2.20893829977,HADSTI,19.88454,79.29181,Charwat,19.89909515,79.27743242
6,Ballarpur,1.84126438242,DAHELI,19.8207,79.39887,Daheli,19.8166156,79.38181243
7,Ballarpur,3.06861260933,GILBILI,19.928423,79.47311,Gilbili,19.90640444,79.45541547
8,Ballarpur,1.62398828461,HADSTI,19.88454,79.29181,Hadasti,19.87739117,79.27826722
9,Ballarpur,2.00604131284,KOTHARI,19.79072,79.49373,Haran Payali,19.80807031,79.49898385
10,Ballarpur,1.53391579667,KALMANA,19.81851,79.43411,Jogapur,19.82163677,79.41982817
11,Ballarpur,2.15707278274,KALMANA,19.81851,79.43411,Kalamna,19.8068383,79.41764013
12,Ballarpur,1.87268779606,KATWALI,19.77392,79.49416,Katwali,19.7596799,79.50371496
13,Ballarpur,2.02882860379,KAWADJAI,19.84538,79.4976,Kawadjai,19.82866389,79.4898259
14,Ballarpur,0.404695494422,BAMNI,19.83867,79.37766,Kem Rith,19.83506937,79.37709594
15,Ballarpur,0.726553820039,BAMNI,19.83867,79.37766,Kem Tukum,19.84519807,79.37736274
16,Ballarpur,4.3711414082,KOTHARI,19.79072,79.49373,Khamturla,19.75167119,79.4889169
17,Ballarpur,4.82230807853,KINHI,19.84538,79.4976,Kinhi,19.83481006,79.45288566
18,Ballarpur,0.83584999046,KORTI MAKTA,19.83353,79.43411,Korti Makta,19.82726677,79.43852857
19,Ballarpur,2.31185510321,KOTHARI,19.79072,79.49373,Kothari,19.78105995,79.47416434
20,Ballarpur,1.29420349713,LAWARI,19.83754,79.40479,Lawari,19.83185034,79.39399607
21,Ballarpur,1.89847673166,MANORA,19.86551,79.49376,Manora,19.85251531,79.48198552
22,Ballarpur,3.87879007418,GILBILI,19.928423,79.47311,Mohali Tukum,19.90344574,79.44721056
23,Ballarpur,2.89625404089,ITOLI,19.87297,79.47653,Nimgata Chak,19.85483323,79.45665284
24,Ballarpur,2.89625404089,ITOLI,19.87297,79.47653,Nimgata Makta,19.85483323,79.45665284
25,Ballarpur,1.91217809403,PALASGAON,19.81538,79.47179,Palasgaon,19.80443282,79.45769371
26,Chimur,0.777913925665,ADEGAON DESH,20.412933,79.4268,Adegaon,20.41695789,79.42069431
27,Chimur,2.32833932531,BOTHALI,20.477783,79.524317,Adegaon,20.46366488,79.54082322
28,Chimur,2.32833932531,BOTHALI,20.477783,79.524317,Adegaon Chak,20.46366488,79.54082322
29,Chimur,0.736218096013,BHISI,20.62945,79.401683,Adhyali,20.62289055,79.40264514
30,Chimur,1.40717541974,PANJAREPAR,20.680233,79.5724,Ajgaon,20.67056805,79.56366827
31,Chimur,0.699835552927,AMARPURI,20.5348,79.26325,Amarpuri,20.53592238,79.26986311
32,Chimur,0.493227553131,AMBENERI,20.581857,79.427015,Ambeneri,20.57854574,79.43016764
33,Chimur,0.709306165249,AMBOLI,20.645017,79.48915,Amboli,20.64498216,79.49596659
34,Chimur,0.066675588372,AMDI BEGADE,20.4972,79.184183,Amdi Begde,20.49661119,79.18430405
35,Chimur,2.24032100251,JAWARABODI,20.669583,79.513367,Asola,20.64945715,79.51436933
36,Chimur,3.69760467864,SATARA,20.418717,79.361933,Bamhangaon,20.42019808,79.32648523
37,Chimur,0.323194265028,SHIVAPUR BANDER,20.506217,79.290533,Bandar,20.50354823,79.28930371
38,Chimur,1.57261682457,KHADSANGI,20.506083,79.267167,Baradghata,20.49283203,79.26188986
39,Chimur,1.58291303393,BHISI,20.62945,79.401683,Bhisi,20.63727635,79.41438909
40,Chimur,0.155941418866,BHIVKUND,20.478317,79.173783,Bhiwkund,20.47699614,79.17428606
41,Chimur,0.623483829142,BODADHA,20.506517,79.486967,Bodadha,20.50660897,79.49295267
42,Chimur,1.85095997646,CHICHALA SHASTRI,20.64995,79.474567,Borgaon,20.66586521,79.46935345
43,Chimur,0.390899666633,BOTHALI,20.477783,79.524317,Bothali,20.47684632,79.52070009
44,Chimur,0.300365097099,BOTNALI,20.46235,79.218583,Bothali,20.46440893,79.22044936
45,Chimur,3.51351815903,MADNAPUR,20.39202,79.409443,Chaiti,20.38836635,79.37595907
46,Chimur,3.51351815903,MADNAPUR,20.39202,79.409443,Chaiti Tukum,20.38836635,79.37595907
47,Chimur,2.93979091862,AMDI BEGADE,20.4972,79.184183,Chak Chichghat,20.49188776,79.21183201
48,Chimur,0.442514787003,CHAKJATEPAR,20.59965,79.530967,Chak Jatepur,20.59616711,79.53302383
49,Chimur,3.31552742374,MADNAPUR,20.39202,79.409443,Chak Karbada,20.40698063,79.38192479
50,Chimur,3.11127146302,TALOTHI GAON   NAIK,20.452183,79.348,Chak Kawadsi,20.47884884,79.33895363
51,Chimur,2.35652793471,JAMBHULGHAT,20.545417,79.457117,Chak Vadegaon,20.55607432,79.43755388
52,Chimur,0.879724807894,CHICHALA KUNBI,20.6753,79.530967,Chichala Paiku,20.67224399,79.53876676
53,Chimur,3.60997145004,PANJAREPAR,20.680233,79.5724,Chichala Pardeshi,20.67224399,79.53876676
54,Chimur,0.294625001712,CHICHALA SHASTRI,20.64995,79.474567,Chichala Shastri,20.64847968,79.47692257
55,Chimur,2.93979091862,AMDI BEGADE,20.4972,79.184183,Chichghat,20.49188776,79.21183201
56,Chimur,1.84322484177,CHICHOLI,20.668917,79.368483,Chicholi,20.66787108,79.38616449
57,Chimur,1.77853339353,KALAMGAON,20.490133,79.419033,Chikhalapar,20.50568455,79.41504116
58,Chimur,2.51391883657,NERI,20.4719,79.44535,Chikhali Chak,20.48486875,79.46511797
59,Chimur,1.57114277174,KOTAGAON,20.529333,79.4907,Dabaka Heti,20.51823173,79.48136639
60,Chimur,3.49691463728,KHAIRI,20.666983,79.5731,Dahegaon,20.63997466,79.59031736
61,Chimur,2.30493790801,DOMA,20.580417,79.506167,Doma,20.568989,79.52463931
62,Chimur,1.69703753235,CHAKJATEPAR,20.59965,79.530967,Dongargaon Chak,20.58868554,79.54230795
63,Chimur,0.759399314455,SAWARLA,20.619633,79.354683,Dongarla,20.62299958,79.34833422
64,Chimur,0.824514975461,GADAGAON,20.534533,79.347017,Gadgaon,20.54051917,79.34234409
65,Chimur,0.840825328055,GADPIPARI,20.64535,79.456917,Gadpipari,20.64142368,79.46382289
66,Chimur,1.37906821464,MAHALGAON    KALU,20.5781,79.36175,Garadapar,20.56658536,79.36667134
67,Chimur,0.617480996949,GONDEDA,20.400333,79.4752,Gondeda,20.39894599,79.46946307
68,Chimur,1.39731683948,VIHIRGAON TUKUM,20.37535,79.4364,Gondmohadi,20.36294793,79.43856053
69,Chimur,2.5415323548,BOTHALI,20.477783,79.524317,Gorwat,20.45889538,79.51057793
70,Chimur,2.5415323548,BOTHALI,20.477783,79.524317,Gorwat Chak,20.45889538,79.51057793
71,Chimur,1.89694902522,GADPIPARI,20.64535,79.456917,Gothangaon,20.66127705,79.45038478
72,Chimur,1.91822773114,KHANGAON,20.4451,79.21125,Gujgavhan,20.43178355,79.19954645
73,Chimur,3.16369654783,MAHADAWADI,20.412267,79.49325,Harni,20.43525554,79.47536146
74,Chimur,0.407118243272,HIRAPUR,20.62375,79.5239,Hirapur,20.62513488,79.52752138
75,Chimur,0.600704151704,HIWARA,20.69755,79.497467,Hiwara,20.69227649,79.49621373
76,Chimur,2.70588140075,KHAIRI,20.666983,79.5731,Irvha,20.65606169,79.59634102
77,Chimur,0.668797324322,JAMBHULGHAT,20.545417,79.457117,Jambhul Ghat,20.55132723,79.45592536
78,Chimur,1.08317497709,SAWARLA,20.619633,79.354683,Jambhul Vihira,20.61131401,79.34926813
79,Chimur,0.442514787003,CHAKJATEPAR,20.59965,79.530967,Jatepar,20.59616711,79.53302383
80,Chimur,0.426840423536,JAWARABODI,20.669583,79.513367,Jawalabodi,20.66928692,79.51745753
81,Chimur,0.850429372672,KAJALSAR,20.449533,79.539117,Kajalsar,20.44646563,79.53163982
82,Chimur,0.685316637738,KALAMGAON,20.490133,79.419033,Kalamgaon,20.49558359,79.41596182
83,Chimur,2.73371212471,YERAKHEDA,20.566333,79.392233,Kalamgaon,20.58972961,79.38416761
84,Chimur,0.343769375631,KANHALGAON,20.5794,79.381683,Kanhalgaon,20.5769148,79.37971872
85,Chimur,0.328951957968,KAPARLA KHURD,20.592667,79.418133,Kaparla Bk.,20.59058908,79.42038242
86,Chimur,0.328951957968,KAPARLA KHURD,20.592667,79.418133,Kaparla Kh,20.59058908,79.42038242
87,Chimur,3.31552742374,MADNAPUR,20.39202,79.409443,Karbada,20.40698063,79.38192479
88,Chimur,3.31765658745,KALAMGAON,20.490133,79.419033,Karghata,20.51791662,79.43064433
89,Chimur,1.46584793996,CHICHALA SHASTRI,20.64995,79.474567,Kasaba Pipari,20.64142368,79.46382289
90,Chimur,1.73900861079,KAWDASHI DESHMANE,20.64675,79.560773,Kawadsi Deshmane,20.63803821,79.5746522
91,Chimur,0.590833607299,KAWATHALA,20.531983,79.355733,Kawathala,20.53720516,79.35678051
92,Chimur,0.852411478278,KESALABODI,20.531017,79.2109,Kesalabodi,20.52783739,79.21834845
93,Chimur,1.43180740924,KEWADA MOKASA,20.402583,79.493717,Kewada,20.39977261,79.50712408
94,Chimur,0.217756238386,KHADSANGI,20.506083,79.267167,Khadsangi,20.50456049,79.26585201
95,Chimur,0.80067367513,KHAIRI,20.666983,79.5731,Khairi,20.66856094,79.58060886
96,Chimur,0.754295127143,KHAMBALA,20.435767,79.465367,Khambala,20.43658287,79.45818039
97,Chimur,2.87861441085,PET BHANSULI,20.535833,79.262617,Khandala,20.54215198,79.23580788
98,Chimur,0.458762995121,KHANGAON,20.4451,79.21125,Khangaon,20.44433846,79.21557745
99,Chimur,2.49352225887,KAWDASHI DHK,20.581217,79.485833,Khapari,20.5628991,79.4996495
100,Chimur,1.111806015,KHAPRI DHARMU,20.55755,79.3987,Khapari,20.54755137,79.39865683
101,Chimur,1.50582379839,KITADI TUKUM,20.44745,79.34235,Khapari,20.43823232,79.33176223
102,Chimur,2.49352225887,KAWDASHI DHK,20.581217,79.485833,Khapari Dharmu,20.5628991,79.4996495
103,Chimur,3.15869013075,GONDEDA,20.400333,79.4752,Khatoda,20.37999532,79.45404187
104,Chimur,1.93124839874,BOTNALI,20.46235,79.218583,Khursapur,20.47766638,79.227324
105,Chimur,0.831605951804,KHUTALA MOKASA,20.448533,79.490717,Khutala,20.45284106,79.48419241
106,Chimur,1.03765763748,KITALI MAKTA,20.61565,79.515183,Kitadi,20.60658424,79.512819
107,Chimur,3.02204823514,SAWARLA,20.619633,79.354683,Kitadi,20.63060106,79.38125244
108,Chimur,2.2743926681,KITADI TUKUM,20.44745,79.34235,Kitadi Tukum,20.44489478,79.32069167
109,Chimur,1.07744342762,KOLARA,20.4075,79.369533,Kolara,20.40938393,79.35939166
110,Chimur,1.07104934781,SATARA,20.418717,79.361933,Kolara Kh.,20.40938393,79.35939166
111,Chimur,1.07744342762,KOLARA,20.4075,79.369533,Kolara Tukum,20.40938393,79.35939166
112,Chimur,0.542816760121,KOLARI,20.692983,79.54545,Kolari,20.69121268,79.55031306
113,Chimur,0.408777009792,KOTAGAON,20.529333,79.4907,Kotgaon,20.5327455,79.48923999
114,Chimur,2.57070482339,CHICHALA SHASTRI,20.64995,79.474567,Lawari,20.62744121,79.48020502
115,Chimur,0.782655660051,LAWARI  BOTHALI,20.49805,79.5356,Lawari,20.49121674,79.53379826
116,Chimur,0.328795537559,LOHARA,20.502967,79.5156,Lohara BJ,20.50113998,79.51311782
117,Chimur,0.671827766259,MADNAPUR,20.39202,79.409443,Madnapur,20.39128285,79.40304532
118,Chimur,0.671827766259,MADNAPUR,20.39202,79.409443,Madnapur Tukum,20.39128285,79.40304532
119,Chimur,0.316741892033,MAHADAWADI,20.412267,79.49325,Mahadwadi,20.4115083,79.49032042
120,Chimur,0.598233621705,MAHALGAON    KALU,20.5781,79.36175,Mahalgaon,20.58323759,79.36345575
121,Chimur,0.963771262214,AMARPURI,20.5348,79.26325,Majara Begde,20.52615299,79.26388452
122,Chimur,1.64301400816,SAWARI BIDKAR,20.44565,79.18285,Makona,20.45959166,79.17762581
123,Chimur,1.14467592208,MALAWADA,20.527283,79.4287,Malewada,20.53309012,79.43777649
124,Chimur,1.74881971807,KOLARA,20.4075,79.369533,Mandavzari,20.39547586,79.35871674
125,Chimur,1.02891312613,MANEMOHADI,20.4139,79.413883,Manemohadi,20.42077949,79.40727987
126,Chimur,1.02535885279,MANGALGAON,20.578083,79.45665,Mangalgaon,20.57970801,79.46634565
127,Chimur,0.628446849874,MASAL BUJRUK,20.419683,79.384583,Masal Bk,20.4189667,79.37860093
128,Chimur,2.77278443684,NANDARA,20.435867,79.398167,Masal Kh.,20.4189667,79.37860093
129,Chimur,5.76662468181,NANDARA,20.435867,79.398167,Masal Tukum,20.38836635,79.37595907
130,Chimur,0.681195708659,METEPAR,20.5555,79.480267,Metepar,20.56162421,79.48010277
131,Chimur,0.75173024051,MASALI,20.440817,79.428367,Mhasali,20.44074154,79.42115269
132,Chimur,1.96977593557,MURPAR TUKUM,20.55255,79.292367,Minzari,20.57021864,79.2937293
133,Chimur,1.83610573284,PARADPAR,20.5645,79.4268,Minzari,20.56559728,79.40920259
134,Chimur,2.01003649621,NERI,20.4719,79.44535,Mokhala,20.45452987,79.44000839
135,Chimur,1.42489010521,MOTEGAON,20.435283,79.513033,Motegaon,20.42648525,79.50309053
136,Chimur,0.640716785268,MURPAR TUKUM,20.55255,79.292367,Murpar,20.54688024,79.29346428
137,Chimur,0.640716785268,MURPAR TUKUM,20.55255,79.292367,Murpar Tukum,20.54688024,79.29346428
138,Chimur,0.712291478154,NANDARA,20.435867,79.398167,Nandara,20.44169292,79.39532484
139,Chimur,0.129171113763,NAWTALA,20.525333,79.51275,Navatala,20.52520437,79.51151722
140,Chimur,3.22130796645,GADPIPARI,20.64535,79.456917,Navegaon Brahman,20.62246392,79.43793764
141,Chimur,0.268592507913,NERI,20.4719,79.44535,Neri,20.4711202,79.44290971
142,Chimur,1.12684632195,JAMBHULGHAT,20.545417,79.457117,Nimdhela,20.53933021,79.46576956
143,Chimur,1.43119751393,KHAIRI,20.666983,79.5731,Pachgaon,20.65894856,79.56235323
144,Chimur,1.6001970657,PALASGAON,20.36075,79.4617,Palasgaon,20.35308386,79.44870964
145,Chimur,3.49808303901,KHUTALA MOKASA,20.448533,79.490717,Pandharwani,20.46563581,79.46253588
146,Chimur,0.943604275155,PANJAREPAR,20.680233,79.5724,Panjarepar,20.6841804,79.58042952
147,Chimur,0.578032574365,PARADPAR,20.5645,79.4268,Paradpar,20.55943773,79.42553786
148,Chimur,2.4690998334,BORGAON BUTI,20.591033,79.4298,Pardi,20.59939432,79.45177524
149,Chimur,2.49030774493,KESALABODI,20.531017,79.2109,Parsodi,20.51618923,79.22882183
150,Chimur,0.98232477654,PET BHANSULI,20.535833,79.262617,Pethbhansuli,20.54233775,79.25623357
151,Chimur,2.79569388083,PIPARDA,20.348483,79.480717,Piparda,20.33641359,79.45719399
152,Chimur,2.50228469883,GADAGAON,20.534533,79.347017,Pitichua,20.55198956,79.36218284
153,Chimur,2.50228469883,GADAGAON,20.534533,79.347017,Pitichua,20.55198956,79.36218284
154,Chimur,0.97545169493,PUYARDAND,20.644183,79.428933,Puyardand,20.6489716,79.43678766
155,Chimur,1.22344661698,RENGBODI,20.503567,79.226033,Rengabodi R,20.50415142,79.23776332
156,Chimur,1.39336768335,SATARA,20.418717,79.361933,Satara,20.41997625,79.34862965
157,Chimur,0.241396191415,SATHAGAON,20.696417,79.5191,Sathgaon,20.69468582,79.5205003
158,Chimur,0.647693775574,SAWARGAON,20.50595,79.426667,Sawargaon,20.50821767,79.43239532
159,Chimur,1.18631462958,SAWARI BIDKAR,20.44565,79.18285,Sawari,20.4501086,79.19319425
160,Chimur,1.4049925396,SAWARLA,20.619633,79.354683,Sawarla,20.62134125,79.36805937
161,Chimur,1.13875081165,SHANKARPUR,20.6429,79.53125,Shankarpur,20.65224229,79.53573325
162,Chimur,0.261826950658,SIRPUR,20.472467,79.498067,Shirpur,20.47075596,79.4997937
163,Chimur,0.738124274448,SHIVAPUR BANDER,20.506217,79.290533,Shivapur,20.51280188,79.28963725
164,Chimur,0.913274481679,SHIORA,20.598033,79.474683,Shiwara,20.59856966,79.48343846
165,Chimur,1.01866640972,SIRASPUR,20.600267,79.461067,Siraspur,20.60882325,79.46456426
166,Chimur,0.957543756751,SONEGAON VAN,20.511817,79.240717,Sonegaon van,20.51587553,79.24882626
167,Chimur,1.11184414544,TALOTHI GAON   NAIK,20.452183,79.348,Talodhi Gaonganna,20.46147968,79.34407079
168,Chimur,0.179006115866,TALOTHI GAON   NAIK,20.452183,79.348,Talodhi Tukum,20.45064328,79.34749844
169,Chimur,1.74881971807,KOLARA,20.4075,79.369533,Tekadi,20.39547586,79.35871674
170,Chimur,0.546985835843,TEKEPAR,20.437283,79.354917,Tekepar,20.4384247,79.34981073
171,Chimur,0.546985835843,TEKEPAR,20.437283,79.354917,Tekepar Rith,20.4384247,79.34981073
172,Chimur,0.546985835843,TEKEPAR,20.437283,79.354917,Tekepar Tukum,20.4384247,79.34981073
173,Chimur,3.78987605381,NAWEGAON PETH,20.5332,79.39255,Tirkhura,20.55198956,79.36218284
174,Chimur,1.83986508386,PARADPAR,20.5645,79.4268,Titawi,20.57490453,79.41305821
175,Chimur,3.53155174235,KAWATHALA,20.531983,79.355733,Urkudpar,20.5610564,79.34208033
176,Chimur,0.519345760174,USEGAON,20.433867,79.44715,Usegaon,20.4362306,79.44285109
177,Chimur,0.742543977788,WAHANGAON,20.482883,79.2348,Vahangaon,20.48926615,79.23270561
178,Chimur,0.177510059578,WAKARLA,20.677967,79.48125,Vakarla,20.6770603,79.47984563
179,Chimur,1.21779444395,VIHIRGAON,20.384233,79.430567,Vihirgaon,20.37561196,79.4233616
180,Chimur,1.3594033643,VIHIRGAON TUKUM,20.37535,79.4364,Vihirgaon Tukum,20.37561196,79.4233616
181,Chimur,4.12747820585,SHIORA,20.598033,79.474683,Wadala,20.59125271,79.51366932
182,Chimur,1.24286942744,WADASI,20.39405,79.46185,Wadasi,20.39710457,79.45037895
183,Chimur,2.95781490175,CHICHOLI,20.668917,79.368483,Wadhona,20.64468368,79.35676028
184,Chimur,2.80978806578,KOTAGAON,20.529333,79.4907,Waghal Peth,20.55009239,79.50608541
185,Chimur,1.28837213908,WAGHEDA,20.404483,79.44695,Wagheda,20.40130576,79.43506171
186,Chimur,2.9318923177,GONDEDA,20.400333,79.4752,Wasan Vihira,20.37570443,79.46515479
187,Chimur,0.542073126379,YERAKHEDA,20.566333,79.392233,Yerkheda,20.56964244,79.39605624
188,Chimur,2.82948810899,KHAIRI,20.666983,79.5731,Zari,20.64910225,79.592449
189,Chimur,1.62441639327,SHIVAPUR BANDER,20.506217,79.290533,Zari,20.49375551,79.28239349
190,Mul,5.76448105801,JANALA,20.04092,79.606575,Agdi,20.01810607,79.55702669
191,Mul,1.73128659883,AAKAPUR,20.07235,79.709967,Akapur,20.05687878,79.70810435
192,Mul,1.38943812922,BABRALA,19.957253,79.722495,Babrala,19.94583295,79.71709965
193,Mul,3.92415351741,CHIKHALI (KH),20.15315,79.69075,Belgata Chak No.1,20.12372515,79.66999753
194,Mul,3.92415351741,CHIKHALI (KH),20.15315,79.69075,Belgata Chak No.2,20.12372515,79.66999753
195,Mul,3.92415351741,CHIKHALI (KH),20.15315,79.69075,Belgata Mal,20.12372515,79.66999753
196,Mul,1.68951077584,BEMBAL,19.939867,79.73575,Bembal,19.92954293,79.72389158
197,Mul,1.76683216068,BHADURNI,20.147367,79.6582,Bhadurni,20.14670962,79.64128937
198,Mul,1.19322359385,BHAVRALA,20.0392,79.75355,Bhawarala,20.03227814,79.76227827
199,Mul,1.59211233538,BHEJGAON,19.988267,79.689183,Bhejgaon,19.97527475,79.68277985
200,Mul,1.73128659883,AAKAPUR,20.07235,79.709967,bijapur rith,20.05687878,79.70810435
201,Mul,0.941550766599,BONDALA BK,19.920883,79.739417,Bondala Bk.,19.91456169,79.74540934
202,Mul,0.750365853258,BONDALA KH.,19.9199,79.7498,Bondala Kh.,19.91456169,79.74540934
203,Mul,2.52777299914,BORCHANDLI,20.0407,79.72033,Borchandli,20.0309651,79.69846368
204,Mul,5.75039649063,BONDALA BK,19.920883,79.739417,Borghat Raiyyatwari,19.95146103,79.6950525
205,Mul,3.06885199051,PIPRI DIXIT,19.953667,79.67135,Chak Bembal,19.92606829,79.67144318
206,Mul,4.2873453494,CHIKHALI (KH),20.15315,79.69075,Chak Chikhli No.1,20.12498291,79.66270554
207,Mul,2.06602031289,CHIROLI,19.999881,79.608707,Chak Chiroli,19.99261294,79.59051037
208,Mul,4.98432654826,PIPRI DIXIT,19.953667,79.67135,Chak Ghosari,19.91206994,79.65358304
209,Mul,2.27082176558,CHIKHALI (KH),20.15315,79.69075,Chak Kanhalgaon,20.13324779,79.69562645
210,Mul,3.30471992837,KATWAN CHAK,20.083299,79.641903,Chak Katwan,20.06893279,79.61420267
211,Mul,3.32255721627,NALESHWAR MO.,19.971117,79.632633,Chak Naleshwar,19.94845925,79.61190814
212,Mul,1.16614596673,CHANDAPUR,20.018667,79.7488,Chandapur,20.01437601,79.75898459
213,Mul,1.58747083956,CHINCHALA,20.023083,79.67635,Chichala (Mo),20.00888393,79.67476999
214,Mul,2.92521846579,KATWAN CHAK,20.083299,79.641903,Chicholi,20.07822826,79.6144184
215,Mul,4.2873453494,CHIKHALI (KH),20.15315,79.69075,Chikhli No.2,20.12498291,79.66270554
216,Mul,1.51022406593,CHIMDHA,20.0776,79.729083,Chimadha,20.0681955,79.71865031
217,Mul,2.06602031289,CHIROLI,19.999881,79.608707,Chiroli,19.99261294,79.59051037
218,Mul,0.888790351384,CHITEGAON,20.100767,79.694533,Chitegaon,20.09448864,79.68926537
219,Mul,2.34506109486,GADISURLA,19.983017,79.729917,Churul Tukum,19.96802517,79.7456995
220,Mul,1.13193906621,DABGAON MAKTA,19.950833,79.597617,Dabgaon Makta,19.9538046,79.58725888
221,Mul,1.13193906621,DABGAON MAKTA,19.950833,79.597617,Dabgaon Tukum,19.9538046,79.58725888
222,Mul,2.79559615792,DONGARGAON,20.175736,79.677717,Dongargaon,20.15848242,79.65823592
223,Mul,1.26706880051,CHECK DUGALA,19.9664,79.708267,Dugala,19.95595288,79.71310802
224,Mul,1.26706880051,CHECK DUGALA,19.9664,79.708267,dugala mal,19.95595288,79.71310802
225,Mul,2.16030083376,CHECK DUGALA,19.9664,79.708267,Dugala Raiyyatwari,19.95146103,79.6950525
226,Mul,1.32806389324,FISKUTI,20.015717,79.722167,Fiskuti,20.01349048,79.70967857
227,Mul,0.81986314284,GADISURLA,19.983017,79.729917,Gadisurla,19.98201228,79.73768935
228,Mul,3.2217261678,GANGALWADI,20.163383,79.687683,Gangalwadi,20.18596414,79.70702359
229,Mul,2.83255772353,MURMADI,20.16888,79.74215,Golabhuj,20.17047885,79.71506548
230,Mul,1.95020883809,GOVARDHAN,19.890956,79.735751,Gowardhan,19.87377227,79.73948402
231,Mul,1.89400629908,HALDI GAOGANNA,20.011317,79.676483,Haldi Gaonganna,19.99495821,79.6714328
232,Mul,1.69453724575,HALDI GAOGANNA,20.011317,79.676483,Haldi Tukum,20.00141466,79.66415543
233,Mul,3.56582763109,JANALA,20.04092,79.606575,Janala Ryt.,20.03015894,79.57442018
234,Mul,0.4758230546,JUNASURLA,19.995429,79.75068,Junasurla,19.9992545,79.75272056
235,Mul,1.73132913181,TOLEWAHI,20.008417,79.605417,Kantapeth Ryt.,20.01551673,79.62016478
236,Mul,3.30471992837,KATWAN CHAK,20.083299,79.641903,Karwan,20.06893279,79.61420267
237,Mul,3.30471992837,KATWAN CHAK,20.083299,79.641903,Katwan,20.06893279,79.61420267
238,Mul,5.93000634554,CHINCHALA,20.023083,79.67635,Kawadpeth Mal,20.01551673,79.62016478
239,Mul,5.93000634554,CHINCHALA,20.023083,79.67635,Kawadpeth Raiyyatwari,20.01551673,79.62016478
240,Mul,3.0285008572,KELZAR,19.981617,79.56835,Kelzar,19.96878052,79.5427911
241,Mul,1.48629288513,KHALWASPETH,19.987767,79.62035,Khalwaspeth,20.00065984,79.62410317
242,Mul,3.66643628533,NAVEGAON BHUJALA,19.96512,79.74729,Korambi,19.94372689,79.77398354
243,Mul,2.09198114754,KOSAMBI,20.0873,79.67235,Kosambi,20.08134089,79.65334961
244,Mul,2.09198114754,KOSAMBI,20.0873,79.67235,Kosambi Ry.,20.08134089,79.65334961
245,Mul,5.64961278533,KELZAR,19.981617,79.56835,Manda Tukum,19.93211461,79.58052606
246,Mul,1.42608402886,MAREGAON,20.083124,79.706649,Marhegaon,20.076726,79.6948144
247,Mul,3.06259953201,MARODA,20.10275,79.651783,Maroda,20.10246166,79.6224552
248,Mul,1.98547621591,MORWAHI,20.114433,79.67623,Morwahi Chak,20.10010958,79.6648764
249,Mul,1.98547621591,MORWAHI,20.114433,79.67623,Morwahi Mal,20.10010958,79.6648764
250,Mul,2.05014346365,MURMADI,20.16888,79.74215,Murmadi,20.15675608,79.72735261
251,Mul,3.32255721627,NALESHWAR MO.,19.971117,79.632633,Naleshwar,19.94845925,79.61190814
252,Mul,2.86876003846,NANDGAON,19.911717,79.73105,Nandgaon,19.89262514,79.74950469
253,Mul,1.4593123524,NAVEGAON BHUJALA,19.96512,79.74729,Nawegaon Bhujala,19.95205366,79.74859639
254,Mul,4.83106864204,BHADURNI,20.147367,79.6582,Padzari,20.14008911,79.61257634
255,Mul,4.83106864204,BHADURNI,20.147367,79.6582,Padzari Chak,20.14008911,79.61257634
256,Mul,2.00520680402,PIPRI DIXIT,19.953667,79.67135,Pipari Dixit,19.93695712,79.6641366
257,Mul,1.03618505172,RAJGAD,20.038317,79.738233,Rajgad,20.03556891,79.72875511
258,Mul,1.89404353894,RAJOLI,20.1911,79.690933,Rajoli,20.18614763,79.67356843
259,Mul,4.16182843024,DONGARGAON,20.175736,79.677717,Ratnapur,20.16531839,79.639419
260,Mul,3.58129666004,BHADURNI,20.147367,79.6582,Shiwapur Ryt.(Chak),20.15710155,79.6254969
261,Mul,2.12454051961,SITALA,19.980317,79.688967,Sintala,19.963198,79.679939
262,Mul,3.58055656845,SUSHI DABGAON,19.963533,79.602683,Sushi Dabgaon,19.94168161,79.57752095
263,Mul,2.22928339369,TADALA TUKUM,20.033417,79.673717,Tadala,20.02602785,79.65388011
264,Mul,2.22928339369,TADALA TUKUM,20.033417,79.673717,Tadala Tukum,20.02602785,79.65388011
265,Mul,2.83255772353,MURMADI,20.16888,79.74215,Tadbhuj,20.17047885,79.71506548
266,Mul,0.839332853825,TEKADI,20.089553,79.735646,Tekadi,20.08975513,79.72761156
267,Mul,3.41280191161,TOLEWAHI,20.008417,79.605417,Tolewahi,19.99976667,79.57407846
268,Mul,2.36595361325,USHRALA CHAK,20.132267,79.665767,Ushrada Chak,20.12631133,79.64401109
269,Mul,2.99031331026,UTHALPETH,19.980733,79.629867,Uthal Peth,19.96262677,79.60871071
270,Mul,1.05186187804,VIRAI,20.005667,79.70995,Virai,19.99973759,79.70210618
271,Mul,3.84908989914,HALDI GAOGANNA,20.011317,79.676483,Wedi Rith,19.98825268,79.64901398
272,Mul,1.54515563101,BHEJGAON,19.988267,79.689183,Yejgaon,19.97481533,79.69289182
273,NAGBHID,1.06515073989,AKAPUR,20.426517,79.716833,Akapur,20.43304209,79.70934922
274,NAGBHID,3.01870355647,ALEWAHI,20.37535,79.705917,Alewahi,20.36550325,79.67893013
275,NAGBHID,0.547746306867,BALAPUR BUJ,20.453067,79.75115,Balapur Bk,20.45583883,79.74680382
276,NAGBHID,0.236470825599,BALAPUR KHURD,20.625767,79.75325,Balapur Kh.,20.62367061,79.75363185
277,NAGBHID,0.547746306867,BALAPUR BUJ,20.453067,79.75115,Balapur Tukum,20.45583883,79.74680382
278,NAGBHID,0.961342338049,BAMHANI,20.6317,79.662933,Bamhani,20.62803611,79.67130036
279,NAGBHID,1.57836283279,TALODHI BALAPUR,20.4421,79.662517,Bamhani,20.45520691,79.66833273
280,NAGBHID,2.79597046375,BIKLI,20.66435,79.620267,Banvahi Mal,20.66329874,79.64711713
281,NAGBHID,2.79597046375,BIKLI,20.66435,79.620267,Banwahi,20.66329874,79.64711713
282,NAGBHID,2.79597046375,BIKLI,20.66435,79.620267,Banwahi Chak,20.66329874,79.64711713
283,NAGBHID,2.05465262579,BHIKHESHWAR,20.585467,79.718583,Bhikeshwar,20.57340265,79.73353293
284,NAGBHID,1.31704301459,BIKLI,20.66435,79.620267,Bikli,20.65712764,79.63029994
285,NAGBHID,0.56491466915,BOND,20.488917,79.7424,Bond,20.48984227,79.7370672
286,NAGBHID,0.485850808229,BOTHALI,20.608833,79.696267,Bothali,20.60734304,79.70065528
287,NAGBHID,0.559083509559,CHARGAON CHACK,20.439533,79.636433,Chargaon Chak,20.44286693,79.6404496
288,NAGBHID,1.9238562414,CHCHINDHI CHACK,20.498133,79.666983,Chichala,20.48133251,79.67139631
289,NAGBHID,0.993417190984,CHIKHALGAON,20.38095,79.640967,Chikhalgaon,20.37756481,79.63214711
290,NAGBHID,0.412687271779,CHIKMARA,20.60405,79.728233,Chikmara,20.60165545,79.73126233
291,NAGBHID,1.85411811514,PALASGAON KHURD,20.468117,79.68225,Chinchala Rith,20.48133251,79.67139631
292,NAGBHID,0.789502182144,CHCHINDHI CHACK,20.498133,79.666983,Chindhimal,20.50391544,79.67138175
293,NAGBHID,0.789502182144,CHCHINDHI CHACK,20.498133,79.666983,Chindhi Raiyyatwari,20.50391544,79.67138175
294,NAGBHID,1.75587715441,KHADAKI PANHOLI,20.6044,79.76115,Devtak,20.60938237,79.74514136
295,NAGBHID,4.2203276506,YENOLI    MAL,20.468467,79.595417,Dhamagaon Chak,20.43989901,79.56874754
296,NAGBHID,0.155393334438,DHORPA,20.653467,79.752,Dhorpa,20.6534261,79.75050717
297,NAGBHID,2.79766296386,BALAPUR BUJ,20.453067,79.75115,Gaimukh,20.46435522,79.72715065
298,NAGBHID,0.314139988518,GANGASAGAR HETI,20.41145,79.711683,Gangasagar Heti,20.40930347,79.70972318
299,NAGBHID,2.60886343909,GIRGAON,20.3793,79.603283,Girgaon,20.38499112,79.57900137
300,NAGBHID,1.13499298681,GOVINDPUR,20.483,79.611833,Govindpur,20.47620619,79.61996482
301,NAGBHID,1.15718950501,NAWEGAON HUNDESHWARI,20.533517,79.76555,Gowarpeth,20.52422258,79.76055105
302,NAGBHID,2.38038781751,KITALI BORMALA,20.5001,79.652017,Huma,20.52031306,79.64448955
303,NAGBHID,2.24248292478,DHORPA,20.653467,79.752,Irvha,20.67310783,79.74710807
304,NAGBHID,0.19193929104,JANKAPUR,20.481617,79.691867,Jankapur,20.4831705,79.69267027
305,NAGBHID,1.42216406954,ALEWAHI,20.37535,79.705917,Jivanapur,20.36606889,79.69652989
306,NAGBHID,4.94718333097,NANDED,20.424533,79.597817,Kachepar,20.42071116,79.55051731
307,NAGBHID,1.29317178283,KANHALGAON,20.401,79.621767,Kanhalgaon,20.39368376,79.6121221
308,NAGBHID,0.669273513666,KANPA,20.676467,79.600667,Kanpa,20.67441717,79.60671568
309,NAGBHID,1.7091618654,PENDHARI BARAD,20.616067,79.645233,Kasarla,20.60496296,79.63387777
310,NAGBHID,0.213857452089,KHADAKI PANHOLI,20.6044,79.76115,Khadki,20.60616877,79.76195687
311,NAGBHID,3.33435663328,KITALI BORMALA,20.5001,79.652017,Khadki,20.52802148,79.64034102
312,NAGBHID,3.31347803612,GOVINDPUR,20.483,79.611833,Kharbi,20.51140405,79.62145197
313,NAGBHID,0.729110987025,KIRMITI,20.582033,79.763233,Kirmiti,20.58844076,79.76174687
314,NAGBHID,0.106993905323,MENDHA KIRMITI,20.596,79.77215,Kirmiti Mendha,20.59505614,79.77195016
315,NAGBHID,0.690850042936,KITALI MENDHA,20.518,79.72695,Kitadi,20.51931424,79.73343371
316,NAGBHID,0.393414739186,KITALI BORMALA,20.5001,79.652017,Kitadi Bormala,20.50099188,79.6556723
317,NAGBHID,0.690850042936,KITALI MENDHA,20.518,79.72695,Kitadi Mendha,20.51931424,79.73343371
318,NAGBHID,2.8185245059,MINDALA,20.537617,79.725133,Kodepar,20.53913931,79.69811374
319,NAGBHID,1.72137598079,KOJBI MAL,20.448583,79.626367,Kojbi,20.45372617,79.6107834
320,NAGBHID,1.72137598079,KOJBI MAL,20.448583,79.626367,Kojbi Chak,20.45372617,79.6107834
321,NAGBHID,0.583669968763,KORDHA,20.586667,79.739333,Kordha,20.59058292,79.74306696
322,NAGBHID,0.54767750763,KOSAMBI GAWALI,20.543283,79.7614,Kosambi Chak 1,20.54358591,79.76664992
323,NAGBHID,0.54767750763,KOSAMBI GAWALI,20.543283,79.7614,Kosambi Chak 2,20.54358591,79.76664992
324,NAGBHID,0.54767750763,KOSAMBI GAWALI,20.543283,79.7614,Kosambi Gaoli,20.54358591,79.76664992
325,NAGBHID,0.197065417082,KOTGAON,20.626867,79.688467,Kotgaon,20.62690712,79.69036016
326,NAGBHID,2.8442863733,KOTHULANA,20.621833,79.73255,Kothulana,20.61765568,79.70558681
327,NAGBHID,1.77885337374,PENDHARI BARAD,20.616067,79.645233,Kunghada,20.63167041,79.64900416
328,NAGBHID,4.20140689262,BIKLI,20.66435,79.620267,Kunghada Chak,20.63183214,79.64082924
329,NAGBHID,5.38169166309,WADHONA,20.399617,79.680417,Lakhamapur,20.44695661,79.69116204
330,NAGBHID,1.18842903466,MANGLI   ARAB,20.650183,79.659267,Mangali,20.64590388,79.66973308
331,NAGBHID,0.958512039739,MANGRUL,20.500817,79.63135,Mangrul,20.50254907,79.64036531
332,NAGBHID,2.59863059558,WALANI,20.420633,79.65205,Mendha Chargaon,20.43300895,79.63089569
333,NAGBHID,0.874834745539,MHASALI,20.629533,79.72505,Mhasali,20.62601811,79.73257095
334,NAGBHID,0.717474159149,MINDALA,20.537617,79.725133,Mindala,20.54390332,79.72668628
335,NAGBHID,1.09031172867,MINTHUR,20.571717,79.728817,Minthur,20.56277161,79.73310611
336,NAGBHID,0.932691182587,MOUSHI,20.651467,79.770167,Moushi,20.64320303,79.77170211
337,NAGBHID,0.932691182587,MOUSHI,20.651467,79.770167,Moushi Chak,20.64320303,79.77170211
338,NAGBHID,1.21569554807,NAGBHID,20.583883,79.68205,Nagbhid,20.57413412,79.67676394
339,NAGBHID,2.25342993931,NANDED,20.424533,79.597817,Nanded,20.41850238,79.57717199
340,NAGBHID,1.63512324254,BOND,20.488917,79.7424,Nawanagar,20.50277332,79.74765613
341,NAGBHID,0.335019331999,NAWEGAON HUNDESHWARI,20.533517,79.76555,Nawegaon Hundeshwari,20.53452446,79.76858212
342,NAGBHID,1.24819277067,NAVKHALA,20.593133,79.6714,Nawkhala,20.59954177,79.68124527
343,NAGBHID,0.44861045588,OWALA,20.4655,79.6633,Owala,20.46895297,79.66552717
344,NAGBHID,0.220702659459,PAHARNI,20.6593,79.718983,Paharni,20.66120382,79.71958283
345,NAGBHID,0.517492323434,PALASGAON KHURD,20.468117,79.68225,Palasgaon Khurd,20.4727206,79.68297853
346,NAGBHID,0.517492323434,PALASGAON KHURD,20.468117,79.68225,Palasgaon Tukum,20.4727206,79.68297853
347,NAGBHID,0.517093454735,PANHOLI,20.615783,79.766283,Panholi,20.61893262,79.76993845
348,NAGBHID,0.517093454735,PANHOLI,20.615783,79.766283,Panholi Mendha,20.61893262,79.76993845
349,NAGBHID,0.10554455153,PANJREPAR,20.599833,79.750217,Panjarepar,20.59985688,79.7492033
350,NAGBHID,0.138674278214,PARDI,20.575583,79.7558,Pardi,20.57567078,79.7571288
351,NAGBHID,1.1960683015,PENDHARI BARAD,20.616067,79.645233,Pendhari Barad,20.61613525,79.65672524
352,NAGBHID,1.81594262203,BOND,20.488917,79.7424,Rajoli,20.50404827,79.73584051
353,NAGBHID,1.66122925778,PARDI,20.575583,79.7558,Ranparsodi,20.56074569,79.75393416
354,NAGBHID,0.629517127906,PENDHARI BARAD,20.616067,79.645233,Rengatur,20.62124268,79.64768427
355,NAGBHID,2.53373526285,OWALA,20.4655,79.6633,Sapepar,20.47801541,79.64297466
356,NAGBHID,1.38386477557,SONULI BUJ,20.4666,79.637683,Sapepar Raiyyatwari,20.47801541,79.64297466
357,NAGBHID,3.15785942691,SONAPUR BUJ.,20.483,79.5857,Sarangad,20.49987376,79.56131409
358,NAGBHID,1.86261596254,SAWARGAON,20.407067,79.652817,Sawargaon,20.40266332,79.6355733
359,NAGBHID,3.7720689946,WADHONA,20.399617,79.680417,Sawarla,20.43344186,79.6776652
360,NAGBHID,0.308515585739,SONAPUR BUJ.,20.483,79.5857,Sonapur,20.48296744,79.5886616
361,NAGBHID,5.26915983524,WADHONA,20.399617,79.680417,Sonapur Tukum,20.36603071,79.64475569
362,NAGBHID,1.24862481849,KANHALGAON,20.401,79.621767,Sonuli,20.4101687,79.61484998
363,NAGBHID,0.559922287228,SONULI BUJ,20.4666,79.637683,Sonuli Bk.,20.46172678,79.63903649
364,NAGBHID,0.559922287228,SONULI BUJ,20.4666,79.637683,Sonuli Chak,20.46172678,79.63903649
365,NAGBHID,1.87543914525,SULEZARI,20.5783,79.69655,Sulezari,20.5875483,79.71161633
366,NAGBHID,0.0477430963552,TALODHI BALAPUR,20.4421,79.662517,Talodhi,20.44177804,79.66221384
367,NAGBHID,2.09254574986,DHORPA,20.653467,79.752,Tekari,20.67111068,79.75899556
368,NAGBHID,1.4813081306,MHASALI,20.629533,79.72505,Telimendha,20.63100053,79.7109021
369,NAGBHID,2.70347791034,TIWARLA TUKUM,20.553567,79.6829,Tivarla Gaonganna,20.56610961,79.7051448
370,NAGBHID,0.914604995828,TIWARLA TUKUM,20.553567,79.6829,Tivarla Tukum,20.55736593,79.69069145
371,NAGBHID,5.056226924,ALEWAHI,20.37535,79.705917,Umargaon,20.36968786,79.65778869
372,NAGBHID,0.916616408919,USHALAMENDHA,20.408217,79.699917,Ushrala,20.40401473,79.69235037
373,NAGBHID,0.209705464231,WAIJAPUR,20.454,79.61555,Vaijapur,20.45555409,79.61440968
374,NAGBHID,0.447558424818,VILAM,20.61805,79.720583,Vilam,20.6161077,79.72434957
375,NAGBHID,1.63627511674,WADHONA,20.399617,79.680417,Wadhona,20.39817056,79.66479309
376,NAGBHID,0.501536407383,WALANI,20.420633,79.65205,Walni,20.42029944,79.6472503
377,NAGBHID,1.06828239468,WASALAMENDHA,20.5282,79.72885,Wasala Makta,20.52867322,79.73909629
378,NAGBHID,1.09731188324,WASALAMENDHA,20.5282,79.72885,Wasala Mendha,20.51931424,79.73343371
379,NAGBHID,2.71028042866,AKAPUR,20.426517,79.716833,Yenoli,20.4258786,79.74283363
380,NAGBHID,0.611669530591,YENOLI    MAL,20.468467,79.595417,Yenoli,20.46745079,79.5896465
381,NAGBHID,0.611669530591,YENOLI    MAL,20.468467,79.595417,Yenoli Chak,20.46745079,79.5896465
382,NAGBHID,2.24482602674,GIRGAON,20.3793,79.603283,Zadbori,20.39749774,79.59395775
383,SAOLI,0.222746721524,AKAPUR,20.302033,79.929767,Akapur,20.30027011,79.92875264
384,SAOLI,1.78014817531,ANATRGAON,20.204033,79.9036,Antargaon,20.18829083,79.90049711
385,SAOLI,1.78014817531,ANATRGAON,20.204033,79.9036,Antargaon Tola,20.18829083,79.90049711
386,SAOLI,4.08341728922,CHIKHALI,20.223483,79.94735,Barsagad,20.22966741,79.90877247
387,SAOLI,2.35786151764,BELGAON,20.1474,79.890717,Belgaon,20.14857632,79.86816484
388,SAOLI,2.37923943995,NILSANI PETHGAON,20.059367,79.969617,Bhansi,20.04566152,79.98710881
389,SAOLI,1.06630933379,CHARGAON,20.1043,79.77535,Bharpayali,20.11274509,79.77051197
390,SAOLI,3.34197606905,JAMBUJRUK,20.05235,79.874933,Bhatti Jamb,20.05670347,79.84327535
391,SAOLI,0.910935760949,BORMALA,20.22775,79.97105,Bormala,20.2213935,79.97655752
392,SAOLI,0.780059442299,BOTHALI,20.117817,79.814667,Bothali,20.11715294,79.80722949
393,SAOLI,2.09084019017,CHARGAON,20.1043,79.77535,Chak Mankapur,20.12286753,79.77851163
394,SAOLI,4.192538811,KONDEKHAL ALIAS GHODEWAHI,20.0763,79.8707,Chak Pethgaon,20.04656406,79.89537921
395,SAOLI,1.4074220537,CHAK PIRANJI,20.09615,79.814917,Chak Piranji,20.08350949,79.81422407
396,SAOLI,0.347019907781,CHANDLI BUJ,20.056883,79.74015,Chandli Bk.,20.05391545,79.74117838
397,SAOLI,1.07964517658,CHARGAON,20.1043,79.77535,Chargaon,20.09763014,79.76783634
398,SAOLI,0.446461747116,CHICHBODI,20.13515,79.88525,Chichbodi,20.13607306,79.88108804
399,SAOLI,1.7332097805,CHIKHALI,20.223483,79.94735,Chikhali,20.20973726,79.93951813
400,SAOLI,5.46995420658,GAYDONGARI,20.202833,79.875,Dabgaon Maushi,20.15718103,79.89452325
401,SAOLI,1.46633086248,DONALA MAL,20.021817,79.9538,Donala,20.01755213,79.96708082
402,SAOLI,1.46633086248,DONALA MAL,20.021817,79.9538,Donala Chak.,20.01755213,79.96708082
403,SAOLI,1.27696992909,GAYDONGARI,20.202833,79.875,Gaidongari,20.19724176,79.86431154
404,SAOLI,0.587434967148,GEWARA BUJ,20.256417,79.9391,Geora Bk.,20.25952181,79.93454389
405,SAOLI,0.587434967148,GEWARA BUJ,20.256417,79.9391,Geora Chak,20.25952181,79.93454389
406,SAOLI,0.465390658365,GEWARA KHARD,20.24905,79.946517,Geora Kh.,20.24739758,79.94241836
407,SAOLI,0.186379537477,GHODEWAHI,20.071317,79.832883,Ghodewahi,20.0725115,79.8341349
408,SAOLI,1.57588513562,HARMBA,19.986617,79.9205,Haramba,19.98285154,79.93503834
409,SAOLI,1.05292233977,HIRAPUR,20.116167,79.83295,Hirapur,20.12537855,79.83528628
410,SAOLI,0.736405178073,JAMBUJRUK,20.05235,79.874933,Jamb Bk.,20.05526867,79.86860449
411,SAOLI,3.48545556824,SAYKHEDA,20.270733,79.88835,Jankapur,20.29043377,79.86235799
412,SAOLI,3.48545556824,SAYKHEDA,20.270733,79.88835,Jankapur T.,20.29043377,79.86235799
413,SAOLI,1.01727168129,JIBGAON,20.040333,79.855167,Jibgaon,20.04897641,79.85197581
414,SAOLI,4.84599490956,KADHOLI,19.9918,79.941,Kadholi,20.03323573,79.92662691
415,SAOLI,0.796490201403,KAPSI,20.07435,79.9354,Kapsi,20.07211348,79.942645
416,SAOLI,1.5490291376,KARGAON CHAK,20.1734,79.8362,Kargaon Chak,20.16303178,79.82628817
417,SAOLI,1.16748639958,KAROLI,20.292217,79.932717,Karoli,20.28348518,79.92650094
418,SAOLI,1.12285799024,KASARGAON,20.244267,79.950483,Kasargaon,20.25334488,79.95519746
419,SAOLI,0.109280639671,KAWADHI,20.0323,79.794483,Kawathi,20.03235588,79.79343862
420,SAOLI,0.4284233444,KERODA,20.083867,79.88385,Keroda,20.08448838,79.87980133
421,SAOLI,0.641481227693,HIRAPUR,20.116167,79.83295,Kesarwahi,20.11692816,79.82685993
422,SAOLI,2.83018506771,KAROLI,20.292217,79.932717,Khanabad Chak,20.2959086,79.90586695
423,SAOLI,1.16824870266,KHEDI,20.072,79.7612,Khedi,20.0689788,79.75048685
424,SAOLI,3.22656925502,VHYAHAD KHURD,20.115233,79.875883,Kisannagar,20.09697455,79.85186658
425,SAOLI,1.16871921914,KONDEKHAL ALIAS GHODEWAHI,20.0763,79.8707,Kondekhal,20.07291302,79.86010654
426,SAOLI,2.33358973439,LONDHALI,19.994383,79.89305,Londholi,19.98469953,79.91286248
427,SAOLI,1.4074220537,CHAK PIRANJI,20.09615,79.814917,Mal Piranji,20.08350949,79.81422407
428,SAOLI,1.56050183584,MANGERMEDHA,20.25155,79.888567,Mangar Medha,20.24355608,79.87627262
429,SAOLI,2.09084019017,CHARGAON,20.1043,79.77535,Mankapur,20.12286753,79.77851163
430,SAOLI,1.23444258691,MEHABUJ,20.222933,79.883233,Meha Bk.,20.21967304,79.87192377
431,SAOLI,4.75565635863,MEHABUJ,20.222933,79.883233,meha chak,20.20949089,79.83996625
432,SAOLI,4.75565635863,MEHABUJ,20.222933,79.883233,meha chak,20.20949089,79.83996625
433,SAOLI,1.56050183584,MANGERMEDHA,20.25155,79.888567,Meha Kh.,20.24355608,79.87627262
434,SAOLI,1.6914519369,MOKHALA,20.11755,79.892183,Mokhala,20.1265868,79.90521481
435,SAOLI,3.04555544169,MUNDALA,20.16925,79.81645,Mundala,20.166926,79.78737682
436,SAOLI,1.23685723609,NIPHANDRA,20.2063,79.924533,Nifandra,20.19536292,79.92237317
437,SAOLI,0.462031276286,NILSANI PETHGAON,20.059367,79.969617,Nilsani Pethgaon,20.05642567,79.96649256
438,SAOLI,1.11611149821,NIMGAON,20.1777,79.902717,Nimgaon,20.17280751,79.89337975
439,SAOLI,2.93473710421,PALEBARSA,20.26395,79.871217,Palebarsa,20.2553084,79.84463453
440,SAOLI,0.304759977097,PARDI,20.025167,79.781267,Pardi,20.02300332,79.7830576
441,SAOLI,2.20892495707,PATHARI,20.198383,79.830083,Pathari,20.1852811,79.81417296
442,SAOLI,1.37547905512,PENDHARI MAKTA,20.148933,79.807167,Pendhari,20.14748554,79.79408121
443,SAOLI,1.37547905512,PENDHARI MAKTA,20.148933,79.807167,Pendhari Chak,20.14748554,79.79408121
444,SAOLI,1.37547905512,PENDHARI MAKTA,20.148933,79.807167,Pendhari Sarad,20.14748554,79.79408121
445,SAOLI,2.23053293744,JAMBUJRUK,20.05235,79.874933,Pethgaon,20.04656406,79.89537921
446,SAOLI,5.08465322943,CHICHBODI,20.13515,79.88525,Rajoli Chak,20.13028557,79.8368231
447,SAOLI,1.48700325098,KAWADHI,20.0323,79.794483,Rudrapur,20.04410107,79.80117883
448,SAOLI,3.04088062856,CHARGAON,20.1043,79.77535,Sadagad,20.09863612,79.74686021
449,SAOLI,2.16834304623,SAYKHEDA,20.270733,79.88835,Saikheda,20.26696887,79.86795335
450,SAOLI,3.12372018417,MUNDALA,20.16925,79.81645,Saimara Chak,20.17995359,79.78877902
451,SAOLI,3.12372018417,MUNDALA,20.16925,79.81645,Saimara Tuk,20.17995359,79.78877902
452,SAOLI,0.622487186999,SAKHARI,20.000783,79.886667,Sakhari,19.99980344,79.89253254
453,SAOLI,0.622487186999,SAKHARI,20.000783,79.886667,Sakhari Chak.,19.99980344,79.89253254
454,SAOLI,1.52278139696,SAMDA BUJ,20.101233,79.93485,Samada Bk.,20.11111231,79.94494937
455,SAOLI,0.983083138325,SAOLI,20.081083,79.784283,Sawali,20.07401742,79.7899412
456,SAOLI,0.983083138325,SAOLI,20.081083,79.784283,Sawali Tukum,20.07401742,79.7899412
457,SAOLI,1.69109095536,GHODEWAHI,20.071317,79.832883,Sindola,20.05813463,79.82480882
458,SAOLI,3.05716735863,KAWADHI,20.0323,79.794483,Singapur,20.05143364,79.77346667
459,SAOLI,1.9393346538,SAKHARI,20.000783,79.886667,Sirsimal,20.01770044,79.88215386
460,SAOLI,1.9393346538,SAKHARI,20.000783,79.886667,Sirsi Raiyyatwari,20.01770044,79.88215386
461,SAOLI,0.143577737143,SONAPUR,20.08855,79.9675,Sonapur,20.08730289,79.96714369
462,SAOLI,0.590397878092,THERGAON,20.151217,79.890383,Thergaon,20.14953428,79.88501879
463,SAOLI,2.74405596639,HARMBA,19.986617,79.9205,Umri,20.0044347,79.93866945
464,SAOLI,1.10862813592,UPARI,20.054167,79.9439,Upri,20.06097205,79.9516571
465,SAOLI,1.55398023464,USARPAR CHAK,20.259933,79.8468,Usarpar Chak,20.25008996,79.83622523
466,SAOLI,1.55398023464,USARPAR CHAK,20.259933,79.8468,Usarpar Tukum,20.25008996,79.83622523
467,SAOLI,0.655544489898,USEGAON,20.044833,79.825333,Usegaon,20.03939165,79.8277482
468,SAOLI,0.940363902807,MOKHALA,20.11755,79.892183,Vichora,20.12569987,79.89458781
469,SAOLI,0.566193314563,VIHIRGAON,20.242567,79.9597,Vihirgaon,20.24435818,79.96478026
470,SAOLI,2.08363015357,GAYDONGARI,20.202833,79.875,Virkhal,20.18510324,79.8685374
471,SAOLI,1.22824469045,VYAHADA  B,20.10455,79.913567,Vyahad Bk.,20.09681033,79.90517493
472,SAOLI,0.610266189989,VHYAHAD KHURD,20.115233,79.875883,Vyahad Chak No.1,20.11274471,79.87067351
473,SAOLI,0.610266189989,VHYAHAD KHURD,20.115233,79.875883,Vyahad Chak.no.2,20.11274471,79.87067351
474,SAOLI,0.610266189989,VHYAHAD KHURD,20.115233,79.875883,Vyahad Kh.,20.11274471,79.87067351
475,SAOLI,5.34873938826,NILSANI PETHGAON,20.059367,79.969617,Wadholi Chak.,20.03323573,79.92662691
476,SAOLI,0.859670563432,WAGHOLI BUTTI,20.11785,79.929467,Wagholi,20.12554995,79.9302066
477,Sindewahi,1.28764304759,ALESUR CHAK,20.373117,79.5626,Alesur,20.37478302,79.55037567
478,Sindewahi,1.57658836989,RAMALA,20.296567,79.60955,Amboli,20.28243467,79.60832976
479,Sindewahi,4.94607145977,ANTARGAON,20.34125,79.60865,Antargaon,20.31156606,79.57332263
480,Sindewahi,3.63080854504,WASERA,20.278933,79.572117,antragoan urf,20.31156606,79.57332263
481,Sindewahi,1.14565571471,KUKADHETI,20.225483,79.612117,Bamani Chak,20.21546769,79.6095399
482,Sindewahi,1.14565571471,KUKADHETI,20.225483,79.612117,Bamanimal,20.21546769,79.6095399
483,Sindewahi,2.04694644819,BHENDALA,20.338667,79.6378,Bhendala,20.33584305,79.61839992
484,Sindewahi,1.28764304759,ALESUR CHAK,20.373117,79.5626,Chak Alesur,20.37478302,79.55037567
485,Sindewahi,2.90544092754,KUKADHETI,20.225483,79.612117,Chak Kukadheti,20.22172715,79.58456023
486,Sindewahi,2.05002231813,CHARGAON BADGE,20.336317,79.668783,Chargaonbadge,20.3344836,79.64921874
487,Sindewahi,3.39142257133,NACHAN BHATTI,20.332417,79.576317,Chikhal Minghari,20.34015775,79.60777923
488,Sindewahi,1.98791662936,CHIKMARA,20.227083,79.771517,Chikmara,20.21489208,79.75758157
489,Sindewahi,2.54937115693,NAVEGION LONKHAIRI,20.205867,79.687383,Chitki,20.22559856,79.67494116
490,Sindewahi,2.34126263899,DELANWADI,20.356683,79.624,Delanwadi,20.35488869,79.60162373
491,Sindewahi,0.541291908839,UMARWAHI,20.3109,79.58215,Dewada,20.30709022,79.58538114
492,Sindewahi,4.17126772141,MAREGAON TU.,20.2703,79.733417,Dhanora,20.2537315,79.69754107
493,Sindewahi,1.491974471,GADBORI,20.296633,79.593483,Gadbori,20.30240338,79.60639863
494,Sindewahi,1.06644307321,GADMOUSHI,20.298833,79.6791,Gadmaushi Chak,20.2986062,79.66887705
495,Sindewahi,2.74318774969,GHOT,20.247667,79.740267,Ghot,20.24003154,79.71526377
496,Sindewahi,3.09512759817,LONKHAIRI TUKUM,20.209383,79.70215,Govindpur Chak,20.215402,79.67319
497,Sindewahi,3.472950097,GUNJEWAHI,20.256017,79.801983,Gunjewahi Kotha,20.22817326,79.78690143
498,Sindewahi,3.472950097,GUNJEWAHI,20.256017,79.801983,Gunjewahi M.N.1,20.22817326,79.78690143
499,Sindewahi,3.472950097,GUNJEWAHI,20.256017,79.801983,Gunjewahi M.N.2,20.22817326,79.78690143
500,Sindewahi,5.27172316226,VIRVA,20.2101,79.654333,Itoli,20.20643754,79.6039644
501,Sindewahi,3.02361216516,JAMSALA,20.263467,79.598067,Jamsala,20.25827592,79.56961463
502,Sindewahi,3.94296260848,GADMOUSHI,20.298833,79.6791,Jatlapur,20.27174907,79.65469844
503,Sindewahi,1.71302901259,SINDEWAHI,20.287117,79.65355,Jatlapur Tukum,20.27174907,79.65469844
504,Sindewahi,1.50450899757,KACHHEPAR,20.33755,79.7302,Kachhepar Rai,20.32876672,79.71922408
505,Sindewahi,2.24315644125,KALAMGAON GANNA,20.232583,79.625517,Kalamgaon Gaonganna,20.22698536,79.60486183
506,Sindewahi,2.07912771923,KALAMGAON TU.,20.238083,79.6209,Kalamgaon Tukum,20.22698536,79.60486183
507,Sindewahi,1.7999975943,KANHALGAON,20.289667,79.829967,Kanhalgaon,20.2796756,79.81638849
508,Sindewahi,3.40292030831,CHARGAON BADGE,20.336317,79.668783,Kargata,20.30745657,79.67963864
509,Sindewahi,2.20229645505,KARVA,20.270483,79.436383,Karwa,20.26160258,79.4175115
510,Sindewahi,2.56244833054,KHATGAON,20.333483,79.63495,Khatgaon,20.32175486,79.61379553
511,Sindewahi,3.09495600215,KINHI,20.263083,79.653783,Kinhi,20.25594015,79.62510748
512,Sindewahi,1.59898617215,PENDARI KOKEWADA,20.404017,79.521783,Kokewada,20.39977261,79.50712408
513,Sindewahi,2.90544092754,KUKADHETI,20.225483,79.612117,Kukudtheti,20.22172715,79.58456023
514,Sindewahi,2.87386825838,LADABORI,20.3125,79.631767,Ladbori,20.30240338,79.60639863
515,Sindewahi,1.57167348203,LONKHAIRI TUKUM,20.209383,79.70215,Lonkhairi Panbuda,20.20717475,79.68727341
516,Sindewahi,1.57167348203,LONKHAIRI TUKUM,20.209383,79.70215,Lonkhairi Tukum,20.20717475,79.68727341
517,Sindewahi,3.01042190894,LONWAHI,20.29575,79.665933,Lonwahi,20.29555865,79.63706824
518,Sindewahi,3.32552802224,TAMBEGADI MENDHA,20.210567,79.789433,Mangli Chak,20.22525883,79.76167279
519,Sindewahi,2.66377115051,MAREGAON TU.,20.2703,79.733417,Maregaon Chak,20.25728887,79.71197541
520,Sindewahi,2.66377115051,MAREGAON TU.,20.2703,79.733417,Maregaon Tuk.,20.25728887,79.71197541
521,Sindewahi,0.903575417318,MENDHAMAL,20.314267,79.653933,Mendha Chak,20.31219291,79.64555507
522,Sindewahi,2.56629595262,MENDHAMAL,20.314267,79.653933,Mendhamal Gujari,20.31158442,79.62949009
523,Sindewahi,1.39007401138,MINGHARI,20.330917,79.5988,Minghari,20.34015775,79.60777923
524,Sindewahi,2.24612728742,MOHADI NA.,20.246517,79.60525,Mohadi,20.24562681,79.58374077
525,Sindewahi,3.71240127668,KUKADHETI,20.225483,79.612117,Mohbodi,20.24562681,79.58374077
526,Sindewahi,3.85028032071,MURMADI,20.25355,79.65805,Murmadi,20.24134984,79.62350972
527,Sindewahi,2.9035144967,PENDARI KOKEWADA,20.404017,79.521783,Murpar Desh,20.38252605,79.50595979
528,Sindewahi,2.9035144967,PENDARI KOKEWADA,20.404017,79.521783,Murpar Gujar,20.38252605,79.50595979
529,Sindewahi,3.48521772053,LONKHAIRI TUKUM,20.209383,79.70215,Murpar Tukum,20.23909385,79.69151062
530,Sindewahi,4.7268124866,MOHADI NA.,20.246517,79.60525,Naleshwar,20.22840959,79.56425973
531,Sindewahi,1.91491400986,NANDGAON,20.379333,79.633467,Nandgaon,20.3697836,79.61817948
532,Sindewahi,1.65350650084,NAWARGAON,20.3633,79.5844,Navargaon,20.36500046,79.56864235
533,Sindewahi,2.88788741017,NAVEGION LONKHAIRI,20.205867,79.687383,Navegaon Chak,20.21523731,79.66157167
534,Sindewahi,0.145864146232,NAVEGION LONKHAIRI,20.205867,79.687383,Navegaon Lon Khairi,20.20717475,79.68727341
535,Sindewahi,2.88788741017,NAVEGION LONKHAIRI,20.205867,79.687383,Navegaon Tola,20.21523731,79.66157167
536,Sindewahi,2.5740684692,PALASGAON JAT,20.345267,79.655083,Palasgaon Jat,20.34056708,79.63090816
537,Sindewahi,5.44489329161,SIRKADA,20.3145,79.521767,Parna,20.33407398,79.47390233
538,Sindewahi,1.23659992734,PENDARI KOKEWADA,20.404017,79.521783,Pendhari,20.39289599,79.52178013
539,Sindewahi,2.6041905104,PETGAON,20.193533,79.647133,Petgaon,20.19044447,79.62239727
540,Sindewahi,3.03439099364,POWNA CHAK,20.285,79.803417,Powana Chak,20.27204579,79.77781175
541,Sindewahi,2.75515693216,POWANPAR,20.288433,79.8005,Powanpar,20.28763513,79.77409713
542,Sindewahi,5.58887219583,RATNAPUR,20.349917,79.566567,Purkepar,20.34534183,79.51318255
543,Sindewahi,2.74826111859,RAMALA,20.296567,79.60955,Ramala,20.28533088,79.58607952
544,Sindewahi,2.82732589151,RATNAPUR,20.349917,79.566567,Ratnapur,20.33965416,79.54175563
545,Sindewahi,1.77756908401,SAMDA KHURD,20.315967,79.816217,Samda Kh.,20.30956933,79.80059547
546,Sindewahi,3.1308906111,SARDPAR,20.232333,79.663267,Saradpar,20.22414992,79.63455466
547,Sindewahi,3.1308906111,SARDPAR,20.232333,79.663267,Saradpar,20.22414992,79.63455466
548,Sindewahi,1.25575213546,VIRVA,20.2101,79.654333,Saradpar Chak,20.20866547,79.64239637
549,Sindewahi,3.70962029553,GHOT,20.247667,79.740267,Sawargata Chak,20.26533602,79.7101032
550,Sindewahi,1.2735737207,SHIONI,20.301033,79.543033,Shivni,20.29744457,79.53143587
551,Sindewahi,3.26004042383,SINDEWAHI,20.287117,79.65355,Sindewahi,20.27430212,79.62543794
552,Sindewahi,3.39221060165,SINGADZARI,20.276833,79.568,Singadzari,20.26774127,79.53695644
553,Sindewahi,2.41376650991,SIRKADA,20.3145,79.521767,Sirkada,20.30846306,79.49953331
554,Sindewahi,2.04181462735,TAMBEGADI MENDHA,20.210567,79.789433,Tambegadi Mendha,20.19992692,79.77348604
555,Sindewahi,3.36238127542,SAMDA KHURD,20.315967,79.816217,Tekari Tukum,20.30248004,79.78735867
556,Sindewahi,3.11485448705,UMARWAHI,20.3109,79.58215,Umarwahi,20.29711602,79.55614776
557,Sindewahi,4.50188914087,RATNAPUR,20.349917,79.566567,Utichak,20.38239175,79.54077749
558,Sindewahi,3.36375656001,UMARWAHI,20.3109,79.58215,Utimal,20.30440559,79.55064616
559,Sindewahi,2.82732589151,RATNAPUR,20.349917,79.566567,Utinajik Ratnapur,20.33965416,79.54175563
560,Sindewahi,2.90790921224,VIRVA,20.2101,79.654333,Virwha,20.20768243,79.62658537
561,Sindewahi,2.30200925643,WAKAL,20.2701,79.61175,Wakal,20.2566427,79.59498021
562,Sindewahi,2.62492196847,WANERI,20.2862,79.616,Waneri,20.26693189,79.60146059
563,Sindewahi,2.37229541246,WASERA,20.278933,79.572117,Wasera,20.27706432,79.54946021
564,Sindewahi,1.60550049241,PALASGAON JAT,20.345267,79.655083,Yergaon,20.34795008,79.63995178
