,Block Name,Distance,GP Name,GP_lat,GP_long,Village Name,Village_lat,Village_long
0,CHANDWAD,0.0569444520306,ADGON,20.3258,74.1674,Adgaon,20.32629408,74.16725635
1,CHANDWAD,0.294243904153,AHIRKHEDE,20.2729,74.3028,Ahirkhede,20.27536197,74.30383416
2,CHANDWAD,1.53509686832,ASARKHEDE,20.3313,74.1825,Asarkhede,20.34434679,74.17768639
3,CHANDWAD,0.509999793284,BHADANE,20.2488,74.3609,Bhadane,20.25325652,74.36205577
4,CHANDWAD,2.23862633997,MANGRUL,20.3248,74.2032,Bharvir,20.3104679,74.18812312
5,CHANDWAD,0.743402400042,BHATGAON,20.2732,74.1641,Bhatgaon,20.27594425,74.17059906
6,CHANDWAD,1.46737236614,BHAYALE,20.3016,74.0779,Bhayale,20.31479513,74.07770504
7,CHANDWAD,0.868837272366,BHOYEGAON,20.2453,74.174,Bhoyegaon,20.24447603,74.1822817
8,CHANDWAD,0.44919653733,BHUTYANE,20.3184,74.1285,Bhutyane,20.3222134,74.12707836
9,CHANDWAD,0.659739298568,BOPANE,20.2565,74.2314,Bopane,20.25502362,74.23752537
10,CHANDWAD,0.201921440927,BORALE,20.3043,73.9517,Borale,20.30553534,73.95028083
11,CHANDWAD,0.652871711553,CHIKHALAMBE,20.3266,73.9668,Chikhalambe,20.32285319,73.97162064
12,CHANDWAD,0.735469330577,CHINCHOLE,20.2926,74.1728,Chinchole,20.29917015,74.17198715
13,CHANDWAD,0.559555005243,DAHIVAD,20.2261,74.2439,Dahiwad,20.23073407,74.24180931
14,CHANDWAD,0.614199375535,DAHYANE,20.3272,73.9898,Dahyane,20.33015352,73.99477771
15,CHANDWAD,1.88591447493,DAREGAON,20.3152,74.3883,Daregaon,20.3200955,74.37098409
16,CHANDWAD,1.38926994065,MANGRUL,20.3248,74.2032,Deogaon,20.33341388,74.19354893
17,CHANDWAD,0.781501722892,DEVARGAON,20.2135,74.1713,Devergaon,20.22030238,74.16941665
18,CHANDWAD,0.363819115483,DHODAMBE,20.331,74.0594,Dhodambe,20.33426644,74.05919843
19,CHANDWAD,1.27218761218,DHONDGAVHAN,20.2221,74.0055,Dhondgavhan,20.22611088,73.99408102
20,CHANDWAD,2.91618453338,KHADAK JAMB.,20.2488,74.0784,Dhotarkhede,20.22640804,74.06384899
21,CHANDWAD,1.52147970583,DIGHWAT,20.2479,74.2414,Dighwad,20.24194711,74.22826856
22,CHANDWAD,0.943349875745,DONGAON,20.2997,74.4095,Dongaon,20.30251823,74.40096804
23,CHANDWAD,1.51883246596,DUDH KHEDE,20.341,73.9605,Dudhkhede,20.35457408,73.95887625
24,CHANDWAD,0.901951191002,DUGAON,20.2947,74.3229,Dugaon,20.29749009,74.31477932
25,CHANDWAD,3.19364713135,DHODAMBE,20.331,74.0594,Ekrukhe,20.32912044,74.02883651
26,CHANDWAD,1.21999363398,GANGAVE,20.2481,74.3062,Gangave,20.25757099,74.31210376
27,CHANDWAD,0.440103391384,GANUR,20.2978,74.2184,Ganur,20.29702328,74.21426207
28,CHANDWAD,1.14909989514,GOHARAN,20.2987,74.0603,Goharan,20.3057606,74.05225419
29,CHANDWAD,2.12105123822,KHADAKOZER,20.2392,74.1266,Gurhale,20.2253677,74.14059865
30,CHANDWAD,0.723061921768,HARNUL,20.3032,74.2929,Harnul,20.30828994,74.28858499
31,CHANDWAD,0.723061921768,HARNUL,20.3032,74.2929,Harsul,20.30828994,74.28858499
32,CHANDWAD,1.21253175676,HIRAPUR,20.22,74.199,Hirapur,20.21642537,74.20997847
33,CHANDWAD,0.594227730566,HIWARKHEDE,20.2695,74.2483,Hivarkhede,20.27256862,74.24363596
34,CHANDWAD,1.59873141426,RAJDERWADI,20.3807,74.2081,Indraiwadi,20.36709349,74.21305569
35,CHANDWAD,2.70213668047,DAHYANE,20.3272,73.9898,Jambutke,20.31519241,74.01232924
36,CHANDWAD,0.885217798377,JOPUL,20.2413,74.1647,Jopul,20.2461014,74.15793186
37,CHANDWAD,0.342943183092,KALAMDARE,20.3302,74.2888,Kalamdare,20.32835876,74.2861614
38,CHANDWAD,0.625409731553,KALKHODE,20.1912,74.2872,Kalkhode,20.19267319,74.29298353
39,CHANDWAD,0.95370210563,KANADGAON,20.3472,74.4565,Kanadgaon,20.34518207,74.44760921
40,CHANDWAD,0.94526969235,KANMANDALE,20.3557,74.0789,Kanmandale,20.35294167,74.0874766
41,CHANDWAD,0.125741748027,KATARWADI,20.2149,74.3961,Katarwadi,20.21414044,74.39520726
42,CHANDWAD,1.15786197031,KAJI SANGVI,20.235,74.2708,Kazisangvi,20.2400826,74.26111382
43,CHANDWAD,0.49236235204,KHADAK JAMB.,20.2488,74.0784,Khadakjamb,20.24924529,74.08309568
44,CHANDWAD,0.551091453727,KHADAKOZER,20.2392,74.1266,Khadakozar,20.23994265,74.1213774
45,CHANDWAD,1.23629096938,KHELDARI,20.3532,74.1444,Kheldari,20.36414678,74.14647461
46,CHANDWAD,0.847194274706,KOKANKHEDE,20.3018,74.3375,Kokankhede,20.30885214,74.34057492
47,CHANDWAD,1.16123064104,PATE,20.2225,74.2517,Koltek,20.2144692,74.24458581
48,CHANDWAD,1.36058936179,KUNDALGAON,20.3193,74.4552,Kundalgaon,20.31745022,74.44230201
49,CHANDWAD,2.43410329398,KANMANDALE,20.3557,74.0789,Kundane,20.36179687,74.05647493
50,CHANDWAD,0.65391761246,MALSANE,20.3046,74.1413,Malsane,20.30531995,74.13507669
51,CHANDWAD,0.700508374877,MANGRUL,20.3248,74.2032,Mangrul,20.32802003,74.20897429
52,CHANDWAD,1.41183105104,MESANKHEDE KD,20.2826,74.3866,Mesankhede Bk.,20.28019707,74.3733085
53,CHANDWAD,1.41183105104,MESANKHEDE KD,20.2826,74.3866,Mesankhede Kh,20.28019707,74.3733085
54,CHANDWAD,0.617569874535,NANDURTEK,20.381,74.2618,Nandurtek,20.38652433,74.26241099
55,CHANDWAD,1.31009733788,NARAYANGAON,20.2743,74.1535,Narayangaon,20.26737811,74.14333622
56,CHANDWAD,0.988788990746,WAHEGAONSAL,20.193,74.2689,Narayankhede,20.20189156,74.26877031
57,CHANDWAD,2.84055683219,DUDH KHEDE,20.341,73.9605,Nawapur,20.35712728,73.98163021
58,CHANDWAD,0.879301436541,NANHAVE,20.2725,74.2665,Nhanave,20.2645979,74.26681854
59,CHANDWAD,1.04338732903,NIMBALE,20.2388,74.3269,Nimbale,20.23264152,74.31935463
60,CHANDWAD,0.669131773082,NIMGAVHAN,20.2893,74.2456,Nimgavhan,20.28805659,74.23932276
61,CHANDWAD,0.699286710756,NIMON,20.3154,74.413,Nimon,20.3203418,74.40885246
62,CHANDWAD,0.760769753942,PANHALE,20.2584,74.2852,Panhale,20.2652417,74.28516778
63,CHANDWAD,0.919049789013,PARSUL,20.2662,74.1833,Parsul,20.26997471,74.19113824
64,CHANDWAD,0.577763207326,PATE,20.2225,74.2517,Pate,20.22186314,74.25719552
65,CHANDWAD,0.933583615956,PATHARSHEMBE,20.2858,74.2565,Pathar-shembe,20.29352584,74.2600042
66,CHANDWAD,2.77920350502,AHIRKHEDE,20.2729,74.3028,Pimpalgaon-dhabli,20.27392457,74.32942222
67,CHANDWAD,1.44880561133,PIMPALNARE,20.2793,74.0192,Pimpalnare,20.29232568,74.01886711
68,CHANDWAD,0.738043035509,PIMPLAD,20.191,74.2133,Pimplad,20.19681473,74.21671021
69,CHANDWAD,0.657204613983,PURI,20.3487,74.123,Puri,20.35374102,74.119709
70,CHANDWAD,0.633238426563,RAHUD,20.3534,74.2929,Rahod,20.35535004,74.28719308
71,CHANDWAD,1.04784274787,RAJDERWADI,20.3807,74.2081,Rajderwadi,20.38888716,74.21307782
72,CHANDWAD,0.913397124521,WAGHDARDI,20.2424,74.3943,Rapali,20.23425181,74.39319085
73,CHANDWAD,0.632393807783,RAYPUR,20.2493,74.3482,Raypur,20.24775039,74.34236748
74,CHANDWAD,0.681029469064,REDGAON KH.,20.2111,74.2729,Redgaon Kh,20.21588442,74.27697464
75,CHANDWAD,0.449802025804,SALSANE,20.2123,74.3009,Salsane,20.21598043,74.30268881
76,CHANDWAD,0.511626437321,SHELU,20.3319,74.142,Shelu,20.33364275,74.14654132
77,CHANDWAD,2.01460031412,KANMANDALE,20.3557,74.0789,Sherisalaiban,20.37169694,74.06982707
78,CHANDWAD,1.03978370395,SHINDE,20.3131,74.0993,Shinde,20.32240571,74.1002802
79,CHANDWAD,0.0293773618245,SHINGAVE,20.2786,74.3994,Shingve,20.27833631,74.39941744
80,CHANDWAD,0.905399138347,SHIRSANE,20.2852,74.1542,Shirsane,20.29296085,74.15157357
81,CHANDWAD,1.68402117973,SHIRUR,20.3471,74.16,Shirur,20.36143208,74.16522039
82,CHANDWAD,3.00762464593,MANGRUL,20.3248,74.2032,Shivajinagar,20.34787163,74.18814396
83,CHANDWAD,1.0476813933,SHIVARE,20.3113,73.951,Shivare,20.32054294,73.95294956
84,CHANDWAD,0.830497328001,SOGRAS,20.3054,74.1448,Sogras,20.31060484,74.15051164
85,CHANDWAD,0.454407720154,SUTARKHEDE,20.3178,74.2944,Sutarkhede,20.31514668,74.29771425
86,CHANDWAD,0.421131518034,TALWADE,20.2988,74.1914,Talwade,20.29502399,74.19108807
87,CHANDWAD,0.801140811905,TISGAON,20.2721,74.2232,Tisgaon,20.27290369,74.21556733
88,CHANDWAD,0.165607523708,URDHUL,20.2409,74.2029,Urdhul,20.24137404,74.20440482
89,CHANDWAD,0.811865136552,USWAD,20.3367,74.3201,Uswad,20.34268547,74.32455929
90,CHANDWAD,1.5008326653,WAD,20.3406,74.425,Vad,20.3499102,74.4145775
91,CHANDWAD,0.348896924049,VADALIBHOI,20.28,74.1039,Vadalibhoi,20.28312923,74.1041457
92,CHANDWAD,0.764239235919,VADBARE,20.363,74.2457,Vadbare,20.36579025,74.25239985
93,CHANDWAD,1.07370955958,VADNER BHAIRAV,20.2507,74.0292,Vadner Bhairao,20.25730926,74.03670372
94,CHANDWAD,1.15501835086,WAHEGAONSAL,20.193,74.2689,Vahegaonsal,20.1921269,74.2578716
95,CHANDWAD,1.20313790435,WAKI BK.,20.1672,74.2752,Vaki Bk,20.17068487,74.28611269
96,CHANDWAD,1.44863704203,WAKI KD.,20.1677,74.2692,Vaki Kh,20.17741327,74.25995053
97,CHANDWAD,1.66940199742,WAD,20.3406,74.425,Varadi,20.33704939,74.40944266
98,CHANDWAD,2.28496085913,DHODAMBE,20.331,74.0594,Vijaynagar,20.34937134,74.04958116
99,CHANDWAD,0.709876943109,VITAVE,20.246,74.2964,Vitave,20.241381,74.2917029
100,CHANDWAD,1.36855401872,WAGHDARDI,20.2424,74.3943,Wagdardi,20.25086246,74.38477465
101,Deola,3.10180261417,BHAUR,20.501667,74.163333,Bhaur,20.49516749,74.1343718
102,Deola,2.91533177525,WAJGAON (W),20.453611,74.145833,Wajgaon,20.42754632,74.14280944
103,Dindori,1.0847461783,AHIWANTWADI,20.40193,73.88425,Ahiwantwadi,20.39655206,73.87556633
104,Dindori,2.91981379248,AKRALE,20.15683,73.82225,Akrale,20.15522918,73.85016953
105,Dindori,3.96280274935,AMBAD,20.34102,73.62211,Ambad,20.36319841,73.65186385
106,Dindori,1.24369409475,AMBANER,20.3514,73.8622,Ambaner,20.36088271,73.8685262
107,Dindori,3.46534723892,AMBEDINDORI,20.10633,73.88689,Ambedindori,20.12010447,73.85711915
108,Dindori,1.07350791664,AMBEGAN,20.23519,73.64104,Ambegaon,20.23378756,73.65122015
109,Dindori,2.11041615366,AMBEWANI,20.2443,73.89501,Ambevani,20.25795096,73.88095522
110,Dindori,0.558952421308,AWANKHED,20.2468,73.84834,Awankhed,20.24363216,73.84418001
111,Dindori,0.27800086019,BADGICHAPADA,20.33942,73.64218,Badagichapada,20.3369387,73.64185344
112,Dindori,2.14152604851,KOSHIMBE,20.35283,73.77051,Bandharpada,20.37035809,73.76199796
113,Dindori,5.75054035636,BHANWAD,20.38747,73.70824,Bhanwad,20.41258717,73.66000816
114,Dindori,3.29999486051,BHATODE,20.36087,73.89357,Bhatode,20.37005679,73.92367145
115,Dindori,1.39487837166,BOPEGAON,20.22429,73.93873,Bopegaon,20.232059,73.92823346
116,Dindori,1.11590604711,CHACHADGAON,20.2212,73.67348,Chachadgaon,20.22827469,73.68106539
117,Dindori,1.83648957925,AHIWANTWADI,20.40193,73.88425,Chamdari,20.38597017,73.88878394
118,Dindori,1.36726605242,CHANDIKAPUR,20.36087,73.89357,Chandikapur,20.36675696,73.90508495
119,Dindori,0.726218087464,CHAROSE,20.33694,73.67653,Charose,20.34338742,73.67764101
120,Dindori,0.565554294644,CHAUSALE,20.41988,73.7862,Chausale,20.41743301,73.79095777
121,Dindori,3.0534961321,CHINCHAKHED,20.1883,73.91097,Chinchkhed,20.17653927,73.93740821
122,Dindori,1.18242412693,DAHIVI,20.33937,73.7847,Dahivi,20.34983405,73.78671833
123,Dindori,2.80104258237,DEHARE,20.39653,73.58821,Dehare,20.38804851,73.61351553
124,Dindori,1.20885131283,RASEGAON,20.14945,73.74699,Deherewadi,20.1391821,73.7431853
125,Dindori,2.00720763372,DEOGHAR,20.31715,73.64375,Deoghar,20.32002015,73.62474588
126,Dindori,1.64219227077,DEOPADA,20.39264,73.7347,Deopada,20.40586375,73.72768401
127,Dindori,5.06710787729,DEOSANE,20.41015,73.67699,Deosane,20.43117568,73.72013015
128,Dindori,0.930384067629,DEOTHAN,20.34944,73.71665,Deothan,20.34586897,73.72472042
129,Dindori,0.930384067629,DEOTHAN,20.34944,73.71665,Deothanpada,20.34586897,73.72472042
130,Dindori,2.03805599321,DHAGUR,20.2212,73.67348,Dhagur,20.20290045,73.67237931
131,Dindori,1.6540052334,DHAKAMBE,20.10354,73.80721,Dhakambe,20.10092868,73.82280378
132,Dindori,2.03805599321,DHAUR,20.2212,73.67348,Dhaur,20.20290045,73.67237931
133,Dindori,1.26322222154,DINDORI,20.20765,73.82266,Dindori,20.20079174,73.83231051
134,Dindori,2.61697277383,KARANJKHED,20.42698,73.7766,Eklahare,20.40517209,73.76715749
135,Dindori,0.830077747528,GANDOLE,20.38091,73.59078,Gandole,20.38790698,73.58800435
136,Dindori,2.55538043835,MOHADI,20.14511,73.89358,Ganorwadi Ganeshgaon,20.12914454,73.87597396
137,Dindori,1.91343048262,GAWALWADI,20.09127,73.77538,Gawalwadi,20.10396428,73.7630092
138,Dindori,2.45464484202,AHIWANTWADI,20.40193,73.88425,Goldari,20.39359476,73.90605853
139,Dindori,1.32197835423,GOLSHI,20.25429,73.63941,Golshi,20.26391167,73.63196609
140,Dindori,2.22194623703,GONDEGAON,20.21323,73.95203,Gondegaon,20.22557152,73.96877782
141,Dindori,1.23868734378,HASTEDUMALA,20.39869,73.81793,Haste Dumala,20.39144936,73.80889812
142,Dindori,2.66347684282,INDORE,20.18427,73.79623,Indore,20.16382355,73.78293647
143,Dindori,0.94098090597,JALKHED,20.25319,73.66438,Jalkhed,20.26165174,73.6642636
144,Dindori,4.47961187999,JAMBUTAKE,20.19361,73.79228,Jambutake,20.19496665,73.74937953
145,Dindori,0.993285044696,JANORI,20.10633,73.88689,Janori,20.09955859,73.89309407
146,Dindori,2.30985417718,JAULKEDINDORI,20.0741,73.89075,Jaulakedindori,20.06897858,73.91218357
147,Dindori,2.38938415374,JAULKE VANI,20.21482,73.96948,Jaulakevani,20.21089649,73.9469665
148,Dindori,2.99158372522,AHIWANTWADI,20.40193,73.88425,Jirwade,20.37971837,73.868054
149,Dindori,1.45582551928,JOPUAL,20.19811,73.90714,Jopul,20.20260836,73.92024137
150,Dindori,0.370457772678,JORAN,20.31859,73.6967,Joran,20.31528516,73.69714943
151,Dindori,0.370457772678,JORAN,20.31859,73.6967,Joranpada,20.31528516,73.69714943
152,Dindori,2.03805599321,DHAGUR,20.2212,73.67348,June Dhagur,20.20290045,73.67237931
153,Dindori,1.05279525289,KADAVA MHALUNGI,20.25047,73.80816,Kadawa Mhalungi,20.25719443,73.80105548
154,Dindori,3.76010033617,KARANJALI,20.37168,73.72639,Karanjali,20.40218526,73.7419565
155,Dindori,0.27464308986,KARANJKHED,20.42698,73.7766,Karanjkhed,20.42624943,73.77408228
156,Dindori,1.66282543873,KARANJWAN,20.29416,73.79491,Karanjwan,20.30837869,73.79984879
157,Dindori,0.481057863614,KASBEWANI,20.33071,73.88958,Kasbe Vani,20.33458846,73.89162415
158,Dindori,2.02241140499,KAWADASAR,20.31863,73.65689,Kaudasar,20.30841115,73.64084634
159,Dindori,0.616063097253,KHADAK SUKENE,20.17487,73.90516,Khadak Sukene,20.17243181,73.89985979
160,Dindori,2.96878293901,KHATWAD,20.12854,73.81297,Khatwad,20.12418248,73.841024
161,Dindori,0.483994521206,KHEDLE,20.31986,73.79673,Khedale,20.32044446,73.79213051
162,Dindori,1.23920205475,KHEDGAON,20.235,73.95676,Khedgaon,20.24603221,73.95507876
163,Dindori,1.44980011816,KOCHARGAON,20.14385,73.66722,Kochargaon,20.15568293,73.66138756
164,Dindori,2.4019685477,KOKANGAON BK.,20.25507,73.66559,Kokangaon Bk.,20.25328566,73.68853647
165,Dindori,3.14264759693,KOKANGAON  KD.,20.35321,73.76855,Kokangaon Kh.,20.33317205,73.74729301
166,Dindori,2.85654582871,KOLHER,20.40667,73.8221,Kolher,20.40338601,73.84928456
167,Dindori,0.973849684756,KORHATE,20.16263,73.86595,Korhate,20.17128981,73.86734347
168,Dindori,2.28280636225,KOSHIMBE,20.35283,73.77051,Koshimbe,20.37282086,73.7754945
169,Dindori,2.78631816028,KRISHNAGAON,20.31641,73.8823,Krishnagaon,20.29778945,73.86442039
170,Dindori,3.34042606318,KURNOLI,20.14511,73.89358,Kurnoli,20.16268643,73.91953171
171,Dindori,0.870642281732,LAKHAMAPUR,20.27501,73.82642,Lakhamapur,20.27972707,73.83308239
172,Dindori,1.17100345305,LOKHANDEWADI,20.19811,73.90714,Lokhandewadi,20.19884956,73.89594654
173,Dindori,4.58264833655,MADAKIJAMB,20.20092,73.83043,Madakijamb,20.1914994,73.78767995
174,Dindori,4.21813161742,MAHAJE,20.25429,73.63941,Mahaje,20.29016281,73.62625958
175,Dindori,1.17723222369,MALEDUMALA,20.37679,73.84707,Maledumala,20.37743855,73.83579735
176,Dindori,3.20319362843,MALEGAON (KA),20.32674,73.84274,Malegaon,20.34158791,73.8164137
177,Dindori,3.28262492732,AHIWANTWADI,20.40193,73.88425,Mandane,20.37635703,73.89998484
178,Dindori,3.39889335788,ASHEWADI,20.10097,73.77034,Manori,20.09404148,73.80204174
179,Dindori,1.33663569867,MATEREWADI,20.21669,73.91817,Materewadi,20.22559463,73.90956474
180,Dindori,2.1011069718,MAVADI,20.29657,73.93153,Mavadi,20.31066346,73.91810956
181,Dindori,1.20598499313,MHELUSKE,20.26805,73.81546,Mheluske,20.27503727,73.8066173
182,Dindori,0.178293165932,MOHADI,20.14511,73.89358,Mohadi,20.14585213,73.89509397
183,Dindori,2.58791925453,MOKHANAL,20.40667,73.59782,Mokhnal,20.40731132,73.62264277
184,Dindori,5.51051156205,MULANE,20.31231,73.9317,Mulane,20.3611185,73.94085237
185,Dindori,1.82611125026,NALEGAON,20.19441,73.71789,Nalegaon,20.18190783,73.70654411
186,Dindori,2.54667977282,NALWADI,20.27548,73.73901,Nalwadi,20.28755693,73.75975615
187,Dindori,0.894765211621,NALWADPADA,20.2877,73.73363,Nalwadpada,20.29553359,73.7316681
188,Dindori,1.44018872919,NANASHI,20.34196,73.62219,Nanashi,20.3514991,73.61284581
189,Dindori,2.03805599321,DHAGUR,20.2212,73.67348,Navedhagur,20.20290045,73.67237931
190,Dindori,1.23840669249,NIGDOL,20.25012,73.75348,Nigdol,20.2576918,73.74477431
191,Dindori,1.47274654359,NILWANDI,20.21509,73.80104,Nilwandi,20.21627143,73.78698208
192,Dindori,1.38704948726,OZERKHED,20.27676,73.87514,Ozarkhed,20.28706154,73.88263915
193,Dindori,1.73639806487,OZE,20.29416,73.79491,Oze,20.2809658,73.78600494
194,Dindori,1.34405312093,PADE,20.22648,73.79391,Pade,20.23856592,73.79410885
195,Dindori,2.6713965808,PALASVIHIR,20.36329,73.65399,Palasvihir,20.38726667,73.65237455
196,Dindori,3.61049068615,PALKHED,20.20077,73.83891,Palkhed,20.19283778,73.87245897
197,Dindori,0.561074935645,PANDANE,20.36153,73.85229,Pandane,20.36642592,73.85359236
198,Dindori,1.80218186102,PARMORI,20.24982,73.86687,Parmori,20.26506574,73.86100761
199,Dindori,4.97777857316,PHOPHASHI,20.33025,73.88919,Phopshi,20.33233814,73.84150146
200,Dindori,1.47293389141,PIMPALNARE,20.12054,73.79089,Pimpalnare,20.12579645,73.80383932
201,Dindori,2.44645896398,PIMPERKHED,20.32953,73.79045,Pimparkhed,20.32463158,73.76757622
202,Dindori,2.07092012044,CHAUSALE,20.41988,73.7862,Pingalwadi,20.42304446,73.80578427
203,Dindori,2.43415799814,PUNEGAON,20.36498,73.85007,Punegaon,20.35662606,73.8284873
204,Dindori,1.92565538979,RAJAPUR,20.2135,73.90218,Rajapur,20.22405341,73.88754762
205,Dindori,2.38257551058,ASHEWADI,20.10097,73.77034,Ramshej,20.12166503,73.77625328
206,Dindori,1.40520391539,RASEGAON,20.14945,73.74699,Rasegaon,20.16198893,73.7486664
207,Dindori,3.25854924622,RAWALGOAN,20.13899,73.6806,Rawalgaon,20.14204874,73.71164302
208,Dindori,4.97177043447,MAHAJE,20.25429,73.63941,Sadrale,20.29011773,73.66792624
209,Dindori,2.78396150195,MULANE,20.31231,73.9317,Sangamner,20.3364895,73.93862675
210,Dindori,2.41917770016,KARANJKHED,20.42698,73.7766,Sarsale,20.42834709,73.75342971
211,Dindori,2.28912909009,DEOSANE,20.41015,73.67699,Shindpada,20.42596243,73.69105618
212,Dindori,4.16487338683,SHINDWAD,20.23664,73.95698,Shindwad,20.2602736,73.9879522
213,Dindori,2.44419995416,SHIWANAI,20.11596,73.85818,Shivnai,20.09421675,73.861615
214,Dindori,2.47828151817,SHIWARPADA,20.32014,73.67899,Shiwarpada,20.32819665,73.65682977
215,Dindori,2.08016002595,SONJAMB,20.27843,73.93211,Sonjamb,20.26059672,73.92608553
216,Dindori,4.18023290258,DAHIVI,20.33937,73.7847,Takanchapada,20.37035809,73.76199796
217,Dindori,4.73235238223,TALEGAON DINDORI,20.1417,73.81806,Talegaon Dindori,20.12010447,73.85711915
218,Dindori,1.57760112567,TALYACHAPADA,20.38486,73.70489,Talyachapada,20.39729612,73.71217544
219,Dindori,4.73561451823,KOKANGAON BK.,20.25507,73.66559,Thepanwadi,20.28080602,73.70176241
220,Dindori,3.87554603748,TILHOLI,20.17872,73.70028,Tilloli,20.14496717,73.69102241
221,Dindori,0.81629968719,TISGAON,20.27399,73.95177,Tisgaon,20.28128344,73.95266089
222,Dindori,0.728008326972,TITAVE,20.37056,73.73408,Titave,20.37496233,73.73924944
223,Dindori,3.64666888909,UMRALE BK.,20.1946,73.74842,Umrale Bk.,20.21107805,73.71820615
224,Dindori,1.92022939376,UMRALE KD.,20.24008,73.77177,Umrale Kh.,20.25734797,73.77197469
225,Dindori,1.61736642765,WALKHED,20.22653,73.83313,Valkhed,20.2362124,73.82156191
226,Dindori,2.61456030309,VANARE,20.37608,73.71441,Vanare,20.36849938,73.69066709
227,Dindori,0.723917969853,VANI KD,20.31921,73.68525,Vani Kh.,20.32089198,73.6785433
228,Dindori,2.03385920856,TITAVE,20.37056,73.73408,Vanjole,20.38070778,73.71784649
229,Dindori,1.85962780136,WARE,20.38486,73.70489,Vare,20.39501786,73.69071616
230,Dindori,2.01715911445,VARKHEDA,20.2443,73.89501,Varkhede,20.26177451,73.90020218
231,Dindori,1.71230897805,WARWANDI,20.07758,73.83105,Varvandi,20.08048266,73.84715179
232,Dindori,3.30671480907,VILWANDI,20.14466,73.65804,Vilwandi,20.15956897,73.63063133
233,Dindori,2.16867793624,DEOSANE,20.41015,73.67699,Wagdeopada,20.41340423,73.69750832
234,Dindori,3.97734892302,WAGHAD,20.25012,73.75348,Waghad,20.24446182,73.71583503
235,Dindori,1.36550361893,VANARWADI,20.18466,73.82733,Wanarwadi,20.1808869,73.81487922
236,Dindori,0.662444643015,ZARLI,20.23801,73.63746,Zaralipada,20.23470637,73.63217624
237,Igatpuri,2.58965303605,ADHARVAD,19.68365,73.71152,Adharwad,19.68754865,73.7359059
238,Igatpuri,3.08149234745,ADSARE BK,19.69281,73.76599,Adsare Bk,19.71635785,73.78150984
239,Igatpuri,2.77410448619,ADSARE KH,19.7301,73.75939,Adsare Kh,19.71635785,73.78150984
240,Igatpuri,3.1905992966,ADVAN,19.71532,73.62182,Adwan,19.73369166,73.59840498
241,Igatpuri,2.5769151931,AAHURLI,19.80336,73.57004,Ahurli,19.82275838,73.58351741
242,Igatpuri,3.53999865538,AMBEWADI,19.63512,73.69651,Ambewadi,19.61312612,73.67207327
243,Igatpuri,0.444287683307,AVALI DUMALA,19.80336,73.57004,Awali Dumala,19.80309081,73.57427707
244,Igatpuri,2.08311336768,BALAYDURI,19.70421,73.6087,Balayduri,19.71541101,73.59274895
245,Igatpuri,3.07215853062,BARSHINGVE,19.64468,73.72915,Barshingave,19.65601043,73.75590666
246,Igatpuri,4.54602626673,BHARVIR BK,19.70858,73.77186,Bharvir Bk,19.74470588,73.79219421
247,Igatpuri,2.22484973246,BHARVIR KH.,19.74952,73.77156,Bharvir Kh,19.74470588,73.79219421
248,Igatpuri,1.70927935013,BHARAVAJ,19.66698,73.64275,Bharwaj,19.66198714,73.65818888
249,Igatpuri,0.371776506386,BHAVALI BK,19.77731,73.56975,Bhavli Bk,19.7790207,73.57280276
250,Igatpuri,3.94344618342,BHAVALI KH,19.67101,73.58225,Bhavli Kh,19.64179454,73.60359802
251,Igatpuri,2.63893835828,VAKI,19.74255,73.61219,Biturli,19.76527918,73.61944465
252,Igatpuri,2.48460118186,BORLI,19.6484,73.58621,Borli,19.62760881,73.57751878
253,Igatpuri,2.51611180267,BORTEMBHA,19.69553,73.59268,Bortembhe,19.69833603,73.6165287
254,Igatpuri,2.88865598356,CHINCHALEKHAIRE,19.69721,73.52751,Chinchale Khair,19.71790865,73.51083492
255,Igatpuri,2.02998040167,DAUNDAT,19.72498,73.65211,Daundat,19.73923349,73.66422867
256,Igatpuri,1.07746662374,DEOLE,19.72137,73.64645,Deole,19.72380975,73.65641212
257,Igatpuri,1.21184489707,DHAMANGAON,19.7301,73.75939,Dhamangaon,19.73552808,73.76943001
258,Igatpuri,1.12668301768,DHAMANI,19.70953,73.70944,Dhamani,19.69961645,73.71166534
259,Igatpuri,2.52782722616,DHARGAON,19.8009,73.52942,Dhargaon,19.78389175,73.51338915
260,Igatpuri,1.19184469724,DHANORLI,19.751,73.6028,Dharnoli,19.74712581,73.59218158
261,Igatpuri,3.57287834208,MURAMBI,19.85999,73.67979,Gadgadsangvi,19.87271678,73.64841928
262,Igatpuri,1.8863372653,DHAMANGAON,19.7301,73.75939,Gambhirwadi,19.72351627,73.77599933
263,Igatpuri,2.14028077005,GARUDESHWAR,19.7796,73.68298,Garudeshwar,19.77913133,73.70342872
264,Igatpuri,5.53345023542,KURUNGWADI,19.61282,73.66881,Gavhande,19.62724196,73.61824641
265,Igatpuri,4.69136108033,GHOTI KH,19.731,73.75939,Ghoti Kh,19.77306555,73.76283644
266,Igatpuri,1.02855256642,GONDEDUMALA,19.82966,73.67549,Gondedumala,19.83328063,73.68453859
267,Igatpuri,4.6042503354,INDORE,19.66745,73.71593,Indore,19.62609363,73.71375605
268,Igatpuri,3.4859811452,MANVEDHE,19.63852,73.58621,Jamunde,19.6101086,73.60027964
269,Igatpuri,3.47849485768,JANORI,19.80391,73.67282,Janori,19.81056387,73.70530915
270,Igatpuri,1.72460865422,KALUSTE,19.667,73.64275,Kaluste,19.65276255,73.63621708
271,Igatpuri,3.09229282549,KHED,19.66745,73.71593,Kanadwadi,19.6509901,73.69212717
272,Igatpuri,0.860311657448,KANCHANGAON,19.68582,73.63809,Kanchangaon,19.69120682,73.64398847
273,Igatpuri,1.38671217464,KARHOLE,19.80387,73.57253,Karhole,19.79712975,73.58368194
274,Igatpuri,2.78824097596,BHARVIR KH.,19.74952,73.77156,Kawaddara,19.76858415,73.78886789
275,Igatpuri,5.52623824161,KAWANAI,19.74225,73.61219,Kawanai,19.79140063,73.62001099
276,Igatpuri,2.17833789444,KHADKED,19.63612,73.70782,Khadked,19.61948806,73.69682974
277,Igatpuri,2.91088955736,KHAIRGAON,19.72137,73.64645,Khairgaon,19.70844631,73.67063331
278,Igatpuri,0.17307380171,KHAMBALE,19.73524,73.6351,Khambale,19.73601927,73.63366855
279,Igatpuri,0.564882966998,KHED,19.66745,73.71593,Khed,19.6640522,73.7119195
280,Igatpuri,1.07035339714,KORAPGAON,19.76418,73.57876,Korapgaon,19.76906846,73.58757143
281,Igatpuri,4.43941343211,KRISHNANAGAR,19.78815,73.69437,Krishnanagar,19.80886009,73.73064744
282,Igatpuri,1.95984775164,KURHEGAON,19.82805,73.68264,Kurhegaon,19.83408792,73.70024276
283,Igatpuri,0.867608969592,KURNOLI,19.75477,73.596,Kurnoli,19.76025994,73.60189127
284,Igatpuri,3.66339420249,KURUNGWADI,19.61282,73.66881,Kurungwadi,19.6090941,73.63405993
285,Igatpuri,2.62665415055,WADIWARHE,19.85999,73.67979,Lahamagewadi,19.87931314,73.69423752
286,Igatpuri,4.21025885494,LAXMINAGAR,19.77909,73.68319,Laxminagar,19.80413245,73.71337253
287,Igatpuri,3.06997728333,MAYDARA,19.69281,73.76599,Maidara Dhanoshi,19.67536077,73.78871366
288,Igatpuri,2.54288530867,MALUNJE,19.75954,73.70015,Malunje,19.76584842,73.72350711
289,Igatpuri,0.713996330298,MANIKKHAMB,19.75377,73.64482,Manik Khamb,19.75890584,73.64072487
290,Igatpuri,2.73638530642,MANJARGAON,19.63704,73.68366,Manjargaon,19.65999583,73.67424452
291,Igatpuri,1.33185457513,MANVEDHE,19.63852,73.58621,Manwede,19.62934389,73.59438348
292,Igatpuri,3.41353744422,MHASURLI,19.84333,73.50709,Mhasurli,19.82886072,73.53587263
293,Igatpuri,1.47094653012,MOGRE,19.75954,73.70015,Mogare,19.75008382,73.70997914
294,Igatpuri,2.24242702101,MUKANE,19.80254,73.67089,Mukane,19.80693933,73.64997182
295,Igatpuri,1.51207540038,MUNDHEGAON,19.77154,73.66329,Mundegaon,19.78123467,73.65315659
296,Igatpuri,3.9149641414,MURAMBI,19.85999,73.67979,Murambi,19.84258202,73.64725307
297,Igatpuri,0.277707960548,NAGOSALI,19.80247,73.53439,Nagosali,19.8042912,73.53620642
298,Igatpuri,5.22771655766,SANJEGAON,19.84729,73.63557,Nandadgaon,19.81936476,73.59536318
299,Igatpuri,4.47134121544,NANDGAON SADO,19.6888,73.55739,Nandgaonsado,19.66292574,73.5900803
300,Igatpuri,3.16394890612,NANDURVAIDYA,19.82314,73.71204,Nandurvaidya,19.8294596,73.74153152
301,Igatpuri,4.32387278767,NINAVI,19.73292,73.7957,Ninavi,19.76138396,73.82384848
302,Igatpuri,3.41587228119,BHARAVAJ,19.66698,73.64275,Nirpan,19.63893043,73.65605164
303,Igatpuri,0.570621551345,ONDALI,19.79666,73.54783,Ondli,19.80017099,73.55180779
304,Igatpuri,1.52280504037,PADALI (D),19.80214,73.67123,Padli Deshmukh,19.80597709,73.68520278
305,Igatpuri,2.57502734655,KHED,19.66745,73.71593,Pardeshiwadi,19.67751476,73.69378096
306,Igatpuri,1.48914441094,TRINGALWADI,19.71723,73.59279,Pardevi,19.72031563,73.57894633
307,Igatpuri,2.16900586385,PIMPRI-SADRDDINO,19.68579,73.57516,Pimpri Sadroddin,19.66925764,73.56416524
308,Igatpuri,2.80537821785,BARSHINGVE,19.64468,73.72915,Rahulnagar (N.V.),19.63462717,73.75371937
309,Igatpuri,5.60769844893,VASALI,19.66096,73.70805,Ramnagar,19.63462717,73.75371937
310,Igatpuri,2.00793405555,RAYAMBE,19.79734,73.58064,Rayambe,19.79094556,73.59858817
311,Igatpuri,4.61597033098,SAKUR,19.759232,73.770181,Sakur,19.80042857,73.77561258
312,Igatpuri,2.0267846744,SAMNERA,19.75696,73.71306,Samnere,19.75050631,73.73117239
313,Igatpuri,2.87082557744,SANJEGAON,19.84729,73.63557,Sanjegaon,19.82919271,73.61599486
314,Igatpuri,2.00324411696,ONDALI,19.79666,73.54783,Saturli,19.80352025,73.56553502
315,Igatpuri,3.72301356529,SHENWAD BK,19.72137,73.64645,Senvad Bk,19.69235038,73.66418919
316,Igatpuri,2.82045774557,SHENWAD KH,19.8018,73.67123,Senvad Kh,19.79172261,73.69596931
317,Igatpuri,0.778298049356,SHEVAGEDANG,19.84333,73.55709,Shevgedang,19.84323411,73.54964947
318,Igatpuri,4.32191092751,SHIRSATE,19.83685,73.63164,Shirsate,19.86627802,73.60464481
319,Igatpuri,0.218553537017,SOMAJ,19.75266,73.69717,Somaj,19.75096807,73.69610719
320,Igatpuri,2.95457719488,SONOSHI,19.66369,73.74762,Sonoshi,19.65709229,73.77495239
321,Igatpuri,3.4396722391,TAKED BK,19.731,73.75939,Taked Bk,19.70007893,73.76032949
322,Igatpuri,1.00222976328,TAKED KH.,19.69281,73.76599,Taked Kh,19.70007893,73.76032949
323,Igatpuri,0.704765308484,TAKEGHOTI,19.7042,73.6087,Takeghoti,19.70845241,73.60370777
324,Igatpuri,1.45445650928,TALOGHA,19.68582,73.63809,Talogha,19.67947844,73.62593994
325,Igatpuri,5.51476911485,TALOSHI,19.71938,73.64014,Taloshi,19.67930172,73.60911016
326,Igatpuri,0.134568785778,TITOLI,19.69437,73.59046,Titoli,19.69335444,73.5911591
327,Igatpuri,4.94338166014,TRINGALWADI,19.71723,73.59279,Tringalwadi,19.7341641,73.54912216
328,Igatpuri,0.785086357449,UBHADE,19.72584,73.67944,Ubhade,19.73259999,73.68160485
329,Igatpuri,2.53946185221,UMBERKON,19.72968,73.67944,Umbarkon,19.75103177,73.67083014
330,Igatpuri,0.478982369226,WADIWARHE,19.85999,73.67979,Wadivarhe,19.85732247,73.6761939
331,Igatpuri,1.50211952704,WAGHERE,19.76199,73.69934,Waghere,19.76964168,73.6875101
332,Igatpuri,1.15963584412,VAKI,19.74255,73.61219,Waki,19.75077897,73.61899692
333,Igatpuri,3.06034066425,AAHURLI,19.80336,73.57004,Wanjole,19.83083638,73.57172932
334,Igatpuri,3.64371400085,VASALI,19.66096,73.70805,Wasali,19.64057924,73.73529639
335,Malegaon,0.977763352442,AGHAR (BK),20.54482,74.39848,Aghar Bk,20.53966381,74.4060865
336,Malegaon,2.58193867675,AGHAR (KD),20.53064,74.38324,Aghar Kh,20.53966381,74.4060865
337,Malegaon,3.57025164871,AJANDE,20.47558,74.603,Ajande,20.50072391,74.62431609
338,Malegaon,3.57025164871,AJANDE,20.47558,74.603,Ajande Kh.,20.50072391,74.62431609
339,Malegaon,1.94923265837,AJANG,20.633722,74.452,Ajang,20.62038599,74.43984318
340,Malegaon,4.06266994881,ASTANE,20.657861,74.672778,Astane,20.67956508,74.64136489
341,Malegaon,2.003660289,BELGAON,20.57754,74.41532,Belgaon,20.5723261,74.39689627
342,Malegaon,5.0033994512,BHARDENAGAR,20.786028,74.57275,Bharadenagar,20.79389686,74.62013886
343,Malegaon,4.7976811432,BHILKOT,20.657861,74.672778,Bhilkot,20.62603974,74.70391516
344,Malegaon,2.60901424883,AJANDE,20.47558,74.603,Bhuigavhan,20.49861758,74.60775045
345,Malegaon,2.01176720166,DAHIWAL,20.558278,74.677333,Bodhe,20.54842,74.66113099
346,Malegaon,2.22924475938,CHANDANPURI,20.522,74.537639,Chandanpuri,20.51293197,74.51854791
347,Malegaon,2.60415948701,CHAUKATPADE,20.41129,74.57817,Chaukatpada,20.42697163,74.59673086
348,Malegaon,1.49131884992,CHIKHALOHOL,20.605361,74.631028,Chikhalohal,20.59204823,74.63276551
349,Malegaon,1.55610272433,CHINCHAGAVAN,20.543944,74.732083,Chinchagavhan,20.53187448,74.72451924
350,Malegaon,3.10539363734,CHINCHAWAD,20.52542,74.34537,Chinchavad,20.50925445,74.36968564
351,Malegaon,4.46227048401,CHINCHWE (GA),20.74362,74.46001,Chinchave(Galane),20.78360604,74.46364405
352,Malegaon,4.24540220766,CHONDHI,20.40526,74.48824,Chondhi,20.36730643,74.48381236
353,Malegaon,0.717697596029,DABHADI,20.55156,74.45772,Dabhadi,20.55620936,74.46250129
354,Malegaon,3.65518426621,DABALI,20.636583,74.457389,Dabli,20.628972,74.49155937
355,Malegaon,5.29581237245,DAHIDI,20.662639,74.536222,Dahidi,20.70672647,74.5554791
356,Malegaon,3.88768840416,MANKE,20.605361,74.627667,Dahikute,20.62088568,74.59419719
357,Malegaon,1.7370114219,DAHIWAL,20.558278,74.677333,Dahiwal,20.5461033,74.68778618
358,Malegaon,2.3447817605,DAPURE,20.552472,74.748806,Dapur,20.57143621,74.75865435
359,Malegaon,2.35349573016,DASANE,20.57853,74.57157,Dasane,20.59807415,74.5628914
360,Malegaon,4.18732124779,DEOGHAT,20.567389,74.75925,Deoghat,20.5911701,74.79043863
361,Malegaon,2.46806046813,DEVARPADE,20.610917,74.631,Devarpada,20.62063761,74.65231926
362,Malegaon,1.85544761284,DHAVALESHWAR,20.54482,74.39848,Dhavali Vihir,20.55450276,74.38396674
363,Malegaon,5.68151691921,DONGRALE,20.743083,74.567,Dongrale,20.79104653,74.5858366
364,Malegaon,1.24855915771,NIMGILE,20.44959,74.61999,Dubagule,20.44216511,74.6110004
365,Malegaon,2.41497373282,DUNDHE,20.6444,74.34911,Dundhe,20.6234417,74.34302419
366,Malegaon,4.22713924179,GALNE,20.786028,74.57275,Galne,20.76856593,74.53663347
367,Malegaon,3.86493789048,GARBAD,20.685278,74.493611,Garbad,20.71996329,74.49120518
368,Malegaon,2.49321290188,GAREGAON,20.71231,74.41701,Garegaon,20.73192678,74.40539941
369,Malegaon,4.54047843989,GHANEGAON,20.79333,74.6156,Ghanegaon,20.7640399,74.64603036
370,Malegaon,5.15883422468,GHODEGAON,20.43742,74.55851,Ghodegaon,20.42951686,74.50972387
371,Malegaon,5.15883422468,GHODEGAON,20.43742,74.55851,Ghodegaonchoki,20.42951686,74.50972387
372,Malegaon,2.00247607386,GIGAON,20.574361,74.631,Gigaon,20.55702061,74.63619131
373,Malegaon,3.77962637988,GILANE,20.4289,74.62919,Gilane,20.45611955,74.60746281
374,Malegaon,1.47385194642,GUGULWAD,20.6555,74.702111,Gugulwad,20.65689313,74.71619784
375,Malegaon,3.22321858093,HATANE,20.662639,74.536622,Hatane,20.65576938,74.56671868
376,Malegaon,3.76164013902,HISWAL,20.61425,74.760222,Hiswal Bk,20.63092656,74.79167033
377,Malegaon,1.13575469405,JALGAON (GA),20.57961,74.4183,Jalgaon (Galane),20.58401596,74.40845678
378,Malegaon,0.116477298239,JALGAON (NI),20.40526,74.48824,Jalgaon (Nimbait),20.40591443,74.48736732
379,Malegaon,4.40115954055,JALKU,20.666194,74.672778,Jalku,20.6470351,74.63576376
380,Malegaon,3.89663952588,JATPADE,20.43584,74.56095,Jatpade,20.40673601,74.58177801
381,Malegaon,0.535677978825,JEUR,20.40579,74.62131,Jeur,20.40384978,74.61660531
382,Malegaon,4.33318802283,JWARDI (BK),20.437425,74.55851,Jwardi Bk.,20.47584484,74.56546979
383,Malegaon,4.33318802283,JWARDI (BK),20.437425,74.55851,Jwardi Kh,20.47584484,74.56546979
384,Malegaon,3.66129582134,KAJWADE,20.7624,74.42075,Kajwade,20.77862296,74.39010541
385,Malegaon,0.152956564058,KALWADI,20.552472,74.748806,Kalwadi,20.55223347,74.74735918
386,Malegaon,2.34017575106,KANDHANE,20.657861,74.672778,Kandhane,20.6780935,74.66658571
387,Malegaon,5.67388735431,KANKRALE,20.662583,74.536222,Kankrale,20.67858278,74.48443506
388,Malegaon,0.848431085,KASHTI,20.609639,74.479389,Kashti,20.60266212,74.47608886
389,Malegaon,5.39448978771,KAULANE (GA),20.70312,74.64505,Kaulane (Galane),20.7481359,74.62571096
390,Malegaon,1.03119455743,KAULANE (NI),20.48719,74.50575,Kaulane (N),20.49042004,74.49646988
391,Malegaon,5.14399308859,KHADAKI,20.57853,74.57157,Khadaki,20.62314111,74.55848881
392,Malegaon,0.769152941089,KHAKURDI,20.68443,74.41653,Khakurdi,20.68855006,74.42246919
393,Malegaon,3.6129314529,KHALANE,20.560694,74.613361,Khalane,20.53109537,74.62767456
394,Malegaon,2.51080853923,KHAYADE,20.47568,74.603,Khayade,20.47625815,74.6270952
395,Malegaon,4.36674359571,KOTHARE (BK),20.6466,74.38741,Kothare Bk.,20.67155973,74.35500762
396,Malegaon,4.36674359571,KOTHARE (BK),20.6466,74.38741,Kothare Kh.,20.67155973,74.35500762
397,Malegaon,2.83156694446,KUKANE,20.662583,74.536222,Kukane,20.65315653,74.51094058
398,Malegaon,0.799696436227,LENDANE,20.629306,74.534917,Lendane,20.62221327,74.53364564
399,Malegaon,2.14510264199,LONWADE,20.60503,74.57371,Lonwade,20.58669305,74.58011195
400,Malegaon,3.02238663563,LULLE,20.72589,74.48742,Lulle,20.75135697,74.49757757
401,Malegaon,3.94287804813,MALGAON,20.44995,74.62652,Malagaon,20.45746714,74.66350492
402,Malegaon,3.58038056267,MALHANGAON,20.570861,74.593194,Malhanagaon,20.54362192,74.61153196
403,Malegaon,4.70820547599,MANJRE,20.4625,74.46472,Manjare,20.42641025,74.44108716
404,Malegaon,1.9480129478,MANKE,20.605361,74.627667,Manke,20.62130642,74.61991424
405,Malegaon,2.60572261314,MATHURPADA,20.49365,74.57938,Mathurpada,20.47941907,74.59925486
406,Malegaon,0.744183138824,MEHUNE,20.44713,74.53789,Mehune,20.44974786,74.53131642
407,Malegaon,2.18961048949,MOHPADA,20.6562,74.5997,Mohapada,20.63663981,74.60212739
408,Malegaon,4.82445298636,NIMSHEWADI,20.72149,74.4316,Mordar,20.68035879,74.44636195
409,Malegaon,0.868311676367,MUNGSE,20.50057,74.4625,Mungase,20.49276147,74.46241727
410,Malegaon,1.13491554137,NAGAON (DI),20.48772,74.51046,Nagaon (D),20.48827163,74.52133982
411,Malegaon,3.23649548255,NALE,20.605361,74.627667,Nale,20.59360625,74.65611309
412,Malegaon,2.96971227995,NANDGAON (BK),20.45669,74.39863,Nandgaon,20.47587476,74.37879799
413,Malegaon,2.96971227995,NANDGAON (BK),20.45669,74.39863,Nandgaon Kh.,20.47587476,74.37879799
414,Malegaon,1.87343101273,NILGAWHAN,20.592611,74.5075,Nilgavhan,20.58820006,74.49012985
415,Malegaon,4.97053643298,NIMBAYATI,20.43584,74.56095,Nimbait,20.39209928,74.5511162
416,Malegaon,0.799047918436,NIMGAON,20.43742,74.55851,Nimgaon,20.44243785,74.56399955
417,Malegaon,5.73984298553,NIMGAON (KH),20.49115,74.58223,Nimgaon Kh,20.44243785,74.56399955
418,Malegaon,1.35756632915,NIMGILE,20.44959,74.61999,Nimgule,20.45135907,74.6328826
419,Malegaon,1.35756632915,NIMGILE,20.44959,74.61999,Nimgulekupa,20.45135907,74.6328826
420,Malegaon,3.0292712731,NIMSHEWADI,20.72149,74.4316,Nimshevadi,20.70820956,74.45703069
421,Malegaon,3.87150921432,PADALDE,20.588056,74.689583,Padalde,20.59081877,74.72665877
422,Malegaon,1.4297313565,PALASDARE,20.647472,74.741667,Palasdare,20.6508277,74.75493141
423,Malegaon,1.80271838765,PANDHRUN,20.55479,74.34466,Pandharun,20.57094388,74.34612784
424,Malegaon,1.24513565545,PATANE,20.52919,74.45631,Patane,20.52025151,74.46351207
425,Malegaon,0.626216021167,PATHARDE,20.4289,74.62919,Patharde,20.42728977,74.62343125
426,Malegaon,2.50768754009,POHANE,20.7379,74.41684,Pohane,20.76020365,74.41326959
427,Malegaon,4.39961082525,RAJMANE,20.67473,74.60148,Rajmane,20.70974912,74.62116683
428,Malegaon,4.54842996206,KAJWADE,20.7624,74.42075,Rampura,20.80165236,74.40843937
429,Malegaon,5.10214002159,RONZANE,20.539417,74.647972,Ronzane,20.51472845,74.68927076
430,Malegaon,2.02242619197,RONZE,20.557583,74.677944,Roze,20.57257282,74.68894624
431,Malegaon,3.66173424,SAJWAL,20.584167,74.655583,Sajvahal,20.6021678,74.68504078
432,Malegaon,3.06572241709,SAKUR,20.570139,74.762333,Sakur,20.55134281,74.78387571
433,Malegaon,3.3563876236,SAKURI (NI),20.40579,74.62131,Sakuri(Nimbait),20.41357921,74.65242575
434,Malegaon,2.6476008723,SATMANNE,20.61582,74.40124,Satmane,20.63726397,74.39018258
435,Malegaon,0.142667947633,SAUNDANE,20.45395,74.39733,Saundane,20.45302685,74.39828102
436,Malegaon,4.65181049752,SAWANDGAON,20.531925,74.541692,Savandgaon,20.52218511,74.5851355
437,Malegaon,4.00913968382,VADNER,20.6829,74.41447,Sawatawadi,20.65428664,74.39102369
438,Malegaon,2.4235437329,SAYNE (KD),20.623389,74.617194,Sayane Kh,20.60329768,74.60816739
439,Malegaon,2.60848021445,SHENDURNI,20.596639,74.650167,Shendurni,20.57404175,74.65689512
440,Malegaon,0.217977619263,SHERUL,20.614556,74.759972,Sherul,20.61489427,74.75790899
441,Malegaon,0.973945059151,SHIRSONDI,20.42562,74.40872,Shirsondi,20.4264497,74.41802455
442,Malegaon,3.96954164992,SITANE,20.543611,74.621278,Sitane,20.52504334,74.653837
443,Malegaon,1.0698097104,SONAJ,20.46158,74.47661,Sonaj,20.45631968,74.46801203
444,Malegaon,0.68725300355,TAKALI,20.45616,74.4343,Takali,20.46031607,74.42941743
445,Malegaon,3.45506090696,TALWADE,20.56463,74.35587,Talwade,20.59549063,74.35200425
446,Malegaon,1.64770043664,TEHARE,20.531167,74.496917,Tehare,20.51731681,74.49129222
447,Malegaon,4.28110973515,TINGRI,20.710611,74.558333,Tingri,20.74833543,74.56655905
448,Malegaon,3.61168939643,TOKADE,20.65599,74.56634,Tokade,20.66441482,74.59986509
449,Malegaon,3.37817943425,UMBARDE,20.530222,74.723722,Umbardhe,20.50030598,74.71807031
450,Malegaon,1.24582594082,VADEL,20.636583,74.457389,Vadel,20.64715055,74.45341126
451,Malegaon,1.00587002211,VADGAON,20.592639,74.523,Vadgaon,20.58671573,74.53030357
452,Malegaon,2.65885868827,VADNER,20.6829,74.41447,Vadner,20.67120247,74.392179
453,Malegaon,0.883326100188,VAJIRKHEDE,20.601806,74.508389,Vajirkhede,20.60760362,74.51419097
454,Malegaon,2.15190434662,WAKE,20.49769,74.44788,Vake,20.48907155,74.42938177
455,Malegaon,4.15564039409,VALWADE,20.68456,74.41653,Valwade,20.71920694,74.43150774
456,Malegaon,3.38478837146,VALWADI,20.6935,74.41408,Valwadi,20.71920694,74.43150774
457,Malegaon,2.71040020948,VANPAT,20.743083,74.567,Vanpat,20.73861962,74.59262371
458,Malegaon,0.0698411304589,VARAHANE,20.45705,74.50483,Varhane,20.45684429,74.5041966
459,Malegaon,0.0698411304589,VARAHANE,20.45705,74.50483,Varhanepada,20.45684429,74.5041966
460,Malegaon,3.45788670478,VIRANE,20.72149,74.43166,Virane,20.74210688,74.45655276
461,Malegaon,1.16495000457,YESGAON (BK),20.49365,74.57938,Yesgaon Bk,20.48915417,74.58948218
462,Malegaon,1.16495000457,YESGOAN (KD),20.49365,74.57938,Yesgaon Kh,20.48915417,74.58948218
463,Malegaon,1.10468765919,ZODAGE,20.657861,74.672778,Zodge,20.66028412,74.68307478
464,Nandgaon,5.55684569813,AMODE,20.44664,74.76342,Amode,20.49562364,74.77398654
465,Nandgaon,1.86539848111,ANAKWADE,20.20433,74.44128,Anakwade,20.21617487,74.42862073
466,Nandgaon,3.81934456536,ASTGAON,20.29022,74.50517,Astagaon,20.29446386,74.46882953
467,Nandgaon,1.21335195865,SAKORA,20.34358,74.696,Aswaldara,20.35438149,74.69765168
468,Nandgaon,1.77205042176,BABHULWADI,20.295981,74.715447,Babhulwadi,20.30846536,74.72600819
469,Nandgaon,0.430330235457,BANGAON BK,20.24472,74.66083,Bangaon Bk.,20.24621505,74.65702533
470,Nandgaon,0.430330235457,BANGAON KH,20.24472,74.66083,Bangaon Kh.,20.24621505,74.65702533
471,Nandgaon,0.849527114246,BHALUR,20.23094,74.57569,Bhalur,20.22839775,74.56801176
472,Nandgaon,0.328413533266,BHARDI,20.34386,74.50739,Bhardi,20.34654817,74.50608513
473,Nandgaon,2.3909729206,BHAURI,20.225,74.65861,Bhauri,20.2069193,74.6462078
474,Nandgaon,1.15056902597,BOLTHAN,20.19161,74.90872,Bolthan,20.19278535,74.91967355
475,Nandgaon,2.88618593329,BORALE,20.50597,74.77533,Borale,20.48474672,74.75937727
476,Nandgaon,2.84833137969,BOYGAON,20.33833,74.50117,Boygaon,20.36366446,74.50520712
477,Nandgaon,3.53619273813,CHANDORE,20.30075,74.75356,Chandore,20.33219123,74.7586517
478,Nandgaon,2.94153253006,CHINCHVIHIR,20.26633,74.75197,Chinchvihir,20.27283866,74.77930332
479,Nandgaon,1.37530099158,DHANER,20.34389,74.51769,Dhaner,20.33708385,74.5287041
480,Nandgaon,0.101250192787,DHEKU KD,20.25575,74.84264,Dheku Bk.,20.256167,74.84350283
481,Nandgaon,0.101250192787,DHEKU KD,20.25575,74.84264,Dheku Kh.,20.256167,74.84350283
482,Nandgaon,0.833922319817,DHOTANE BK,20.28467,74.50256,Dhotane Bk.,20.28709939,74.51012445
483,Nandgaon,0.833922319817,DHOTANE KH,20.28467,74.50256,Dhotane Kh.,20.28709939,74.51012445
484,Nandgaon,1.17372227034,BABHULWADI,20.295981,74.715447,Doctorwadi,20.3054177,74.71040428
485,Nandgaon,0.780048643762,EKAWAI,20.24347,74.50636,Ekwai,20.24722297,74.50004288
486,Nandgaon,2.29613315426,GONDEGAON,20.1915,74.88861,Gondegaon,20.18962318,74.86669944
487,Nandgaon,2.05605244639,HIGANE DEHARE,20.31353,74.84389,Hingane Dehere,20.32423987,74.85996326
488,Nandgaon,2.89772511193,HIRENAGAR,20.29786,74.58642,Hirenagar,20.32042917,74.60031243
489,Nandgaon,1.89847638665,HISWAL BK,20.29817,74.59042,Hiswal Bk.,20.31054153,74.5778741
490,Nandgaon,1.89847638665,HISWAL KH,20.29817,74.59042,Hiswal Kh.,20.31054153,74.5778741
491,Nandgaon,1.19347276326,JALGAON BK,20.261253,74.737608,Jalgaon Bk.,20.26380829,74.74872022
492,Nandgaon,1.19347276326,JALGAON KH,20.261253,74.737608,Jalgaon Kh.,20.26380829,74.74872022
493,Nandgaon,0.593025111805,JAMDHRI,20.40875,74.70097,Jamdari,20.4050398,74.70505766
494,Nandgaon,1.63903034303,JATEGAON,20.22936,74.87433,Jategaon,20.22279481,74.88839465
495,Nandgaon,1.14322569354,JAWALKI,20.19014,74.90753,Jawalki,20.18979429,74.89658181
496,Nandgaon,4.59815917176,KALAMDARI,20.40875,74.70097,Kalamdari,20.45009629,74.70171848
497,Nandgaon,1.75871083789,KARHI,20.244,74.49444,Karhi,20.23598325,74.47990847
498,Nandgaon,3.7775717113,KASABKHEDA,20.24072,74.72231,Kasabkhede,20.20675109,74.72178232
499,Nandgaon,1.48269591221,KASARI,20.23167,74.75572,Kasari,20.22616901,74.76866508
500,Nandgaon,1.92641301287,KHADGAON,20.30064,74.48561,Khadgaon,20.3172354,74.49091322
501,Nandgaon,2.52872545389,KHIRDI PATODE,20.24333,74.66194,Khirdipatode,20.22059195,74.6623544
502,Nandgaon,2.35742393998,KONDHAR,20.33997,74.53425,Kondhar,20.33634936,74.55652825
503,Nandgaon,0.341543383403,KUSUMTEL,20.25297,74.80744,Kusumtel,20.2559054,74.80840404
504,Nandgaon,1.89875071906,LAXMINAGAR,20.23381,74.57694,Laxminagar,20.25081641,74.57857997
505,Nandgaon,3.69190884313,LOHSHINGVE,20.23094,74.57569,Lohshingve,20.19855024,74.56791119
506,Nandgaon,3.11761845808,MALGAON,20.45297,74.75683,Malgaon,20.46548754,74.73005293
507,Nandgaon,0.321804698784,MANDWAD,20.26861,74.60028,Mandwad,20.26902287,74.60333354
508,Nandgaon,3.94792145114,MANGLANE,20.44146,74.75786,Manglane,20.45891753,74.7908556
509,Nandgaon,4.29284531953,MANIKPUNJ,20.28554,74.70275,Manikpunj,20.24969308,74.7180299
510,Nandgaon,1.23079292026,MOHEGAON,20.24783,74.55561,Mohegaon,20.24876233,74.54385405
511,Nandgaon,2.59023690921,MORZAR,20.24556,74.66083,Morzar,20.24971052,74.63639845
512,Nandgaon,4.72124691926,MULDONGRI,20.35178,74.70239,Muldongari,20.3654386,74.74527093
513,Nandgaon,0.192427707435,NAGAPUR,20.26514,74.47758,Nagapur,20.2664005,74.47631604
514,Nandgaon,3.70712444224,NANDUR,20.36339,74.53553,Nandur,20.35241863,74.56910944
515,Nandgaon,1.82046696439,Navsari,20.31642,74.49183,Navsari,20.33149747,74.49863382
516,Nandgaon,0.689521923448,NAYDONGRI,20.35003,74.83325,Naydongari,20.35623032,74.83315065
517,Nandgaon,3.79858746361,NEW PANZAN,20.33453,74.69203,New_panzan,20.33664755,74.72839216
518,Nandgaon,3.68975663395,PALASHI,20.44664,74.76342,Palashi,20.42716692,74.79209287
519,Nandgaon,0.350547056981,PANEWADI,20.27433,74.50389,Panewadi,20.27122372,74.50446365
520,Nandgaon,1.18379488714,Panzandev,20.29022,74.50517,Panzandev,20.30029738,74.50150963
521,Nandgaon,3.46142067396,PARDHADI,20.31213,74.78516,Pardhadi,20.3016859,74.8164284
522,Nandgaon,1.17305579544,PIMPARKHED,20.310486,74.781947,Pimparkhed,20.29993865,74.78171759
523,Nandgaon,3.00662879345,PIMPRALE,20.36268,74.61425,Pimprale,20.373557,74.64065607
524,Nandgaon,2.87948404857,PIMPRIHAVELI,20.30953,74.81969,Pimpri_haveli,20.30279425,74.84635143
525,Nandgaon,5.51684251271,KASABKHEDA,20.24072,74.72231,Pohi,20.19783137,74.74889051
526,Nandgaon,2.98548068689,RANKHEDA,20.31836,74.79104,Rankhede,20.34520726,74.79070727
527,Nandgaon,3.49378659072,ROHILE (BK),20.19092,74.90828,Rohile Bk,20.16143397,74.91984382
528,Nandgaon,0.72273911535,SAKORA,20.34358,74.696,Sakore,20.34761485,74.69056518
529,Nandgaon,2.91990149759,SATANE,20.218639,74.470667,Satane,20.24064063,74.45539008
530,Nandgaon,2.59546886546,SHASHRINAGAR,20.29431,74.53928,Shashrinagar,20.27557123,74.55411745
531,Nandgaon,3.70771809369,SOYEGAON,20.20261,74.57475,Soygaon,20.20601634,74.61009473
532,Nandgaon,1.33880339107,TALWADE,20.40772,74.75686,Talwade,20.39569174,74.75628929
533,Nandgaon,2.06395262036,TANDULWADI,20.26583,74.66222,Tandulwadi,20.26800696,74.68187002
534,Nandgaon,2.3982006091,Vanjarwadi,20.22894,74.48181,Vanjarwadi,20.21607486,74.46336254
535,Nandgaon,1.22873138933,VAHELGAON,20.45297,74.75683,Vehelgaon,20.44197052,74.75570084
536,Nandgaon,2.30361190814,WADALI BK,20.24917,74.64111,Wadali Bk.,20.22877305,74.63724456
537,Nandgaon,2.30361190814,WADALI KH,20.24917,74.64111,Wadali Kh.,20.22877305,74.63724456
538,Nandgaon,1.81778174388,WAKHARI,20.39061,74.60331,Wakhari,20.37426337,74.6031101
539,Nashik,0.904795645723,AMBEBAHULA,19.907434,73.718994,Ambebahula,19.90652377,73.71039418
540,Nashik,1.25011363461,MOHAGAON,19.951288,73.890808,Babhaleshwar,19.94067448,73.89475243
541,Nashik,0.990762461358,BELATGAVHAN,19.920551,73.846199,Belatgavhan,19.92414465,73.85487129
542,Nashik,3.01917466644,LAHVIT,19.850937,73.813362,Bhagur Rural,19.8637613,73.83880765
543,Nashik,0.657487483288,CHANDGIRI,19.937034,73.917028,Chandgiri,19.93700975,73.92331784
544,Nashik,1.5514413699,CHANDSHI,20.034723,73.740372,Chandshi,20.03734716,73.75495825
545,Nashik,0.289836628956,DAHEGAON,19.892183,73.645417,Dahegaon,19.8930064,73.64804702
546,Nashik,2.19282321875,DARI,20.079815,73.720894,Dari,20.08692175,73.74048045
547,Nashik,0.332417000537,DEVARGAON,20.074255,73.578323,Devargaon,20.07328211,73.58133259
548,Nashik,0.702830829549,DHONDEGAON,20.077694,73.615417,Dhondegaon,20.0738769,73.62078088
549,Nashik,1.4165218367,DONWADE,19.870825,73.85658,Donwade,19.87075941,73.87012539
550,Nashik,1.13219153271,DUDGAON,19.981924,73.648888,Dudgaon,19.97494904,73.65678079
551,Nashik,1.2295654781,DUGAON,20.074583,73.686401,Dugaon,20.07563909,73.69812022
552,Nashik,1.52633065521,EKLAHARE,19.992601,73.902405,Eklahare,19.97973217,73.90748742
553,Nashik,1.53472862798,GANESHGAON N.,19.997171,73.626152,Ganeshgaon Nashik,20.01066301,73.62305575
554,Nashik,0.225379321564,GANESHGAON T,20.00919,73.621574,Ganeshgaon Trambak,20.01066301,73.62305575
555,Nashik,0.432815341711,GANGAMHALUGI,20.04335,73.596497,Gangamhalungi,20.04245599,73.59246443
556,Nashik,1.94838629759,LAKHALGAON,19.999624,73.923248,Gangapadali,19.98522473,73.93387279
557,Nashik,3.10306858348,GANGAVARHE,20.005464,73.660167,Gangavarhe,20.0188226,73.68624298
558,Nashik,1.7087054848,GAULANE,19.905554,73.740723,Gaulane,19.8959772,73.7535038
559,Nashik,0.0330752679077,GIRNARE,20.072311,73.662857,Girnare,20.07219539,73.66256521
560,Nashik,0.23189483374,GOVARDHAN,20.029861,73.713417,Govardhan,20.03180165,73.71260422
561,Nashik,1.95468167369,GANGAMHALUGI,20.04335,73.596497,Govindrur,20.02809867,73.58719238
562,Nashik,0.700915016742,HINGANWEDHE,19.972656,73.925995,Hinganwedhe,19.96813263,73.93066597
563,Nashik,1.74388908641,JAKHORI,19.951073,73.921173,Jakhori,19.95357043,73.93764473
564,Nashik,1.31386086879,JALALPUR,20.036161,73.719025,Jalalpur,20.03674314,73.73158679
565,Nashik,0.777926100215,JATEGAON,19.924708,73.648605,Jategaon,19.91833338,73.65167101
566,Nashik,1.11511866253,KALAVI,19.990849,73.941154,Kalavi,19.98319082,73.94804378
567,Nashik,3.6460943417,DHONDEGAON,20.077694,73.615417,Kashyapnagar,20.0883493,73.58239878
568,Nashik,1.2391711955,KOTAMGAON,19.956116,73.900635,Kotamgaon,19.95842631,73.91223355
569,Nashik,0.803993348701,LAHVIT,19.850937,73.813362,Lahvit,19.84764127,73.82020419
570,Nashik,1.80275791136,LAKHALGAON,19.999624,73.923248,Lakhalgaon,20.01119525,73.93533301
571,Nashik,0.727485828011,LOHSHINGVE,19.830969,73.790924,Lohshingve,19.83710637,73.79333323
572,Nashik,1.18492067469,MADSANGVI,20.001589,73.873314,Madsangavi,19.99429725,73.88158345
573,Nashik,1.59238864329,MAHADEOPUR,20.040222,73.7,Mahadeopur,20.05232033,73.70815658
574,Nashik,1.81164232461,MAHIRAWANI,19.966114,73.661652,Mahirawani,19.95973882,73.6776039
575,Nashik,3.3640413068,DUGAON,20.074583,73.686401,Manoli,20.09229093,73.71251884
576,Nashik,1.70148431518,MATORI,20.056021,73.751213,Matori,20.06829801,73.7609365
577,Nashik,2.08978405267,MOHAGAON,19.951288,73.890808,Mohagaon,19.93940921,73.9063011
578,Nashik,1.39102708027,MUNGSARA,20.059693,73.722374,Mungsare,20.06246253,73.73536136
579,Nashik,0.121888752764,NAGALWADI,20.059389,73.643845,Nagalwadi,20.05964478,73.64271025
580,Nashik,1.310712923,NAIKWADI,20.106703,73.64238,Naikwadi,20.1100034,73.65443061
581,Nashik,1.74311456557,NANEGAON,19.895559,73.850143,Nanegaon,19.89493168,73.86680085
582,Nashik,2.92805875319,ODHA,19.996778,73.90609,Odha,20.02006573,73.91917147
583,Nashik,1.76951825316,OZERKHEDE,20.044944,73.623665,Ozarkhede,20.04192876,73.64029779
584,Nashik,1.9063559156,PALSE,19.925341,73.873932,Palse,19.91106705,73.88403255
585,Nashik,1.83352923401,PIMPALGAON,20.012934,73.633865,Pimpalgaon Garudeshwar,20.0217896,73.64866889
586,Nashik,1.08907278715,RAHURI,19.866165,73.841827,Rahuri,19.86658236,73.85223157
587,Nashik,1.35358011181,RAIGADNAGAR,19.891089,73.694382,Raigadnagar,19.89152646,73.707319
588,Nashik,0.701240551391,RAJEWADI,20.017706,73.594551,Rajewadi,20.01196661,73.59733245
589,Nashik,1.5037953495,RAJUR BAHULA,19.916269,73.700421,Rajur Bahula,19.90652377,73.71039418
590,Nashik,1.99535637054,SAMANGAON,19.970028,73.876194,Samangaon (CT),19.96071864,73.89251599
591,Nashik,1.04822228395,SANSARI,19.906664,73.840248,Sansari (CT),19.90970004,73.84973985
592,Nashik,0.719448081469,SARUL,19.925371,73.702187,Sarul,19.92955365,73.70743782
593,Nashik,1.80388256095,GANGAMHALUGI,20.04335,73.596497,Shastrinagar,20.05653092,73.60656439
594,Nashik,1.50394651162,SHEWGE DARNA,19.912193,73.848839,Shewge Darna,19.9128998,73.86320471
595,Nashik,0.950242918696,SHILAPUR,19.99638,73.898514,Shilapur,20.00322442,73.90395938
596,Nashik,0.890475773916,SHINDE,19.914514,73.898728,Shinde,19.91555603,73.90717319
597,Nashik,1.27821652428,SHIVANGAON,20.022688,73.613724,Shivangaon,20.02609649,73.6254087
598,Nashik,1.68523156202,GANGAMHALUGI,20.04335,73.596497,Subhashnagar,20.03903998,73.61196343
599,Nashik,1.48423708481,VINCHURGAVALI,20.024431,73.88475,Sultanpur,20.01171941,73.8890845
600,Nashik,1.37480689992,TIRADSHET,19.979637,73.713936,Tiradshet,19.9694124,73.72133252
601,Nashik,1.88568781687,VADGAON,20.093656,73.670906,Vadgaon,20.10513935,73.68419405
602,Nashik,3.32451356281,DEVARGAON,20.074255,73.578323,Vaishnavnagar,20.10209455,73.5899312
603,Nashik,1.93587968919,VANJARWADI,19.817753,73.763023,Vanjarwadi,19.83098734,73.77504722
604,Nashik,1.44622959072,VILHOLI,19.924599,73.717138,Vilholi (CT),19.9221984,73.73073456
605,Nashik,1.61659998978,VINCHURGAVALI,20.024431,73.88475,Vinchurgavali,20.02839256,73.89963852
606,Nashik,0.553201024064,WASALI,19.983563,73.683586,Wasali,19.98815732,73.68561709
607,Nashik,0.969302990591,YASHWANTNAGAR,20.052658,73.719833,Yashwantnagar,20.0560338,73.72838871
608,Niphad,1.56776760864,AHERGAON,20.195639,74.015722,Ahergaon,20.18375144,74.02379958
609,Niphad,1.01350775746,ANTERWELI,20.204667,73.976194,Antarweli,20.20765138,73.96701694
610,Niphad,2.50243006713,AURANGPUR,19.972972,74.061472,Aurangpur,19.97811219,74.08478453
611,Niphad,5.79886039134,OZER,20.090944,73.924778,Banganganagar,20.08094086,73.97927461
612,Niphad,2.39746188911,BHED,20.165083,73.997861,Behed,20.14525667,74.00688652
613,Niphad,0.721720989197,BHARVAS,20.067444,74.287139,Bharwas,20.0648195,74.28081905
614,Niphad,1.48807014177,BHENDALI,19.972611,74.060389,Bhendali,19.98478131,74.06631098
615,Niphad,0.937020009142,BHUSE,20.001278,74.094861,Bhuse,19.99870506,74.10340041
616,Niphad,0.548706095524,BOKADADARE,20.072694,74.196139,Bokaddare,20.07528999,74.20060703
617,Niphad,0.870387137296,BRAMHANGAON (VANAS),20.157361,74.144333,Bramhangaon Vanas,20.15523216,74.13630905
618,Niphad,1.32839382293,BRAMHANGAON VINCHOR,20.142611,74.241694,Bramhangaon Vinchur,20.14415717,74.25431184
619,Niphad,3.63979182604,KARANJ KD.,19.976778,74.197278,Bramhanwade,19.96587083,74.23011551
620,Niphad,1.21873380121,CHANDORI,20.027917,73.999611,Chandori,20.03536929,74.00816545
621,Niphad,2.49170096964,CHAPPADGAON,20.005861,74.086528,Chapadgaon,20.01999092,74.10503771
622,Niphad,2.62324590346,CHATORI,20.011778,74.008083,Chatori,20.03536929,74.00816545
623,Niphad,3.28918468312,LALPADI,19.980917,73.955944,Chehedi Kh.,20.01025893,73.95195548
624,Niphad,1.51930123848,CHITEGAON,20.033083,73.957833,Chitegaon,20.02810386,73.97137609
625,Niphad,1.04946656249,VAHEGAON,20.069861,74.280694,Dahegaon,20.07818,74.27594792
626,Niphad,2.60422987809,DARANA SANGVI,19.977806,73.952833,Darna Sangvi,19.9766683,73.97772345
627,Niphad,1.80847747649,DATYAN,20.077361,74.011861,Datyane,20.07384223,73.99495498
628,Niphad,0.465732959957,DAWACHWADI,20.150556,74.057417,Davachwadi,20.15030032,74.0618702
629,Niphad,0.949549122521,DEOGAON,20.024333,74.260972,Deogaon,20.02520543,74.27001342
630,Niphad,1.2836872565,DEOPUR,20.14225,74.081333,Deopur,20.13143545,74.07703012
631,Niphad,2.28979326174,RUI,20.019472,74.246139,Dhanore,20.03827017,74.2371904
632,Niphad,1.14302250763,DHARANGAON KHADAK,20.039556,74.19825,Dharangaon Khadak,20.04962272,74.19603542
633,Niphad,1.31643853417,DHARANGAON VEER,20.038833,74.201861,Dharangaon Veer,20.03919227,74.21445714
634,Niphad,0.197543033886,DINDORI,20.031806,74.147583,Dindori,20.03004812,74.1473096
635,Niphad,5.41885325193,DIXI,20.093361,73.930056,Dixi,20.10058862,73.98137464
636,Niphad,0.58833043952,GAJARWADI,20.040778,74.165056,Gajarwadi,20.04178218,74.17058566
637,Niphad,2.03595769792,KUNDEWADI,20.097639,74.078361,Gitakunj,20.10978801,74.09294834
638,Niphad,2.39582995817,MARALGOI KD,20.108639,74.274194,Golegaon,20.08710681,74.27502173
639,Niphad,2.55459902052,GONDEGAON,20.072472,74.291056,Gondegaon,20.09178539,74.3043033
640,Niphad,2.55459902052,GODEGAON,20.072472,74.291056,Gondegaon.,20.09178539,74.3043033
641,Niphad,4.91830857881,GORTHAN,20.210056,74.012528,Gorthan,20.21152801,74.05963541
642,Niphad,1.23811718564,HANUMANNAGAR,20.094083,74.239833,Hanumannagar,20.09537706,74.25160906
643,Niphad,1.09617103741,JALGAON,20.066278,74.111028,Jalgaon,20.06115679,74.11999574
644,Niphad,1.94164457988,JIWHALE,20.083056,73.981028,Jivhale,20.09618341,73.99328828
645,Niphad,3.59659396528,KOLGAON,19.9735,74.219694,Kalgaon,19.98488959,74.25190592
646,Niphad,3.26018003237,KANLAD,20.004583,74.290944,Kanlad,19.97966042,74.27451031
647,Niphad,0.645699906985,KARANJGAON,20.015556,74.074111,Karanjgaon,20.01019808,74.07649386
648,Niphad,1.46363492688,KARSUL,20.143389,74.029833,Karsul,20.14231544,74.0438066
649,Niphad,2.42118048981,K.SUKANE,20.077361,74.011861,Kasabe Sukene,20.09592628,74.0239753
650,Niphad,1.35851996287,KATHARGAON,20.039028,74.116667,Kathargaon,20.03663154,74.12941905
651,Niphad,2.16922129073,KHADAKMALEGAON,20.175944,74.169306,Khangaon Najik,20.15730564,74.17544281
652,Niphad,1.39205967779,KHANGAON TADI,20.007111,74.135333,Khangaon Thadi,20.00452836,74.14836945
653,Niphad,2.30887514489,KHEDLE ZUNGE,19.973444,74.219028,Khedale Zunge,19.99188967,74.22917346
654,Niphad,0.756584544253,KHEDE,20.130056,74.116667,Khede,20.13623819,74.11969391
655,Niphad,0.92307129753,KOKANGAON,20.136444,73.972667,Kokangaon,20.12909119,73.97677123
656,Niphad,1.1319395213,KOTAMGAON,20.1375,74.20375,Kotamgaon,20.14755052,74.20202759
657,Niphad,1.98529552221,KOTHURE,20.045611,74.075917,Kothure,20.0611094,74.08535315
658,Niphad,0.97578250012,KUMBHARI,20.160333,74.077222,Kumbhari,20.16821255,74.08133695
659,Niphad,1.32531603595,KURUDGAON,20.046472,74.093806,Kurudgaon,20.04909042,74.10618368
660,Niphad,1.18734426639,LALPADI,19.980917,73.955944,Lalpadi,19.98617929,73.9658306
661,Niphad,0.611292858139,LASALGAON,20.147,74.235056,Lasalgaon (CT),20.1428278,74.23124291
662,Niphad,0.858272293591,LONWADEE,20.162167,74.028972,Lonwadi,20.16594552,74.03614198
663,Niphad,2.46028770459,MAHAJANPUR,19.968,74.054139,Mahajanpur,19.95540991,74.07349663
664,Niphad,1.29496270795,MANJARGAON,19.99725,74.117889,Majargaon,20.0066769,74.12516608
665,Niphad,3.17257092718,BHARVAS,20.067444,74.287139,Manori Kh.,20.04184122,74.30054346
666,Niphad,2.06273369459,PACHORE KD,20.128167,74.275083,Maralgoi Kh.,20.11274269,74.28605895
667,Niphad,2.32962008785,M.SUKANE,20.077806,74.012778,Mauje Sukene,20.09592628,74.0239753
668,Niphad,0.770282655765,MARALGOI BK,20.108639,74.274194,Mavalgoi Bk.,20.10184241,74.27276764
669,Niphad,0.974984421648,MAHALSAKORE,19.987611,74.118056,Mhalsakore,19.98072813,74.12383619
670,Niphad,3.11427059251,MUKHED,20.182778,73.992444,Mukhed,20.21014152,73.98608233
671,Niphad,2.32629663269,CHANDORI,20.027917,73.999611,Nagapur,20.00713084,73.99708812
672,Niphad,0.576842513604,NAITALE,20.069361,74.1685,Naitale,20.0678904,74.17379645
673,Niphad,0.598504055931,NANDURDI,20.135694,74.103472,Nandurdi,20.13321344,74.09838427
674,Niphad,2.12393623864,NANDUR KD,20.195917,74.110472,Nandur Kh.,20.21419038,74.10454561
675,Niphad,2.08561414972,NANDUR M.,20.012639,74.155194,Nandur Madhyameshwar,20.01327182,74.1751444
676,Niphad,1.8682059213,KHERWADI( NARAYANGAON),20.044056,73.97225,Narayangaon,20.056639,73.98410148
677,Niphad,0.653274005187,NARAYAN T.,20.143389,74.029833,Narayan Tembhi,20.14496504,74.02380454
678,Niphad,1.82037725441,NIPHAD,20.078,74.107611,Niphad,20.09082437,74.11844567
679,Niphad,1.46561273372,ONEY,20.078667,74.000972,Oney,20.06744448,74.00833154
680,Niphad,0.884907990577,PACHORE BK,20.128167,74.275083,Pachore Bk.,20.12367816,74.26808429
681,Niphad,1.78982220694,MARALGOI BK,20.108639,74.274194,Pachore Kh.,20.12367816,74.26808429
682,Niphad,1.65152737857,PACHORE VANI,20.194944,74.014806,Pachorewani,20.20969577,74.01664645
683,Niphad,0.609588682785,PALKHED,20.177167,74.062417,Palkhed,20.1824791,74.06097351
684,Niphad,2.58885174902,PANCHAKESHOR,20.148583,74.062194,Panchkeshwar,20.15156066,74.08679036
685,Niphad,1.83564465198,PIMPLAS,20.071,74.0445,Pimpalas,20.07039301,74.06206384
686,Niphad,3.36646077976,BERWADI (RAMNAGAR),19.994306,74.005833,Ramnagar,19.97802931,74.03299663
687,Niphad,1.80800117023,NAITALE,20.069361,74.1685,Rampur,20.08486565,74.17371433
688,Niphad,1.82712164564,RANWAD,20.160389,74.103583,Ranwad,20.17530955,74.11091576
689,Niphad,0.177886213154,RASALPUR,20.077889,74.095806,Rasalpur,20.07732101,74.09739831
690,Niphad,1.95623920756,RAULAS,20.101944,74.06625,Raulas,20.119533,74.06585645
691,Niphad,2.31626830077,REDGAON,20.208389,74.10025,Redgaon,20.22742684,74.09124036
692,Niphad,0.434992209885,RUI,20.019472,74.246139,Rui,20.01679269,74.2431053
693,Niphad,2.85297309499,SAIKHEDA,20.011778,74.008083,Saikhede,20.01997736,74.03395789
694,Niphad,0.868085571783,SAKORE,20.147722,73.941639,Sakore,20.14047613,73.94473433
695,Niphad,2.0112346596,SAROLE KD.,20.162944,74.155639,Sarole Kh.,20.17733508,74.14396626
696,Niphad,5.3672202154,PIMPALGAON NIPANI,19.950556,74.043278,Sawali,19.96849756,73.99560421
697,Niphad,2.13438065849,SHINGVE,20.022222,74.03825,Shingave,20.03115404,74.05633359
698,Niphad,2.6515944468,SHIRASGAON,20.136167,73.975194,Shirasgaon,20.129303,73.99951734
699,Niphad,1.35831203442,SHIRWADE WAKAD,20.000806,74.307056,Shirwade Wakad,19.98895914,74.30388624
700,Niphad,2.91323543127,SHIRWADE VANI,20.210056,74.012528,Shirwade Wani,20.20947394,74.04043927
701,Niphad,1.16493615074,SHIVADI,20.120639,74.128694,Shivadi,20.11882016,74.13968196
702,Niphad,0.336570162729,SHIRVARE,20.060222,74.143917,Shivare,20.05856778,74.14661553
703,Niphad,2.48284805174,PACHORE BK,20.128167,74.275083,Shiwapur,20.12802634,74.29886374
704,Niphad,3.49650248642,AURANGPUR,19.972972,74.061472,Shrirampur,19.9699141,74.09477022
705,Niphad,0.87256975148,SONEWADI BK,20.102056,74.164944,Sonewadi Bk.,20.1087664,74.16927606
706,Niphad,0.771907946922,SONEWADI KD,20.108722,74.142139,Sonewadi Kh.,20.10992969,74.14941887
707,Niphad,1.05903177409,SONGAON,20.005444,74.025694,Songaon,19.9998345,74.03388499
708,Niphad,3.15620483442,SUBHASNAGAR,20.102917,74.221889,Subhash Nagar,20.09816062,74.19209095
709,Niphad,1.67292116226,SUNDARPUR,20.048444,74.119972,Sundarpur,20.04635142,74.13583165
710,Niphad,2.03486037519,TAKALI VINCHOR,20.147,74.235056,Takali Vinchur,20.14415717,74.25431184
711,Niphad,0.974093238405,TALWADE,19.949722,74.043472,Talwade,19.94884551,74.05274468
712,Niphad,1.49221466384,TAMASWADI,19.98525,74.170222,Tamaswadi,19.97645283,74.18100523
713,Niphad,1.1305694194,TARUKHEDLE,19.987306,74.151583,Tarukhedle,19.97753313,74.15456771
714,Niphad,1.71639284022,THERGAON,20.080861,73.989694,Thergaon,20.09214163,74.0009127
715,Niphad,0.114712766021,THETALE,20.136361,74.178833,Thetale,20.13687576,74.17978524
716,Niphad,2.50210402624,UGAON,20.131278,74.130083,Ugaon,20.13604034,74.1535066
717,Niphad,2.64408709335,UMBERKHED,20.166583,73.988306,Umbarkhed,20.16307887,73.96325101
718,Niphad,1.20670260028,VDALI NAJIK,20.127528,74.023667,Vadali Najik,20.12152028,74.03329213
719,Niphad,0.851188504756,VANASGAON,20.154722,74.149056,Vanasgaon,20.15410668,74.15718384
720,Niphad,1.06748449444,VINCHUR,20.102806,74.2255,Vinchur,20.11167984,74.2215993
721,Niphad,3.98230192575,VINCHUR,20.102806,74.2255,Vitthalwadi,20.1235668,74.19442237
722,Niphad,3.41685172746,VAHEGAON,20.069861,74.280694,Wahegaon,20.0762718,74.31268988
723,Niphad,1.35831203442,VAKAD,20.000806,74.307056,Wakad,19.98895914,74.30388624
724,Niphad,1.89457424122,WAVI,20.208389,74.10025,Wavi,20.20106461,74.08385761
725,Niphad,2.60502207082,VELAPUR,20.147194,74.240444,Welapur,20.1525475,74.26473861
726,Peth,0.942374485065,AAD (B),20.20584,73.59676,Aad Bk.,20.21257519,73.59127837
727,Peth,0.942374485065,AAD (B),20.20584,73.59676,Aad Kh.,20.21257519,73.59127837
728,Peth,1.88450180673,SHEVKHANDI,20.16591,73.51746,Abheti,20.1491251,73.51496342
729,Peth,3.30024460489,ADGAON (B),20.23188,73.45261,Adgaon (Bhuvan),20.25280567,73.43017672
730,Peth,0.914435936746,UMBRAD,20.23405,73.46566,Ambapani,20.22583836,73.46613487
731,Peth,1.86705841451,SHIVSHET,20.36746,73.5247,Amdongra,20.37879929,73.53790994
732,Peth,0.472659592006,AMLOAN,20.13038,73.51096,Amlon,20.13401521,73.51330654
733,Peth,2.19478283908,ANDHRUTE,20.25156,73.48819,Andhrute,20.24801709,73.4674932
734,Peth,1.57120157188,ASARBARI,20.32388,73.58526,Asarbari,20.31378913,73.59580751
735,Peth,2.11588857879,BADGI,20.28413,73.5047,Badagi,20.29976618,73.49313813
736,Peth,4.72419356159,KOTAMBI,20.24867,73.54077,Bardapada,20.27508718,73.57623895
737,Peth,4.18827923623,ADGAON (B),20.23188,73.45261,Belpada,20.26460325,73.43272865
738,Peth,0.995665633667,BHAYGAON,20.20753,73.59638,Bhaygaon,20.19897476,73.59356357
739,Peth,4.7279427442,BHUVAN,20.25913,73.491,Bhuwan,20.23414896,73.45432694
740,Peth,0.838168570185,DHANPADA,20.23953,73.4257,Bilkas,20.23752531,73.41795549
741,Peth,4.01671126336,DHANPADA,20.23953,73.4257,Borpada,20.20464395,73.43568828
742,Peth,1.79498081921,BORVAT,20.25232,73.55045,Borwath,20.26604924,73.55950068
743,Peth,2.52581952286,TONDWAL,20.24277,73.48615,Chafyachapada,20.22006391,73.48683709
744,Peth,1.63673056265,CHOLMUKH,20.17825,73.54537,Cholmukh,20.16448121,73.55091421
745,Peth,1.86642956483,KAPURNE,20.33514,73.50318,Dabhadi,20.34049951,73.52014411
746,Peth,1.76840390944,DEOGAON,20.24985,73.57016,Deogaon,20.23404678,73.57206182
747,Peth,2.135407308,DHANPADA,20.23953,73.4257,Dhanpada,20.22032594,73.42577214
748,Peth,1.45887278333,DHONDMAL,20.28414,73.53091,Dhondmal,20.27308918,73.53844926
749,Peth,3.04418915276,PATE,20.14697,73.57428,Dhulghat,20.14056845,73.60263237
750,Peth,3.95926191555,KARANJKHED,20.38577,73.56367,Diksal,20.39333876,73.5265516
751,Peth,2.53797308863,DOLHARMAL,20.20152,73.5805,Dolharmal,20.18926444,73.55998351
752,Peth,2.57929131267,KOPURLI (KH),20.3302,73.56116,Domkhadak,20.33639649,73.53732139
753,Peth,3.3984249605,DONAWADE,20.14425,73.56281,Donwade,20.13282131,73.59300132
754,Peth,3.41629278153,EKDARE,20.22847,73.54499,Ekadare,20.19917128,73.53513558
755,Peth,1.12700366831,KOPURLI (B),20.31235,73.56385,Fanaspada,20.31196635,73.5746497
756,Peth,4.40091545808,KAPURNE,20.33514,73.50318,Gandole,20.36621173,73.47703271
757,Peth,1.62882605199,GANGODBARI,20.23211,73.59692,Gangodbari,20.23527744,73.61216245
758,Peth,4.33480001228,ADGAON (B),20.23188,73.45261,Gaondhond,20.25458608,73.41883516
759,Peth,2.43583710323,ADGAON (B),20.23188,73.45261,Garmal,20.25278637,73.44563742
760,Peth,3.59055250456,GAVANDHA,20.14665,73.53687,Gawandh,20.17349391,73.51775188
761,Peth,2.16666824521,UMBARPADA (KH),20.27377,73.59479,Gawandhpada,20.26118534,73.57893187
762,Peth,0.264165470299,GHANSHET,20.14505,73.53912,Ghanshet,20.14522115,73.53659607
763,Peth,2.12146562763,GONDE,20.19862,73.58352,Gonde,20.20806441,73.56585598
764,Peth,1.96641399791,HANUMANNAGER,20.18413,73.60159,Hanumannagar,20.18407161,73.62043136
765,Peth,1.27601750228,HANUMANTPADA,20.23266,73.56474,Hanumantpada,20.2272913,73.55393102
766,Peth,2.21225434942,HARANGAON,20.32853,73.5702,Harangaon,20.32540889,73.59115383
767,Peth,1.6535478837,HATRUNDI,20.29921,73.51907,Hatrundi,20.31342857,73.52371413
768,Peth,0.908366828724,KUMBHARBARI,20.25702,73.60103,Inambari,20.26408742,73.59666266
769,Peth,2.30298088138,JALE,20.26818,73.51391,Jale,20.28726932,73.50534474
770,Peth,2.27560809471,BADGI,20.28413,73.5047,Jamale,20.30449234,73.50688315
771,Peth,5.3712896627,JAMBHULMAL,20.25879,73.51469,Jambhulmal,20.21191551,73.52712686
772,Peth,4.53526332038,JAMBVIHIR,20.25023,73.58312,Jambvihir,20.28659677,73.56343477
773,Peth,1.40929149685,JOGMODI,20.33151,73.56841,Jogmodi,20.34133214,73.57695229
774,Peth,3.4299341803,JUNOTHI,20.26891,73.51466,Junothi,20.29774059,73.52635233
775,Peth,3.36619139552,KAHANDOLPADA,20.23642,73.48882,Kahandolpada,20.20791914,73.49969571
776,Peth,1.06143479346,MALEGAON,20.34286,73.55566,Kakadpada,20.35188,73.55899205
777,Peth,0.453623085815,KALAMBARI,20.36255,73.56873,Kalambari,20.36410727,73.57275196
778,Peth,1.7309553282,RAJBARI,20.29821,73.43567,Kalampada,20.28285781,73.43292327
779,Peth,2.20914476799,MALEGAON,20.34286,73.55566,Kalune,20.34589477,73.53471957
780,Peth,2.44942712635,KAPURNE,20.33514,73.50318,Kapurne,20.35070731,73.48655796
781,Peth,0.238946933974,KARANJALI,20.25023,73.58312,Karanjali,20.25003444,73.58083903
782,Peth,1.41840601151,KARANJKHED,20.38577,73.56367,Karanjkhed,20.38498538,73.55008746
783,Peth,3.86150933593,TONDWAL,20.24277,73.48615,Kasatvihir,20.21613952,73.5099045
784,Peth,4.60193736836,KAYRE,20.29773,73.45904,Kayare,20.33293876,73.43584488
785,Peth,2.0590900382,RANVIHIR,20.26393,73.46295,Kelvihir,20.27965564,73.47337394
786,Peth,4.4031302287,DHANPADA,20.23953,73.4257,Khamshet,20.20002874,73.4227475
787,Peth,1.72310828202,KHOKARTALE,20.25929,73.49679,Khokartale,20.25933866,73.4802719
788,Peth,0.179936642472,KOHOR,20.18009,73.59254,Kohor,20.17865968,73.59334632
789,Peth,0.209491552929,KOPURLI (B),20.31235,73.56385,Kopurli Bk.,20.31288832,73.56192482
790,Peth,1.37433853423,KOPURLI (KH),20.3302,73.56116,Kopurli Kh.,20.32435487,73.54954652
791,Peth,0.787356832562,KOTAMBI,20.24867,73.54077,Kotambi,20.24999306,73.54818441
792,Peth,2.16207158253,KULWANDI,20.13847,73.53574,Kulwandi,20.13478934,73.55607545
793,Peth,1.47754848412,KUMBHALE,20.2906,73.45943,Kumbhale,20.30262596,73.46545615
794,Peth,1.53838238257,KUMBHARBARI,20.25702,73.60103,Kumbharbari,20.26935064,73.60771787
795,Peth,3.10808584948,RANVIHIR,20.26393,73.46295,Lavhali,20.28430536,73.44255139
796,Peth,1.70156660212,LINGAWANE,20.1829,73.60944,Lingawane,20.19465523,73.61987841
797,Peth,1.89802871216,MALEGAON,20.34286,73.55566,Malegaon,20.35952132,73.55170298
798,Peth,1.66718201277,MANGONE,20.26616,73.59615,Mangone,20.28079487,73.59962413
799,Peth,3.73509041313,MANKAPUR,20.1771,73.54347,Mankapur,20.18802646,73.50962836
800,Peth,0.81547779882,MHASGAN,20.35993,73.53651,Mhasgan,20.35853274,73.52883085
801,Peth,1.78647494449,SHIVSHET,20.36746,73.5247,Mohadand,20.38281801,73.51966786
802,Peth,1.06336351355,TIRDE,20.29885,73.5499,Mohpada,20.30433123,73.54154462
803,Peth,2.61907388871,CHOLMUKH,20.17825,73.54537,Murmuti,20.1615961,73.56311454
804,Peth,2.15071656234,NACHALONDHI,20.1553,73.49279,Nachlondhi,20.15735591,73.47230301
805,Peth,0.698822394201,RAJBARI,20.29821,73.43567,Nalshet,20.29751714,73.42901008
806,Peth,1.25873681347,NIRGUDE,20.23685,73.59087,Nirgude Karanjali,20.22781851,73.5835965
807,Peth,2.06189586978,GAVANDHA,20.14665,73.53687,Palashi Bk.,20.16480195,73.53283441
808,Peth,3.63579879872,BADGI,20.28413,73.5047,Palashi Kh.,20.31330655,73.48896268
809,Peth,4.16382207788,JAMBVIHIR,20.25023,73.58312,Patali,20.28767572,73.58292835
810,Peth,1.32345584934,PATE,20.14697,73.57428,Pate,20.14546993,73.5868567
811,Peth,0.580655799974,UMBARPADA (KH),20.27377,73.59479,Pawarpada,20.2727565,73.58932903
812,Peth,1.53743210449,PETH,20.25776,73.50381,Peint,20.26218701,73.51777241
813,Peth,1.30687181648,PATE,20.14697,73.57428,Phanaspada,20.1531827,73.58490717
814,Peth,1.15154605544,JOGMODI,20.33151,73.56841,Pimpalpada,20.34021954,73.56243464
815,Peth,4.40289176061,PIMPALWATI,20.16591,73.51746,Pimpalwati,20.18611381,73.48117996
816,Peth,5.63274032962,SHINGADARI,20.20152,73.5805,Raitale,20.18559201,73.52926342
817,Peth,0.327979146498,RAJBARI,20.29821,73.43567,Rajbari,20.29855061,73.43879385
818,Peth,2.58922510826,RANVIHIR,20.26393,73.46295,Ranvihir,20.27205442,73.43968749
819,Peth,2.18615110163,RUIPETHA,20.18009,73.59254,Ruipetha,20.17262533,73.57316259
820,Peth,1.81203336679,RANVIHIR,20.26393,73.46295,Sadadpada,20.27940242,73.45749717
821,Peth,5.58765181688,SURGANE,20.31395,73.52384,Sadadpada,20.35188,73.55899205
822,Peth,1.83567014283,SAVALGHAT,20.25476,73.59655,Sambarpada,20.23825222,73.59672303
823,Peth,2.00947025505,KULWANDI,20.13847,73.53574,Sasune,20.12042934,73.5368658
824,Peth,1.27185877882,SAVALGHAT,20.25476,73.59655,Savalghat,20.25616333,73.60864997
825,Peth,2.22196707464,SHEVKHANDI,20.16591,73.51746,Shevkhandi,20.15929531,73.49737296
826,Peth,1.20380917709,SHINDE,20.22641,73.59916,Shinde,20.22345535,73.61025949
827,Peth,4.29493950325,SHINGADARI,20.20152,73.5805,Shingdari,20.17919943,73.54691299
828,Peth,1.17070431158,JALE,20.26818,73.51391,Shirale,20.27336682,73.50414299
829,Peth,0.351775817653,SHIVSHET,20.36746,73.5247,Shivshet,20.36876004,73.52162351
830,Peth,1.60512591914,SURGANE,20.31395,73.52384,Surgane,20.32597744,73.51532799
831,Peth,1.63845832779,SAVALGHAT,20.25476,73.59655,Tilbhat,20.24588136,73.60908445
832,Peth,1.14791378533,TIRDE,20.29885,73.5499,Tirdhe,20.28979834,73.54460751
833,Peth,1.06574821998,TONDWAL,20.24277,73.48615,Tondawal,20.23512014,73.49230426
834,Peth,2.67664883319,KARANJKHED,20.38577,73.56367,Toranmal,20.39169823,73.5387804
835,Peth,3.28880260591,MANGONE,20.26616,73.59615,Ubhidhond,20.29570398,73.59466243
836,Peth,2.85768792444,ADGAON (B),20.23188,73.45261,Umarpada (N.V.),20.24162073,73.42726306
837,Peth,1.51413259041,UMBERDAHAD,20.13506,73.57337,Umbardahad,20.12423611,73.58216972
838,Peth,1.94051541743,UMBARPADA (KH),20.27377,73.59479,Umbarpada Karanjali,20.27508718,73.57623895
839,Peth,2.63716304061,UMBRAD,20.23405,73.46566,Umbrad,20.21109628,73.47201878
840,Peth,2.42109851737,USTHALE,20.2275,73.55056,Usthale,20.23257684,73.52799467
841,Peth,2.50673641259,JOGMODI,20.33151,73.56841,Vadabari,20.34011963,73.59062972
842,Peth,3.1097978384,GAVANDHA,20.14665,73.53687,Vardapada,20.16337757,73.5129949
843,Peth,2.55420606865,RUIPETHA,20.18009,73.59254,Waghyachibari,20.15985217,73.58096383
844,Peth,0.965821305491,WANGANI,20.27295,73.47951,Wangani,20.27720319,73.48758349
845,Peth,5.52358446477,PAHUCHIBARI,20.33151,73.56841,Wirmal,20.38115161,73.56647382
846,Sinnar,4.74629921939,ADWADI,19.6946,73.93464,Adwadi,19.73704476,73.92984111
847,Sinnar,1.34750922046,AGASKHIND,19.81466,73.83279,Agas Khind,19.81015023,73.84474574
848,Sinnar,0.853805684389,ASHAPUR,19.7001,73.95885,Ashapur,19.69998615,73.95069508
849,Sinnar,1.67511342639,ATKAWADE,19.79402,73.98317,Atkawade,19.80277609,73.99619879
850,Sinnar,2.89677267121,AUNDHEWADI,19.75961,73.87811,Aundhewadi,19.76292529,73.85065359
851,Sinnar,2.2109343361,BARAGAON PIMPRI,19.90312,74.05601,Baragaon Pimpri,19.9077319,74.0765801
852,Sinnar,3.81881790488,BHARATPUR,19.86512,74.28335,Bharatpur,19.88081988,74.315829
853,Sinnar,1.38114518298,BHOKANI,19.82887,74.15587,Bhokani,19.81658622,74.15391329
854,Sinnar,0.599767378554,BORKHIND,19.8052,73.86607,Borkhind,19.8000303,73.86770544
855,Sinnar,1.41796134578,CHANDRAPUR KH.,19.84788,73.92504,Chandrapur,19.83521188,73.92348732
856,Sinnar,0.318491223982,CHAPADGAON,19.70635,74.04606,Chapadgaon,19.70915135,74.04542584
857,Sinnar,2.05883304981,CHASS,19.67725,74.08943,Chas,19.69571853,74.08802972
858,Sinnar,1.73822564426,CHINCHOLI,19.89663,73.91013,Chincholi,19.88597327,73.92229244
859,Sinnar,4.67171325341,CHONDHI,19.91521,74.16874,Chondhi,19.95118558,74.19182339
860,Sinnar,2.59136354038,DAHIWADI,19.90504,74.25456,Dahiwadi,19.92506609,74.26723719
861,Sinnar,0.38665323762,DAPUR,19.73971,74.05364,Dapur,19.74026351,74.04999275
862,Sinnar,2.4907687828,DATALI,19.83616,74.09132,Datli,19.81403386,74.09503213
863,Sinnar,2.99508603671,DATTANAGAR (DAPUR),19.76717,74.08183,Dattanagar,19.76210141,74.05371975
864,Sinnar,2.07063169638,DEOPUR,19.86657,74.15395,Deopur,19.86747334,74.17372675
865,Sinnar,4.33350157553,DESHWANDI,19.93176,73.97491,Deshwandi,19.91595281,74.01280032
866,Sinnar,1.73496879289,DHARANGAON,19.85074,74.15613,Dharangaon,19.83976961,74.16792567
867,Sinnar,4.40781784202,DHONDBAR,19.77701,73.91711,Dhondbar,19.76466569,73.87708101
868,Sinnar,3.31756283929,DHONDVIRNAGAR,19.80431,74.00682,Dhondvirnagar,19.80236119,74.03846319
869,Sinnar,2.2163237392,DHULWAD,19.70463,74.00436,Dhulwad,19.72093243,74.01654171
870,Sinnar,0.638460110024,DODI BK.,19.74563,74.11462,Dodi Bk.,19.75013857,74.11839761
871,Sinnar,0.638460110024,DODI KH.,19.74563,74.11462,Dodi Kh.,19.75013857,74.11839761
872,Sinnar,0.564530317751,DUBERE,19.77888,73.9739,Dubere,19.77472508,73.9770004
873,Sinnar,3.61775648688,DUSINGPUR,19.80097,74.24669,Dusangwadi,19.8012603,74.28126845
874,Sinnar,4.11055303687,KIRTANGALI,19.92032,74.1646,Eklahare,19.88727916,74.14696757
875,Sinnar,0.693129501322,PHARDAPUR,19.8526,74.15251,Fardapur,19.85413566,74.1460869
876,Sinnar,5.07313115638,NIRHALE FATTEPUR,19.78092,74.18105,Fattepur,19.74364628,74.20900617
877,Sinnar,0.845399130353,FULENAGAR,19.78824,74.21944,Fulenagar,19.79131384,74.22683023
878,Sinnar,3.1066936565,GHORWAD,19.82406,73.86867,Ghorwad,19.82231678,73.89831116
879,Sinnar,4.39582947888,GHOTEWADI,19.80097,74.24669,Ghotewadi,19.76225173,74.23820656
880,Sinnar,0.850988545249,GONDE,19.78061,74.0582,Gonde,19.78817365,74.05944003
881,Sinnar,2.05020973925,MARHAL BK.,19.78092,74.18105,Gulapur,19.77386231,74.19915146
882,Sinnar,3.6024447058,GULWANCH,19.91018,74.08449,Gulvanch,19.88143988,74.1003927
883,Sinnar,4.87795139367,BHATWADI,19.8397,73.994,Gurewadi,19.82015131,74.03574749
884,Sinnar,2.99421070267,HARSULE,19.79123,73.94859,Harsule,19.81743973,73.9551544
885,Sinnar,2.08281259249,HIVARE,19.70149,73.96357,Hivare,19.71063981,73.98093112
886,Sinnar,3.30028512522,HIVARGOAN,19.93206,74.09415,Hiwargaon,19.95538517,74.11367437
887,Sinnar,2.09516695435,JAMGAON,19.85012,73.94031,Jamgaon,19.85181654,73.92035872
888,Sinnar,3.25193238233,SONARI,19.791,73.94861,Jayprakashnagar,19.7618359,73.95092474
889,Sinnar,1.06180609487,JOGALTEMBHI,19.95461,73.96573,Jogaltembhi,19.96231721,73.9597321
890,Sinnar,3.57716794954,SHIVAJINAGAR (KAHANDALWADI),19.80097,74.24669,Kahandalwadi,19.77257392,74.26275776
891,Sinnar,1.45719276572,KANKORI,19.7545,74.16577,Kankori,19.75259997,74.17954709
892,Sinnar,1.55459367111,KARWADI,19.86598,74.28439,Karwadi,19.87992266,74.28329271
893,Sinnar,1.46313239917,KASARWADI,19.67725,74.08943,Kasarwadi,19.66553419,74.08306878
894,Sinnar,1.45973722569,DATALI,19.83616,74.09132,Kedarpur,19.8490523,74.09395129
895,Sinnar,4.55866608886,KE. PA. NAGAR,19.91284,74.0821,Keru Patilnagar,19.93878104,74.11586773
896,Sinnar,1.86911514331,KHADANGALI,19.91521,74.16874,Khadangali,19.91797192,74.1863757
897,Sinnar,5.7114542265,KHAMBALE,19.83616,74.09132,Khambale,19.79576587,74.12504404
898,Sinnar,2.99956303079,CHANDRAPUR KH.,19.84788,73.92504,Khaparale,19.82090922,73.9244913
899,Sinnar,1.97640923275,KHOPADI KH.,19.83929,74.10804,Khopadi Bk.,19.83048182,74.12445194
900,Sinnar,1.97640923275,KHOPADI KH.,19.83929,74.10804,Khopadi Kh.,19.83048182,74.12445194
901,Sinnar,2.0865541049,KIRTANGALI,19.92032,74.1646,Kirtangali,19.90638846,74.15122952
902,Sinnar,4.09151042339,KOLGAONMAL,19.8275,74.33807,Kolgaonmal,19.86272036,74.34939426
903,Sinnar,3.54853710952,KOMALWADI,19.92032,74.1646,Komalwadi,19.94799489,74.14769618
904,Sinnar,0.691549785464,KONAMBE,19.79111,73.93735,Konambe,19.78489403,73.93756485
905,Sinnar,2.62895318176,DUBEREWADI (KRUSHNANAGAR),19.76535,73.97029,Krishnanagar,19.74179256,73.97242204
906,Sinnar,1.74738643069,KUNDEWADI,19.84462,74.02264,Kundewadi,19.83327229,74.03419691
907,Sinnar,4.28475003728,BHARATPUR,19.86512,74.28335,Laxmanpur,19.86579595,74.32431548
908,Sinnar,2.16150024383,DAHIWADI,19.90504,74.25456,Mahajanpur,19.92424536,74.25136519
909,Sinnar,2.7229362443,MALDHON,19.79333,74.26974,Maldhon,19.79400101,74.29575582
910,Sinnar,0.601751443099,MALEGAON,19.87484,73.97604,Malegaon,19.87924686,73.97937998
911,Sinnar,2.94381515758,MANEGAON,19.80916,73.98713,Manegaon,19.8045469,74.01483859
912,Sinnar,0.442685383684,MANORI,19.74113,74.15372,Manori,19.74318277,74.15734415
913,Sinnar,3.139408641,MALEGAON,19.87484,73.97604,Maparwadi,19.87985214,74.00558515
914,Sinnar,0.87078873713,MARHAL BK.,19.78092,74.18105,Marhal Bk.,19.78482347,74.1738352
915,Sinnar,0.87078873713,MARHAL KH.,19.78092,74.18105,Marhal Kh.,19.78482347,74.1738352
916,Sinnar,3.58024864431,MENDHI,19.91521,74.16874,Mendhi,19.93444979,74.19620122
917,Sinnar,3.78867044508,MIRGAON,19.86512,74.28335,Mirgaon,19.83784591,74.30506196
918,Sinnar,5.06723008744,MITHSAGARE,19.80302,74.24801,Mith-Sagare,19.84750234,74.23748629
919,Sinnar,1.27569623158,MUSALGAON,19.84039,74.05596,Musalgaon,19.83489989,74.06666921
920,Sinnar,1.80098236778,NAIGAON,19.95284,73.96748,Naigaon,19.95045421,73.98452284
921,Sinnar,3.22555702213,NALWADI,19.67725,74.08943,Nalwadi,19.6663318,74.11797072
922,Sinnar,0.925175597116,NANDUR SHINGOTE,19.72251,74.13576,Nandur Shingote,19.71420169,74.13623441
923,Sinnar,3.72496471569,NIRHALE FATTEPUR,19.78092,74.18105,Nirhale,19.76035584,74.20915122
924,Sinnar,1.76112940049,PADALI,19.69615,73.95741,Padali,19.6842615,73.94629527
925,Sinnar,0.983065860844,PANCHALE,19.87715,74.21815,Panchale,19.86990323,74.21276509
926,Sinnar,0.407741487276,PANDHURLI,19.82895,73.85474,Pandhurli,19.83165143,73.85737592
927,Sinnar,0.818503738659,PANGARI BK,19.81859,74.20145,Pangari Bk,19.82433687,74.19656059
928,Sinnar,4.88447508453,PANGARI KH.,19.86694,74.20794,Pangari Kh,19.82433687,74.19656059
929,Sinnar,0.969520054603,PASTE,19.85012,73.94031,Paste,19.85123955,73.94950318
930,Sinnar,1.62585756288,PATHARE BK.,19.8275,74.33807,Pathare Bk.,19.84197995,74.33591095
931,Sinnar,1.62585756288,PATHARE KH.,19.8275,74.33807,Pathare Kh.,19.84197995,74.33591095
932,Sinnar,2.6217859367,PATOLE,19.79286,73.98598,Patole,19.77914204,74.00636006
933,Sinnar,1.49582522292,PATPIMPRI,19.90812,74.05991,Patpimpri,19.92155821,74.05925579
934,Sinnar,1.67109740184,PIMPALE,19.70143,73.98042,Pimpale,19.7031063,73.99628345
935,Sinnar,1.80407646153,PIMPARWADI,19.83787,74.26472,Pimparwadi,19.82732713,74.27782966
936,Sinnar,2.281112962,RAMNAGAR,19.78063,73.99873,Ramnagar,19.76639948,74.01443213
937,Sinnar,2.78073080608,RAMPUR,19.86615,74.25546,Rampur,19.88727475,74.26969181
938,Sinnar,1.31812527357,SANGAVI,19.94915,74.25188,Sangavi,19.94291449,74.24115498
939,Sinnar,0.796851036816,SARADWADI,19.84974,73.9666,Saradwadi,19.85037908,73.97418858
940,Sinnar,2.57885363449,SAVATAMALI NAGAR,19.8277,73.85662,Sawatamalinagar,19.8321582,73.88081429
941,Sinnar,2.69632376316,SAYALE,19.7919,74.29465,Sayale,19.79533803,74.32016088
942,Sinnar,0.952915608303,SHAHA,19.86512,74.28335,Shaha,19.85657905,74.28260328
943,Sinnar,1.58883309995,SHASTRINAGAR,19.83191,73.98493,Shastrinagar,19.82443868,73.97198263
944,Sinnar,2.91021212527,SHIVADE,19.8052,73.86607,Shivade,19.79555324,73.89192823
945,Sinnar,0.283331448824,SHIVAJI NAGAR (DAPUR),19.77263,74.08662,Shivajinagar,19.77175898,74.08407542
946,Sinnar,1.29674110865,SHRIRAMPUR( SHINDEWADI),19.87153,74.2349,Shrirampur,19.8817508,74.24087129
947,Sinnar,0.866757654522,SOMTHANE,19.94812,74.21642,Somthane,19.94069943,74.21895895
948,Sinnar,0.691549785464,SONAMBE,19.79111,73.93735,Sonambe,19.78489403,73.93756485
949,Sinnar,1.05247512989,SONARI,19.791,73.94861,Sonari,19.78684771,73.95764954
950,Sinnar,2.27217126775,SONGIRI,19.95461,73.96573,Songiri,19.94016261,73.95035688
951,Sinnar,1.4720599382,SULEWADI,19.90312,74.05601,Sundarpur,19.89279195,74.04720223
952,Sinnar,2.74724742466,SUREGAON,19.78092,74.18105,Suregaon,19.77582183,74.15535962
953,Sinnar,1.66396523138,THANGAON,19.69645,73.93137,Thangaon,19.71140357,73.93076541
954,Sinnar,3.52525324352,UJJANI,19.87776,74.23524,Ujjani,19.90180458,74.25721381
955,Sinnar,1.56514524873,VADANGALI,19.92032,74.1646,Vadangali,19.93348032,74.15928892
956,Sinnar,1.51425771935,VINCHUR DALAVI,19.85502,73.85565,Vinchur Dalvi,19.85160907,73.86966706
957,Sinnar,3.11944729783,VADZIRE,19.8792,73.97079,Wadzire,19.90724229,73.96993312
958,Sinnar,0.91654005695,VAREGAON,19.8275,74.33807,Waregaon,19.82009705,74.33421711
959,Surgana,2.26042958425,MALGAWHAN,20.55783,73.63377,Ahmadgavhan,20.53764426,73.63120136
960,Surgana,3.61353943262,ALANGUN,20.54594,73.58478,Alangun,20.54781158,73.55013251
961,Surgana,1.43700617918,BARHE,20.439,73.52533,Alivdand,20.42963869,73.53483771
962,Surgana,2.45147423721,PRATAPGAD,20.55783,73.63377,Alivpada,20.55506612,73.65713012
963,Surgana,3.20861874476,AMBATHA,20.56704,73.57758,Ambatha,20.58264683,73.55165531
964,Surgana,1.57029431578,HASTE,20.42754,73.56171,Ambepada,20.42088594,73.57500168
965,Surgana,1.59550870534,AMBODE,20.42878,73.47824,Ambode,20.43643567,73.4652894
966,Surgana,1.2928087427,AMBODE,20.42878,73.47824,Ambupada,20.41992805,73.48628348
967,Surgana,3.22973985988,PALSAN,20.52317,73.54567,Amdapalsan,20.49719974,73.5317819
968,Surgana,1.65098862511,DOLHARE,20.58747,73.56639,Amzar,20.5984066,73.57711762
969,Surgana,4.83970770007,BHAWADA,20.5007,73.5369,Awalpada,20.50626969,73.49081378
970,Surgana,3.04632275338,KATHIPADA,20.5739,73.5412,Baflun,20.54781158,73.55013251
971,Surgana,1.25874793703,BARHE,20.439,73.52533,Barhe,20.42901194,73.51964444
972,Surgana,2.09752082067,BEDASE,20.44378,73.50207,Bedse,20.43219053,73.48618681
973,Surgana,5.58228070514,BHAWADA,20.5007,73.5369,Bendwal,20.49844001,73.48335766
974,Surgana,2.92593233298,BHADAR,20.55802,73.63506,Bhadar,20.57975813,73.61922284
975,Surgana,3.32337317297,BHAVANDAGAD,20.55295,73.61324,Bhavandagad,20.58019532,73.60011642
976,Surgana,3.05748722919,KALAMNE,20.41567,73.5619,Bhegu,20.41531565,73.53256291
977,Surgana,4.9807570078,KHIRDI,20.42878,73.47824,Bhenshet,20.40519089,73.43760905
978,Surgana,1.4497958527,ROKADPADA,20.49792,73.66051,Bhintghar,20.49673491,73.64664802
979,Surgana,2.01799434947,BHORMAL,20.55647,73.59164,Bhormal,20.57041336,73.57923302
980,Surgana,2.60692894576,RONGANE,20.43148,73.5631,Bijurpada,20.45175543,73.5756622
981,Surgana,5.98483655856,BIWAL,20.52657,73.67449,Bival,20.50090197,73.62397886
982,Surgana,1.25184159604,BUBALI,20.52657,73.67449,Bubli,20.53009823,73.66307415
983,Surgana,4.09292616183,CHIKADI,20.46587,73.67345,Chikadi,20.45512144,73.63587529
984,Surgana,2.3086199724,CHINCHPADA,20.63012,73.45424,Chinchpada,20.62701855,73.47617537
985,Surgana,2.67506861788,NAGSHEVADI,20.515111,73.71619,Chirai,20.52287109,73.69187588
986,Surgana,2.77883702186,DANGRALE,20.4618,73.7226,Dangrale,20.45755338,73.69631465
987,Surgana,0.94949521999,KUKUDNE,20.64507,73.44324,Deshmukh Nagar,20.65255047,73.43883937
988,Surgana,4.40375046713,BHADAR,20.55802,73.63506,Devaldari,20.59433508,73.61818194
989,Surgana,0.960211481458,MHAISKHADAK,20.56881,73.52003,Dodichapada,20.56092475,73.51627006
990,Surgana,2.09658437224,DOLHARE,20.58747,73.56639,Dolhare,20.60379294,73.5563077
991,Surgana,3.6397464407,BHAWADA,20.5007,73.5369,Dudhawal,20.49095687,73.5035388
992,Surgana,1.8987642436,BARHE,20.439,73.52533,Gadga,20.43983921,73.54353128
993,Surgana,4.25771817306,BHAWADA,20.5007,73.5369,Gahale,20.47593847,73.50572096
994,Surgana,4.55884074425,KHUNTVIHIR,20.601,73.55219,Galbari,20.61297402,73.51029853
995,Surgana,5.10379132508,RONGANE,20.43148,73.5631,Galwad,20.47635368,73.57339902
996,Surgana,3.96350056412,KHOBALAMA,20.5012,73.6073,Ganeshnagar,20.5257669,73.579725
997,Surgana,3.16016812623,UMBERPADA(D),20.45457,73.75702,Ghagbari,20.45579925,73.78732429
998,Surgana,1.12147344808,GHODAMBE,20.50599,73.75308,Ghodambe,20.51110321,73.74379831
999,Surgana,3.94819360288,GONDUNE,20.64387,73.45379,Gondune,20.67893742,73.45974242
1000,Surgana,1.74767053602,BARHE,20.439,73.52533,Gopalpur,20.45273501,73.51717567
1001,Surgana,2.01764672197,CHINCHPADA,20.63012,73.45424,Guhijambhulpada,20.61524053,73.44314402
1002,Surgana,1.22068779988,BARHE,20.439,73.52533,Gurtembhi,20.43497837,73.51442912
1003,Surgana,4.99763249859,GONDUNE,20.64387,73.45379,Hadkaichond,20.6817452,73.47965071
1004,Surgana,3.15841777011,MANI,20.5408,73.62984,Hanumantmal,20.52724094,73.60318748
1005,Surgana,0.242734141211,HASTE,20.42754,73.56171,Haste,20.42671935,73.56386857
1006,Surgana,3.26278119836,HATGAD,20.51903,73.75298,Hatgad,20.54828513,73.75540166
1007,Surgana,2.3406463079,HATRUNDI,20.54718,73.55289,Hatrundi,20.52614534,73.55374627
1008,Surgana,2.36849096207,HATTI,20.52657,73.67449,Hatti (B),20.54108231,73.69113941
1009,Surgana,0.54664486309,BARHE,20.439,73.52533,Hatti Bk.,20.43957694,73.53054014
1010,Surgana,3.4021947637,HEMADPADA,20.4036,73.56886,Hemadpada,20.42496146,73.59223331
1011,Surgana,1.48941173218,JAHULE,20.4036,73.56886,Jahule,20.41289669,73.55857122
1012,Surgana,1.88280301386,RONGANE,20.43148,73.5631,Jambhulpada,20.43799216,73.57977974
1013,Surgana,3.26797907894,BHAWADA,20.5007,73.5369,Kahandolsa,20.47888826,73.51587196
1014,Surgana,4.44404457175,KALAMNE,20.41567,73.5619,Kalmane,20.40302946,73.52144588
1015,Surgana,1.31637718377,BHADAR,20.55802,73.63506,Karanjali,20.56714782,73.64311169
1016,Surgana,4.13656534747,CHINCHPADA,20.63012,73.45424,Karanjul(kelwan),20.61112857,73.48841783
1017,Surgana,5.96878312534,KARANJUL  SU,20.57163,73.59704,Karanjul Surgana,20.62514502,73.59256716
1018,Surgana,3.57659232603,HATTI,20.52657,73.67449,Karwande,20.55790347,73.68225016
1019,Surgana,2.5702893621,BEDASE,20.44378,73.50207,Katambi,20.42098029,73.50613133
1020,Surgana,0.98134649192,KATHIPADA,20.5739,73.5412,Kathipada,20.57868572,73.53327948
1021,Surgana,3.59945288074,AMBODE,20.42878,73.47824,Kelavan,20.41300354,73.44807857
1022,Surgana,4.34357389802,PALSAN,20.52317,73.54567,Khadakmal,20.48612113,73.55888789
1023,Surgana,5.72386336875,KALAMNE,20.41567,73.5619,Khiramani,20.4059306,73.50796775
1024,Surgana,2.47903988872,KHOBALAMA,20.5012,73.6073,Khobala Mani,20.51301576,73.58711491
1025,Surgana,1.19051446344,KHOKARI,20.55954,73.60207,Khokari,20.54883567,73.60230304
1026,Surgana,4.07723429497,AMBODE,20.42878,73.47824,Khokarvihir,20.39381319,73.46646318
1027,Surgana,2.7405235976,KHUNTVIHIR,20.601,73.55219,Khuntavihir,20.62519175,73.54715711
1028,Surgana,1.47784342319,KOTHULA,20.58747,73.56639,Kothule,20.57642629,73.55849155
1029,Surgana,3.00296423647,KUKUDMUNDHA,20.48722,73.5947,Kukudmunda,20.50174168,73.57039168
1030,Surgana,2.20686573092,KUKUDNE,20.64507,73.44324,Kukudne,20.66335343,73.43498875
1031,Surgana,3.70289145217,RONGANE,20.43148,73.5631,Mahismal,20.46476946,73.56403162
1032,Surgana,3.49392231757,MALEGAON,20.46587,73.67345,Malegaon,20.4840274,73.64607647
1033,Surgana,2.26042958425,MALGAWHAN,20.55783,73.63377,Malgavhan,20.53764426,73.63120136
1034,Surgana,4.44448353079,KHUNTVIHIR,20.601,73.55219,Malgonde,20.63632313,73.57217562
1035,Surgana,3.69095104831,MANI,20.5408,73.62984,Mani,20.51342068,73.60980113
1036,Surgana,5.91611712898,PALSAN,20.52317,73.54567,Merdand,20.46997055,73.54485556
1037,Surgana,3.43934846098,MHAISKHADAK,20.56881,73.52003,Mhaiskhadak,20.5542213,73.49090005
1038,Surgana,3.91760710752,KHUNTVIHIR,20.601,73.55219,Mohapada,20.63089913,73.53227814
1039,Surgana,5.86888137217,MANI,20.5408,73.62984,Morchonda,20.50231304,73.59127488
1040,Surgana,1.45111721902,NAGSHEVADI,20.515111,73.71619,Nagshewadi,20.52783484,73.71928685
1041,Surgana,1.65547965758,BHADAR,20.55802,73.63506,Nawapur,20.57031253,73.62608903
1042,Surgana,4.30526403482,UMBERTHAN,20.57043,73.50082,Nimbarpada,20.59022181,73.46527414
1043,Surgana,4.32374400016,PALSAN,20.52317,73.54567,Palashet,20.48489628,73.53834161
1044,Surgana,3.22973985988,PALSAN,20.52317,73.54567,Palsan,20.49719974,73.5317819
1045,Surgana,5.76682604417,BHADAR,20.55802,73.63506,Palvihir,20.55756227,73.57967255
1046,Surgana,2.88029526892,GONDUNE,20.64387,73.45379,Pangarne,20.66268339,73.47281818
1047,Surgana,1.716835355,PALSAN,20.52317,73.54567,Patali,20.52582711,73.52942958
1048,Surgana,2.42210560966,PALSAN,20.52317,73.54567,Payarpada,20.51241244,73.5254463
1049,Surgana,2.88263585905,MALEGAON,20.46587,73.67345,Pilukpada,20.44235083,73.66181159
1050,Surgana,4.85798255709,BHAWADA,20.5007,73.5369,Pimpalsond,20.46714572,73.5070324
1051,Surgana,2.4513102957,POHALI,20.50845,73.75433,Pohali,20.52679089,73.74127041
1052,Surgana,2.76727190337,RAGATVIHIR,20.64837,73.44204,Raghatvihir,20.64380485,73.41589659
1053,Surgana,2.18525518894,RAHUDE,20.45945,73.75014,Rahude,20.45423061,73.72991801
1054,Surgana,2.28212357181,GONDUNE,20.64387,73.45379,Ranjune,20.66409992,73.45009263
1055,Surgana,3.13746639765,KHUNTVIHIR,20.601,73.55219,Ranvihir,20.61621022,73.52679996
1056,Surgana,2.64923705618,RASHA,20.57698,73.48892,Rasha,20.59682421,73.47483551
1057,Surgana,3.4475286209,ROKADPADA,20.49792,73.66051,Rokadpada,20.46802827,73.66929691
1058,Surgana,3.96482709462,RONGANE,20.43148,73.5631,Ronghane,20.46438047,73.57777022
1059,Surgana,3.14718170487,GHODAMBE,20.50599,73.75308,Roti,20.5062842,73.72286357
1060,Surgana,5.53101601969,HEMADPADA,20.4036,73.56886,Sadudne,20.43142866,73.61285237
1061,Surgana,2.72225465024,SAJOLE,20.50599,73.75308,Sajole,20.52410052,73.77066875
1062,Surgana,3.07753894516,MALEGAON,20.46587,73.67345,Salbhoye,20.46834743,73.64402673
1063,Surgana,1.87526997682,RONGANE,20.43148,73.5631,Sambarkhal,20.44779615,73.55854701
1064,Surgana,1.86253060504,SARAD,20.46909,73.74963,Sanjaynagar,20.452711,73.75337262
1065,Surgana,0.774562711847,SARAD,20.46909,73.74963,Sarad,20.47416157,73.75472701
1066,Surgana,4.22210656055,AMBODE,20.42878,73.47824,Sarmal,20.44233185,73.44038822
1067,Surgana,2.40208624548,AMBATHA,20.56704,73.57758,Satkhamb,20.58668075,73.58718786
1068,Surgana,2.28445658683,KALAMNE,20.41567,73.5619,Sayalpada,20.40708863,73.54198288
1069,Surgana,4.90557338783,SHINDE,20.52657,73.67449,Shinde,20.48983503,73.70057345
1070,Surgana,5.35924864246,HATTI,20.52657,73.67449,Shribhuvan,20.56013828,73.71142354
1071,Surgana,1.08634080608,GONDUNE,20.64387,73.45379,Songir,20.64822292,73.46313665
1072,Surgana,2.70021738027,DOLHARE,20.58747,73.56639,Subhashnagar,20.59523968,73.54181271
1073,Surgana,1.30210211592,JAHULE,20.4036,73.56886,Suktale,20.41064603,73.57883937
1074,Surgana,4.6310440474,BHAWADA,20.5007,73.5369,Sule,20.52838676,73.50368068
1075,Surgana,0.952479433733,GONDUNE,20.64387,73.45379,Sundarban,20.63858867,73.46099661
1076,Surgana,0.749508456896,SURGANA,20.55783,73.63377,Surgana,20.55191923,73.6372302
1077,Surgana,3.70409893569,PRATAPGAD,20.55783,73.63377,Suryagad,20.53959854,73.60399571
1078,Surgana,2.32118072131,BHADAR,20.55802,73.63506,Talpada,20.55506612,73.65713012
1079,Surgana,2.3094607841,JAHULE,20.4036,73.56886,Tapupada,20.41261679,73.58882316
1080,Surgana,4.73882652152,THANGAON,20.43,73.52533,Thangaon,20.45322601,73.48719654
1081,Surgana,5.78957781992,ALANGUN,20.54594,73.58478,Torandongri,20.54772121,73.5292084
1082,Surgana,2.77386827899,KHUNTVIHIR,20.601,73.55219,Udaldari,20.61862931,73.57104648
1083,Surgana,3.06365594778,GONDUNE,20.64387,73.45379,Udmal,20.65384965,73.48123428
1084,Surgana,2.16649258504,PALSAN,20.52317,73.54567,Umbarde (M),20.50382352,73.54813491
1085,Surgana,0.894396586802,KHOKARI,20.55954,73.60207,Umbarpada,20.56685952,73.605632
1086,Surgana,1.45305400781,UMBERPADA(D),20.45457,73.75702,Umbarpada Digar,20.45453145,73.77096693
1087,Surgana,1.04387365065,UMBERTHAN,20.57043,73.50082,Umbarthan,20.57945714,73.50357263
1088,Surgana,4.1902304473,KHIRDI,20.42878,73.47824,Undohal,20.42709443,73.43806771
1089,Surgana,1.85414427969,BARHE,20.439,73.52533,Vaghanakhi,20.45385008,73.53342423
1090,Surgana,5.328970318,KARANJUL  SU,20.57163,73.59704,Vijaynagar,20.61917431,73.60347667
1091,Surgana,1.34132619897,BHADAR,20.55802,73.63506,Wadpada,20.55568753,73.62241995
1092,Surgana,4.66319701644,PALSAN,20.52317,73.54567,Waghadi,20.49168071,73.51609852
1093,Surgana,5.29960249813,BHAVANDAGAD,20.55295,73.61324,Walutzira,20.59828236,73.59752358
1094,Surgana,4.68447376054,UMBERTHAN,20.57043,73.50082,Wangan,20.52838676,73.50368068
1095,Surgana,1.99193827675,KALAMNE,20.41567,73.5619,Wanganpada,20.42568048,73.54604784
1096,Surgana,4.6310440474,BHAWADA,20.5007,73.5369,Wangan Sule,20.52838676,73.50368068
1097,Surgana,2.75850398146,VARAMBHE,20.42489,73.6133,Warambhe,20.42717454,73.63965982
1098,Surgana,1.42614430659,AMBODE,20.42878,73.47824,Zagadpada,20.41738561,73.47195743
1099,TRIMBAK,2.90073616764,DEOLA,20.08437,73.43237,Adgaon (Harsul),20.1098942,73.42663133
1100,TRIMBAK,4.94577482296,ALWAND,19.88177,73.46333,Alwand,19.84353483,73.48749187
1101,TRIMBAK,1.63152031569,AMBAI,19.97977,73.47957,Ambai,19.96596832,73.47427143
1102,TRIMBAK,1.32659411568,AMBOLI,19.97733,73.48589,Amboli,19.98784565,73.49188608
1103,TRIMBAK,0.406446769367,ANJANERI,19.95461,73.59197,Anjanneri,19.95457485,73.59585855
1104,TRIMBAK,1.57363787142,ASWALIHARSHA,19.87976,73.48202,Aswaliharsha,19.86977509,73.49268427
1105,TRIMBAK,3.8574922482,AVHATE,19.88547,73.43718,Avhate,19.86165694,73.46400496
1106,TRIMBAK,2.7834367249,BAFANVIHIR,20.17415,73.32676,Bafanvihir,20.19576784,73.31331387
1107,TRIMBAK,3.58987369037,KHAIRAIPALI,20.12368,73.39912,Behedpada,20.1538484,73.38687542
1108,TRIMBAK,2.98311567716,NIRGUDE,20.11515,73.42915,Belpali,20.09147899,73.44259509
1109,TRIMBAK,3.84392442256,BERVAL,20.12428,73.27964,Berwal,20.11266,73.31431342
1110,TRIMBAK,1.9316287337,BEZE,19.99554,73.55838,Beze,19.99616151,73.5768541
1111,TRIMBAK,3.25492905414,BHAGOHOL,20.08524,73.32217,Bhagohol,20.06984749,73.34867955
1112,TRIMBAK,0.354634985194,PAHINE,19.90367,73.55064,Bhilmal,19.90086165,73.54903241
1113,TRIMBAK,0.506264853548,BBHOOTMOKHADA,20.08374,73.34418,Bhutmokhada,20.0824873,73.34884061
1114,TRIMBAK,1.50852311792,BRAMHANWADE,20.00423,73.52656,Bramhanwade,19.99905623,73.53990619
1115,TRIMBAK,2.92594353136,DALPATPUR,20.11691,73.45162,Chikhalpada,20.14270944,73.44610667
1116,TRIMBAK,1.17161613477,CHINCHVAD,20.10529,73.47713,Chinchwad,20.09486885,73.47878636
1117,TRIMBAK,3.72295544998,SAPATPALI,20.11462,73.45411,Chirapali,20.11468718,73.48976607
1118,TRIMBAK,4.85481236865,BEZE,19.99554,73.55838,Chokore,19.98520925,73.60352026
1119,TRIMBAK,2.27667361213,DALPATPUR,20.11691,73.45162,Dalpatpur,20.13302945,73.43817478
1120,TRIMBAK,3.68579266512,ZARWAD BK,19.87731,73.50035,Dapure,19.84929823,73.51919316
1121,TRIMBAK,2.34837718655,DEODONGRA,20.16035,73.32341,Deodongara,20.1796612,73.33251902
1122,TRIMBAK,2.34837718655,DEODONGRI,20.16035,73.32341,Deodongari,20.1796612,73.33251902
1123,TRIMBAK,0.161257943926,DEVGAON,19.82308,73.45717,Deogaon,19.82171307,73.45665507
1124,TRIMBAK,2.12386750864,SAMUNDI,19.88039,73.5034,Dhadoshi,19.89261889,73.51900283
1125,TRIMBAK,3.7148441783,DHUMODI,19.96648,73.50311,Dhumodi,19.99730588,73.51681469
1126,TRIMBAK,2.44119212821,MALEGAON,20.04505,73.54774,Divyachapada,20.02358087,73.54285507
1127,TRIMBAK,2.47206612541,CHINCHOHOL,20.13595,73.34988,Dol Ohol,20.15595919,73.36020095
1128,TRIMBAK,4.00303450826,GADADVANE,20.11916,73.43691,Gadadvane,20.08405703,73.42840488
1129,TRIMBAK,3.00359981629,GANESHGAON (W),20.01969,73.49011,Ganeshgaon Waghera,20.01970047,73.51885919
1130,TRIMBAK,2.11388344304,GAVATHA,20.07213,73.37534,Gavatha,20.06294326,73.39305929
1131,TRIMBAK,5.81404980868,VAGHERA,20.06411,73.50769,Ghodhadyachapada,20.02358087,73.54285507
1132,TRIMBAK,1.27816989431,GOLDARI,20.14154,73.33155,Goldari,20.151925,73.336799
1133,TRIMBAK,3.4888994514,GANESHGAON (W),20.01969,73.49011,Gorthan,20.0400039,73.51556238
1134,TRIMBAK,3.59003424526,KALMUSTE (T),19.94013,73.43674,Harshewadi,19.91285845,73.45512187
1135,TRIMBAK,0.562433887221,HARSUL,20.11688,73.45045,Harsul,20.11885465,73.4554093
1136,TRIMBAK,2.60786960055,HATLONDHI,20.12368,73.39912,Hatlondhi,20.13215436,73.37582896
1137,TRIMBAK,2.93770822925,DALPATPUR,20.11691,73.45162,Hattipada,20.13620639,73.43240099
1138,TRIMBAK,1.48012959728,HIRDI,20.03514,73.55132,Hirdi,20.03652812,73.56541138
1139,TRIMBAK,2.99292744548,JATEGAON BK,20.10333,73.47953,Jategaon Bk,20.08911204,73.50386604
1140,TRIMBAK,2.99292744548,JATEGAON KHD,20.10333,73.47953,Jategaon Kh,20.08911204,73.50386604
1141,TRIMBAK,1.53254822485,KACHURLI,19.95774,73.51224,Kachurli,19.94907718,73.50083561
1142,TRIMBAK,2.07096682823,OZARKHED,20.12428,73.27964,Kadegahan,20.14049864,73.2893919
1143,TRIMBAK,3.9686490802,KALMUSTE (T),19.94013,73.43674,Kalamuste,19.92688781,73.47199562
1144,TRIMBAK,3.3585905376,KALMUSTE(H),20.08933,73.40866,Kalmuste,20.10059544,73.37881832
1145,TRIMBAK,5.85625186234,DEODONGRA,20.16035,73.32341,Kas,20.20470791,73.35366001
1146,TRIMBAK,0.968277871122,KHADAKOHOL,20.14678,73.29754,Khadakohol,20.15372476,73.30313593
1147,TRIMBAK,2.57094709275,KHAIRAIPALI,20.12368,73.39912,Khairaipali,20.14478966,73.40916615
1148,TRIMBAK,0.722262769859,KHAMBALE,19.95955,73.63005,Khambale,19.95600696,73.63584191
1149,TRIMBAK,3.61957204141,KHAROLI,19.89673,73.55856,Kharoli,19.87282944,73.5350598
1150,TRIMBAK,4.8357192736,KHARSHET,20.14464,73.40539,Kharshet,20.18710075,73.39537676
1151,TRIMBAK,2.24231439515,KHARWAL,20.08437,73.43237,Kharwal,20.06421888,73.43155602
1152,TRIMBAK,2.66756927484,PAHINE,19.90367,73.55064,Kojoli,19.88437169,73.53548437
1153,TRIMBAK,2.52314329069,KONE,20.06411,73.50769,Kone,20.07407507,73.52939381
1154,TRIMBAK,4.00816839961,KOTAMBI (H),20.12197,73.39597,Kotambi Harsul,20.10597537,73.36156847
1155,TRIMBAK,2.09085135624,MAHADEONAGAR,20.09935,73.55322,Mahadeo Nagar,20.09681538,73.53337999
