,Block Name,Distance,GP Name,GP_lat,GP_long,Village Name,Village_lat,Village_long
0,JAWALI,2.01870768404,AGALAVEWADI,17.78475,73.83480556,Agalavewadi,17.78410594,73.85385934
1,JAWALI,0.879073317842,AKHADE,17.86001,73.86593,Akhade,17.85210436,73.86589866
2,JAWALI,0.490759086959,AKHEGANI,17.87326,73.80595,Akhegani,17.87183626,73.81033938
3,JAWALI,0.404129128164,ALEWADI,17.80532,73.85645,Alewadi,17.80361287,73.85308006
4,JAWALI,1.26047519379,AMBEGHAR T.KUDAL,17.86512,73.83787,Ambeghar t.kudal,17.86626412,73.82602077
5,JAWALI,1.17963196468,AMBEGHAR T. MEDHA,17.84888889,73.78122222,Ambeghar  t medha,17.85178207,73.79194496
6,JAWALI,0.729415872003,ANDHARI KAS,17.72234,73.78364,Andhari,17.72531404,73.78977823
7,JAWALI,0.693770586422,ANEWADI,17.80214,73.96325,Anewadi,17.7993589,73.96911594
8,JAWALI,1.47358093668,APATI,17.77063,73.7593,Apti,17.77003575,73.77320221
9,JAWALI,0.528175483641,ARDE,17.81272222,73.91,Arde,17.80798015,73.9102881
10,JAWALI,0.658105632513,ASANI,17.8374,73.77506,Asani,17.840216,73.78052855
11,JAWALI,1.91642912605,BAHULE,17.892213,73.74129,Bahule,17.907283,73.75007813
12,JAWALI,1.16963554961,BAMANOLI  T. KUDAL,17.84752,73.88173,Bamnoli t. kudal,17.83705695,73.88059396
13,JAWALI,0.841223650234,BELAVADE,17.80066667,73.90522222,Belawade,17.79310993,73.90484422
14,JAWALI,1.39362807818,BELOSHI,17.90327,73.80484,Beloshi,17.90448859,73.81794862
15,JAWALI,0.635336130149,BHALEGHAR,17.85289,73.84845,Bhaleghar,17.84749768,73.84646516
16,JAWALI,0.879285995783,BHAMGHAR,17.82982,73.78396,Bhamghar,17.82202528,73.78535854
17,JAWALI,0.606959060413,BHANANG,17.77336111,73.8785,Bhanang,17.76879603,73.87535749
18,JAWALI,0.251315055653,BHIVADI,17.8287,73.88671,Bhivadi,17.82740223,73.88476626
19,JAWALI,0.944758711966,BHOGAVALI T.KUDAL,17.85877,73.83484,Bhogavali t.kudal,17.85273163,73.84111971
20,JAWALI,0.902010040346,BHOGAVALI T. MEDHA,17.8359,73.77511,Bhogavali t. medha,17.82814939,73.77259499
21,JAWALI,0.810813406552,BIBHAVI,17.78366667,73.84530556,Bibhvi,17.77709537,73.84862458
22,JAWALI,1.5407001889,BONDARWADI,17.9055,73.72093,Bondarwadi,17.91868034,73.72542124
23,JAWALI,0.675750340613,CHORAMBE,17.81561111,73.81744444,Chorambe,17.81163429,73.82227116
24,JAWALI,0.249131876362,DANGAREGHAR,17.8617,73.7798,Dangreghar,17.86342988,73.78129596
25,JAWALI,2.71359353758,DAPAVADI,17.89748,73.80622,Dapawadi,17.89061406,73.83082858
26,JAWALI,1.97764624513,DARE - BK.,17.80968,73.8683,Dare bk.,17.79227794,73.87215738
27,JAWALI,1.26650880531,DARE - KD.,17.78362,73.93192,Dare kh.,17.77231663,73.93044768
28,JAWALI,5.11560317183,VELE,17.56657,73.80566,Deur,17.60924973,73.78764318
29,JAWALI,0.978811659876,DHANAKAVADI,17.75574,73.87038,Dhanakwadi,17.74704395,73.87181416
30,JAWALI,0.516569319121,DHONDEWADI,17.79734,73.86683,Dhondewadi,17.80191203,73.86596499
31,JAWALI,0.737955389286,DIVDEO,17.82680556,73.81047222,Divdev,17.82578115,73.81735996
32,JAWALI,0.737955389286,DIVDEO,17.82680556,73.81047222,Divdevwadi,17.82578115,73.81735996
33,JAWALI,1.1720825264,DUDUSKARWADI,17.79369,73.93364,Duduskarwadi,17.78388971,73.93771593
34,JAWALI,1.6215145014,DUND,17.75164,73.83463,Dund,17.73841993,73.82816763
35,JAWALI,0.631001852425,APATI,17.77063,73.7593,Furus,17.76975942,73.75341149
36,JAWALI,0.602985603328,GALDEV,17.82008,73.76794,Galdev,17.81468617,73.76852778
37,JAWALI,1.01280337957,GANJE,17.78022,73.80865,Ganje,17.77673441,73.79981294
38,JAWALI,1.04930760615,GAVADI,17.83072222,73.79183333,Gavdi,17.83188844,73.80167018
39,JAWALI,3.47320601921,GHOTEGHAR,17.88824,73.78138,Ghoteghar,17.87988623,73.81300563
40,JAWALI,1.15108755649,GONDEMAL,17.80752,73.78097,Gondemal,17.79717391,73.78133669
41,JAWALI,0.907101681672,HATAGEGHAR,17.85825,73.8194,Hateghar,17.85208812,73.82501658
42,JAWALI,1.14826296478,HUMGAON,17.8627,73.86874,Humgaon,17.87222823,73.87292309
43,JAWALI,0.328965290339,INDAVALI  T.KUDAL,17.84252,73.85731,Indavli,17.83958653,73.85771307
44,JAWALI,4.33689965367,JAREWADI,17.87649,73.85792,Jarewadi,17.86060731,73.89534771
45,JAWALI,2.44052281893,JAVALWADI,17.79377778,73.83577778,Jawalwadi,17.77222612,73.84013914
46,JAWALI,1.20178505404,KALOSHI,17.76729,73.83496,Kaloshi,17.75987894,73.84322068
47,JAWALI,1.13130801825,KARANDI T.MEDHA,17.75521,73.84005,Karandi t.medha,17.74664703,73.834281
48,JAWALI,0.390429244952,KARANDOSHI,17.80772,73.87755,Karandoshi,17.80642379,73.8809774
49,JAWALI,1.15682389346,KARANJE,17.80847222,73.81847222,Karanje,17.80641409,73.82918335
50,JAWALI,0.851247024989,KARANDI  T.KUDAL,17.8266,73.85715,Karedi t.kudal,17.82238759,73.86386461
51,JAWALI,5.94542204369,KARGAON,17.658064,73.800839,Kargaon,17.67966377,73.74950603
52,JAWALI,0.737924491307,KARAHAR,17.87069,73.83439,Karhar,17.86725266,73.84035446
53,JAWALI,2.88654455633,ANDHARI KAS,17.72234,73.78364,Kas,17.71714217,73.81034037
54,JAWALI,1.14878853351,KASBE BAMANOLI,17.73415,73.75928,Kasbe  bamnoli,17.72476173,73.76380736
55,JAWALI,1.10944864832,KATAVALI,17.9061,73.79992,Katavali,17.91215633,73.80825293
56,JAWALI,0.706350181052,KAVADI,17.85716,73.81148,Kavadi,17.86317594,73.81362312
57,JAWALI,1.20518211455,KEDAMBE,17.88107,73.75882,Kedambe,17.88267683,73.77008278
58,JAWALI,1.10858332716,KELGHAR T. MEDHA,17.85625,73.76583333,Kelghar t medha,17.84679329,73.76251673
59,JAWALI,0.528612201342,KELGHAR T.SOLSHI,17.75974,73.76238,Kelghar t.solshi,17.75499866,73.76274296
60,JAWALI,0.927134766357,KENJAL,17.76722222,73.89125,Kenjal,17.7589604,73.89006977
61,JAWALI,0.538424171341,KESAKARWADI,17.76755556,73.881,Kesakarwadi,17.76859553,73.88596605
62,JAWALI,1.81828877934,KHARSHI BARAMURE,17.87257,73.83555,Kharshi  baramure,17.88785084,73.84166718
63,JAWALI,0.513501171639,KHARSHI T.KUDAL,17.80137,73.9476,Kharshi t. kudal,17.79819888,73.95112589
64,JAWALI,0.752673220436,KOLEWADI,17.86271,73.87826,Kolewadi,17.86110883,73.88516992
65,JAWALI,0.903815214516,KOLGHAR,17.74994,73.78531,Kolghar,17.74271916,73.78922837
66,JAWALI,0.524792933356,KUDAL,17.83588,73.91785,Kudal,17.83781604,73.91332846
67,JAWALI,0.868946208613,KUMBHARGANI,17.78604,73.88586,Kumbhargani,17.77923471,73.88989414
68,JAWALI,0.797968215094,KURALOSHI,17.85315,73.74776,Kuraloshi,17.85693161,73.7541677
69,JAWALI,0.604463619562,KUSUMBI,17.7654,73.81208,Kusumbi,17.76264785,73.81700262
70,JAWALI,0.617779530888,MAHIGAON,17.79224,73.93123,Mahigaon,17.79285658,73.92543113
71,JAWALI,0.501227609134,MAHU,17.8851,73.81753,Mahu,17.88845529,73.82069302
72,JAWALI,0.5055985684,MOUJE  SHEMBADI,17.71514,73.7594,Majare  shevandi,17.71229938,73.76312716
73,JAWALI,1.73942789398,MALCHOUNDI,17.7586,73.83435,Malchoundi,17.74503398,73.84252838
74,JAWALI,1.98476841927,KUSUMBI,17.7654,73.81208,Maleshwar,17.74755059,73.81203972
75,JAWALI,0.712536575585,MAMURDI,17.82094444,73.81341667,Mamurdi,17.8183026,73.81954894
76,JAWALI,0.307201243418,MARLI,17.83588,73.83373,Marli,17.83607777,73.83083523
77,JAWALI,1.28762890225,MEDHA,17.79393,73.82692,Medha (CT),17.7834009,73.82185795
78,JAWALI,1.19509514359,MAHAMULKARWADI,17.78871,73.95763,Mhamulkarwadi,17.77826283,73.95497931
79,JAWALI,0.565847486165,MHASVE,17.8608,73.91653,Mhasve,17.85938055,73.91139576
80,JAWALI,0.634923099519,MHATE - BK.,17.81502,73.78774,Mhate bk,17.81388918,73.79361878
81,JAWALI,0.78840261951,MHATE - KD.,17.80761,73.79016,Mhate kh.,17.81388918,73.79361878
82,JAWALI,2.12734311336,KASBE BAMANOLI,17.73415,73.75928,Mhavshi,17.72888032,73.77858888
83,JAWALI,0.525681881709,MOHAT,17.80161,73.81292,Mohat,17.79750578,73.8104557
84,JAWALI,0.537411167801,MORAVALE,17.76547222,73.89666667,Morawale,17.76131125,73.89924836
85,JAWALI,1.1263098463,MORGHAR,17.7838,73.92059,Morghar,17.77713949,73.91257586
86,JAWALI,0.521905580377,MUKAVALI,17.88634,73.74125,Mukavale,17.88985732,73.74451567
87,JAWALI,0.868385833303,MUNAVALE,17.69666,73.77379,Munawale,17.69480904,73.78175388
88,JAWALI,0.779261542802,NANDGANE,17.86368,73.75941,Nandgane,17.860566,73.76600617
89,JAWALI,0.982151392069,NARAFDEO,17.77102,73.91627,Narfdev,17.76221535,73.91700859
90,JAWALI,0.812035664477,NIPANI,17.78437,73.76153,Nipani,17.78317778,73.76909639
91,JAWALI,0.654073729068,NIZARE,17.75351,73.85862,Nizare,17.74775407,73.85734702
92,JAWALI,0.588964514212,OKHAVADI,17.8365,73.77242,Okhavadi,17.83614612,73.76686831
93,JAWALI,0.70237068616,OZARE,17.77086111,73.85708333,Ozare,17.76935341,73.86352465
94,JAWALI,2.22600232731,PANAS,17.86761,73.81958,Panas,17.85254135,73.83342655
95,JAWALI,1.51453098436,PAWARWADI,17.78885,73.94344,Pawarwadi,17.77523326,73.94310373
96,JAWALI,3.16184797499,MOUJE  SHEMBADI,17.71514,73.7594,Phalani,17.7107601,73.78889407
97,JAWALI,0.408816286679,PIMPALI,17.87734,73.82947,Pimpali,17.87379035,73.83047627
98,JAWALI,4.95342270231,PIMPARI T.MEDHA,17.78837,73.81789,Pimpri t. medha,17.74664703,73.834281
99,JAWALI,0.609314973685,KHARSHI T.KUDAL,17.80137,73.9476,Prabhuchiwadi,17.80028426,73.94195887
100,JAWALI,1.10338032136,PUNAVADI,17.87130556,73.76427778,Punavadi,17.87159051,73.7746995
101,JAWALI,0.633665220495,RAMWADI,17.87961,73.84101,Ramwadi,17.87976873,73.84699556
102,JAWALI,0.443212257919,RANAGEGHAR,17.82754,73.83873,Rangeghar,17.82414658,73.84092641
103,JAWALI,0.274846569128,RANJANI,17.88538,73.7936,Ranjni,17.88338979,73.79514025
104,JAWALI,1.24279293833,RAIGAON,17.79872,73.96052,Raygaon,17.78800756,73.963868
105,JAWALI,0.749697811447,RITKAWALI,17.77866667,73.85025,Ritkawali,17.77439803,73.85573047
106,JAWALI,0.910862412139,RUIGHAR,17.91851,73.7795,Ruighar,17.9183951,73.78810832
107,JAWALI,0.481628697225,SANAPANE,17.8642,73.84913,Sanapane,17.86166914,73.8528231
108,JAWALI,3.53197007446,SONGAON,17.81475,73.89625,Sangvi t. kudal,17.82238759,73.86386461
109,JAWALI,4.58929252282,SANGVI T. MEDHA,17.77428,73.80209,Sangvi t. medha,17.74664703,73.834281
110,JAWALI,0.497210120447,SARJAPUR,17.82732,73.9399,Sarjapur,17.82774615,73.93522432
111,JAWALI,0.358093090287,SARATALE,17.85264,73.93073,Sartale,17.85570896,73.92970465
112,JAWALI,0.637171853517,SAVALI,17.82266667,73.80605556,Savali,17.8258904,73.81103183
113,JAWALI,1.61451850873,KASBE BAMANOLI,17.73415,73.75928,Sawari,17.73895911,73.77366387
114,JAWALI,2.14951907743,DHANAKAVADI,17.75574,73.87038,Sayali,17.7415802,73.8841979
115,JAWALI,1.01344984429,SAIGAON,17.79633,73.94085,Saygaon,17.7874645,73.9386293
116,JAWALI,1.98894818718,VIVAR T KUDAL,17.86431,73.80664,Sayghar,17.84833129,73.81508595
117,JAWALI,0.441949309701,SHETE,17.84333,73.8933,Shete,17.84561787,73.89671428
118,JAWALI,1.02567367162,SHINDEWADI,17.91262,73.79168,Shindewadi,17.91230576,73.80136837
119,JAWALI,1.09690866435,SOMARDI,17.85771,73.88772,Somardi,17.84791635,73.88896194
120,JAWALI,1.0159538642,SONGAON,17.81475,73.89625,Songaon,17.80585278,73.89406726
121,JAWALI,5.60391913937,KARGAON,17.658064,73.800839,Takawli,17.63813034,73.84941254
122,JAWALI,1.62905639424,TALOSHI,17.88693,73.75496,Taloshi,17.89425118,73.76829481
123,JAWALI,5.32282514032,KARGAON,17.658064,73.800839,Tambi,17.66190636,73.7507643
124,JAWALI,3.14254726496,KUSUMBI,17.7654,73.81208,Tambi t. medha,17.74664703,73.834281
125,JAWALI,1.4150594902,TETLI,17.75778,73.76262,Tetli,17.74780123,73.77091258
126,JAWALI,1.1586731063,UMBARIWADI,17.68933,73.79078,Umbarewadi,17.6801666,73.78557281
127,JAWALI,0.573110634007,VAGDARE,17.81124,73.7749,Vadgare,17.80620405,73.77605251
128,JAWALI,1.33642468816,KESAKARWADI,17.76755556,73.881,Vagheshwar,17.75555779,73.88025453
129,JAWALI,0.963782071454,VAHAGAON,17.88518,73.80222,Vahagaon,17.89384742,73.80218077
130,JAWALI,1.61795244231,MUKAVALI,17.88634,73.74125,Vahite,17.90020421,73.73660925
131,JAWALI,0.880642228144,VALANJWADI,17.88626,73.75311,Valanjwadi,17.89173715,73.75912112
132,JAWALI,1.80931314561,VALUTH,17.87132,73.84851,Valuth,17.88510706,73.85759024
133,JAWALI,0.422220459,VAROSHI,17.8712,73.75211,Varoshi,17.87082475,73.75608009
134,JAWALI,2.08213957803,KARGAON,17.658064,73.800839,Vasota,17.64627931,73.78556829
135,JAWALI,1.29086681117,MUKAVALI,17.88634,73.74125,Vatambe,17.88382446,73.75315872
136,JAWALI,1.14293903241,VELE,17.56657,73.80566,Vele,17.57313015,73.79735976
137,JAWALI,0.580315505306,VIVAR T KUDAL,17.86431,73.80664,Vivar,17.85913424,73.80593642
138,JAWALI,1.78674004164,MOUJE  SHEMBADI,17.71514,73.7594,Waghali,17.7008258,73.76706392
139,JAWALI,1.18106495735,WAKI,17.78871,73.74336,Waki,17.78599119,73.75414318
140,JAWALI,0.866426700657,YEKIV,17.73584,73.83142,Yekiv,17.7287943,73.82792644
141,Karad,1.19142281928,ABAICHIWADI,17.30519,74.11385,Abachiwadi,17.31577498,74.11559124
142,Karad,0.446875710886,AKAICHIWADI,17.11435,74.06512,Akaichiwadi,17.11033768,74.06535961
143,Karad,0.442555332094,AMBAVADE,17.26227,74.06076,Ambavade,17.26157888,74.0566556
144,Karad,2.04961160393,ANDHARWADI,17.40558,74.07499,Andharwadi,17.39883953,74.05701113
145,Karad,1.49243067739,AANE,17.2616,74.08077,Ane,17.27108498,74.07082562
146,Karad,0.660877849771,ANTVADI,17.38111,74.21922,Antvadi,17.38659954,74.221607
147,Karad,1.28447209584,AREWADI,17.29829,74.06914,Arewadi,17.29163711,74.05924946
148,Karad,1.05955774181,ATAKE,17.2063,74.20447,Atake,17.20001672,74.21196923
149,Karad,1.24175258379,BABARMACHI S GAD,17.3052,74.22023,Babarmachi,17.31276692,74.22883245
150,Karad,1.35306470476,BAMANWADI,17.22316,74.0413,Bamanwadi,17.23098902,74.05105292
151,Karad,1.15972612651,BANUGADEWADI,17.4706,74.17083,Banugadewadi,17.47072104,74.15989669
152,Karad,0.892083677336,BELAWADE BK,17.15505,74.16691,Belavade  bk,17.15526246,74.17530331
153,Karad,1.44958540861,BELDARE,17.33969,74.08471,Beldari,17.34515719,74.07231175
154,Karad,1.21587158414,BELVADE-HAVELI,17.35456,74.13955,Belvade Haveli,17.35379194,74.12812221
155,Karad,0.603028693597,BELWADI,17.4514,74.13509,Belwadi,17.45466914,74.13055412
156,Karad,0.319606481352,BHAREWADI,17.11782,73.99483,Bharewadi,17.12052802,73.99583808
157,Karad,1.0508488062,BHAVANWADI,17.38151,74.08832,Bhavanwadi,17.37448398,74.08169733
158,Karad,0.361838068793,BHOLEWADI,17.34898,74.06227,Bholewadi,17.34713389,74.05946256
159,Karad,1.29534910029,BHOSALEWADI,17.41805,74.09695,Bhosalewadi,17.42299687,74.08589615
160,Karad,0.50019493056,BHURBHUSHI,17.13124,73.99083,Bhurbhushi,17.13427942,73.99430019
161,Karad,1.67823476104,BHUYACHIWADI,17.43064,74.10106,Bhuyachiwadi,17.43906634,74.08793557
162,Karad,5.43240481883,SHIRVADE,17.36687,74.14176,British-shirwade,17.39197478,74.09784403
163,Karad,1.07756644051,CHACHEGAON,17.25214,74.13817,Chachegaon,17.26152964,74.14068008
164,Karad,0.434374505811,CHAREGAON,17.37108,74.06997,Charegaon,17.36991859,74.06606199
165,Karad,1.67970826174,CHINCHANI,17.45549,74.14552,Chinchani,17.46629048,74.13444859
166,Karad,1.18861143884,CHORAJWADI,17.45466,73.99802,Chorajwadi,17.4457272,73.99186572
167,Karad,1.27237119313,CHORE,17.44781,74.03725,Chore,17.44288815,74.02642184
168,Karad,0.948990624473,DELEWADI,17.27546,74.06093,Delewadi,17.28355553,74.0581005
169,Karad,0.561691913385,DHONDEWADI,17.21794,74.14676,Dhondewadi,17.22043917,74.14216414
170,Karad,1.19784088916,DUSHERE,17.21043,74.21635,Dushere,17.2206479,74.21277823
171,Karad,0.629396798785,GAIKWADWADI,17.47909,74.20693,Gaikwadwadi,17.47394091,74.20939448
172,Karad,1.32644535817,GAMEWADI,17.29321,74.05607,Gamewadi,17.29108855,74.04377545
173,Karad,0.5391864843,GANESHWADI,17.1242,74.01631,Ganeshwadi,17.12779788,74.01290828
174,Karad,0.573274132392,GHAREWADI,17.24733,74.09622,Gharewadi,17.2447218,74.09156348
175,Karad,1.30275132536,GHOGAON,17.14751,74.04729,Ghogaon,17.1403813,74.05701988
176,Karad,0.143389534016,GHOLAPWADI,17.44704,74.20618,Gholapwadi,17.44824679,74.2057036
177,Karad,0.81639150132,GHONASHI,17.33186,74.16268,Ghonasi,17.3384742,74.15934133
178,Karad,1.68200330566,GOLESHWAR,17.24483,74.20259,Goleshwar,17.25820827,74.19519795
179,Karad,1.62450951024,GONDI,17.18547,74.23288,Gondi,17.17746897,74.24567485
180,Karad,0.303049893511,GOSAVEWADI,17.45964,74.18006,Gosavewadi,17.45920778,74.17723914
181,Karad,1.09051936859,GOTE,17.29507,74.1667,Gote,17.30469378,74.16472227
182,Karad,0.257681793086,GOTEWADI,17.12699,74.00738,Gotewadi,17.12519316,74.00584866
183,Karad,1.01741329881,GOWARE,17.2884,74.2076,Govare,17.29707124,74.20454134
184,Karad,1.60235452619,HAJARMACHI (SADASHIVGAD),17.31255,74.21374,Hajarmachi (CT),17.31276692,74.22883245
185,Karad,1.9115527333,HANBARWADI,17.42436,74.16794,Hanbarwadi,17.43299322,74.15235866
186,Karad,0.528720243047,HANUMANWADI,17.39113,74.11333,Hanumanwadi,17.38961353,74.10860755
187,Karad,0.76393676689,HARPHALWADI,17.50889,74.03545,Harpalwadi,17.51067526,74.02849343
188,Karad,0.363060652378,HAVELWADI,17.17587,74.06707,Havelwadi,17.17861522,74.06892016
189,Karad,0.894669997524,HELGAON,17.45902,74.16091,Helgaon,17.45960335,74.15249766
190,Karad,1.80713928574,HINGNOLE,17.4273,74.08378,Hingnole,17.42103444,74.06806315
191,Karad,1.80691511653,INDOLI,17.43892,74.07822,Indoli,17.4363815,74.06139637
192,Karad,4.94187323276,JAKHINWADI,17.28872,74.1694,Jakhinwadi,17.24527013,74.15961454
193,Karad,0.126592460248,JINTI,17.1154,74.08699,Jinti,17.11504818,74.08585708
194,Karad,1.15521080268,JULEWADI,17.1755,74.24954,Julewadi,17.16675793,74.24366486
195,Karad,0.96144966742,KACHAREWADI,17.44478,74.14926,Kacharewadi,17.44100652,74.14110535
196,Karad,0.738451283443,KALANTREWADI,17.38691,74.08039,Kalantrewadi,17.38867707,74.07368182
197,Karad,0.866972259906,KASABE KALE,17.19286,74.1552,Kale,17.20031322,74.15280362
198,Karad,4.71046736945,KALETAKE,17.20934,74.16871,Kaletake,17.20001672,74.21196923
199,Karad,1.08591302353,KALGAON,17.46201,74.12059,Kalgaon,17.47068266,74.12529664
200,Karad,0.122658837178,KALAVADE,17.16627,74.15561,Kalvade,17.16735887,74.15542517
201,Karad,0.324234127593,KAMATHI,17.34946,74.27367,Kamathi,17.3498617,74.27064423
202,Karad,1.23001634307,KAMBIRWADI,17.39889,74.15831,Kambirwadi,17.38914898,74.16380294
203,Karad,1.52979962214,KAPIL,17.24301,74.19462,Kapil,17.25218074,74.18388163
204,Karad,,KARANJOSHI,,,Karanjoshi,16.89543486,73.95403949
205,Karad,0.98907933791,KARAWADI,17.33293,74.2226,Karavadi,17.34177578,74.22162103
206,Karad,2.40196060979,KARVE,17.25105,74.21063,Karve,17.25456217,74.23294811
207,Karad,0.540289500127,KASARSHIRAMBE,17.13874,74.13956,Kasarshirambe,17.13618499,74.14388497
208,Karad,0.478600881224,KAVATHE,17.41838,74.11618,Kavathe,17.42203484,74.11856259
209,Karad,0.899433782978,KESE,17.27561,74.13368,Kese,17.28369057,74.13406209
210,Karad,0.969355551976,KHALKARWADI,17.37442,74.05885,Khalkarwadi,17.38132631,74.05327581
211,Karad,1.19624255847,KHARADE,17.43803,74.13387,Kharade,17.43977118,74.12274231
212,Karad,1.76692779985,KHODJAIWADI,17.4441,74.23968,Khodjaiwadi,17.4375558,74.22450199
213,Karad,1.63194643182,KHODASHI,17.31041,74.16612,Khodshi,17.32405887,74.1604688
214,Karad,0.296611451862,KHUBI,17.14352,74.24014,Khubi,17.14607779,74.24093232
215,Karad,0.177348714955,KIRAPE,17.28344,74.09856,Kirpe,17.28501591,74.09881723
216,Karad,0.34083679522,KIVAL,17.41738,74.21637,Kival,17.42034643,74.21717902
217,Karad,0.370961595477,KODOLI,17.23105,74.19682,Kodoli,17.23017708,74.20019121
218,Karad,0.92559062168,KOLE,17.25688,74.07408,Kole,17.26021472,74.08206646
219,Karad,0.874411840268,KOLEWADI,17.24071,74.05608,Kolewadi,17.23644218,74.06299555
220,Karad,0.927808295951,KONEGAON,17.38447,74.13344,Konegaon,17.38785368,74.12544775
221,Karad,0.761715845818,KOPARDE-HAVELI,17.33355,74.18269,Koparde Haveli,17.3347569,74.17562606
222,Karad,1.68488950499,KOREGAON,17.27085,74.22777,Koregaon,17.27157602,74.24361984
223,Karad,0.829470435844,KORIWALE,17.42747,74.04608,Koriwale,17.42528698,74.03860383
224,Karad,0.231121399752,KORTI,17.42109,74.09898,Korti,17.41932944,74.10013796
225,Karad,0.383381903681,KUSUR,17.24424,74.0521,Kusur,17.24649051,74.049365
226,Karad,0.894388623251,LATAKEWADI,17.18257,74.04927,Latakewadi,17.18771817,74.05573886
227,Karad,0.320252710994,LOHARWADI,17.11047,74.02573,Loharwadi,17.10765869,74.02507531
228,Karad,0.243456821105,MAHARUGADEWADI,17.1337,74.08637,Maharugadewadi,17.1349271,74.08826749
229,Karad,0.40426761385,MALKHED,17.15631,74.19065,Malkhed,17.15770191,74.19416509
230,Karad,0.834616572463,MALWADI,17.39366,74.17937,Malwadi,17.39468575,74.17157822
231,Karad,1.60698962568,MANU,17.16599,74.11369,Manu,17.15305335,74.12043245
232,Karad,1.21668636644,MARALI,17.46224,74.01793,Marali,17.45451565,74.00980592
233,Karad,0.230250462757,MASKARWADI,17.44835,73.98064,Maskarwadi,17.4464625,73.9797474
234,Karad,1.13581631753,MASUR,17.40055,74.16108,Masur,17.40988846,74.1567423
235,Karad,0.742199820385,MHASOLI,17.16579,74.04291,Mhasoli,17.17155849,74.04642474
236,Karad,0.932928254898,MHOPRE,17.32171,74.06943,Mhopre,17.32995649,74.07104874
237,Karad,1.40734088397,MUNDHE,17.29557,74.15938,Mundhe,17.30250403,74.14829032
238,Karad,1.03923358136,NADASHI,17.34546,74.15282,Nadashi,17.35173084,74.16008031
239,Karad,0.10342011851,NANDALAPUR,17.23493,74.17744,Nandlapur,17.23439201,74.17664564
240,Karad,1.23416764912,NARAYANWADI,17.2057,74.17326,Narayanwadi,17.21633839,74.17657308
241,Karad,0.220276164369,KAVATHE NAVIN,17.42098,74.12032,Navin kavathe,17.42203484,74.11856259
242,Karad,0.908599869412,NIGADI,17.44058,74.1876,Nigadi,17.43978442,74.17907573
243,Karad,1.26947664887,OND,17.18165,74.11629,Ond,17.18493395,74.10484497
244,Karad,0.713238183707,ONDOSHI,17.21637,74.09488,Ondosha,17.2109912,74.09853841
245,Karad,1.5134394611,PACHUND,17.36559,74.24893,Pachund,17.37899219,74.25141664
246,Karad,1.18873404624,PADALI KESE,17.29429,74.1333,Padalikese,17.29232558,74.12229397
247,Karad,1.34425519756,PAL,17.48964,74.03149,Pal,17.48181404,74.02182934
248,Karad,1.90671409797,PERLE,17.45366,74.11505,Parale,17.45525679,74.09715296
249,Karad,1.58358387594,PARLE,17.32296,74.19999,Parle,17.33608093,74.19418938
250,Karad,1.21855420427,PASHCHIMSUPANE,17.306,74.10661,Pashchimsupane,17.29551034,74.10993215
251,Karad,3.29297794164,PAWARWADI,17.19408,74.12556,Pawarwadi,17.16487465,74.13069458
252,Karad,1.28494828645,PIMPARI,17.37325,74.16244,Pimpari,17.37695611,74.17390871
253,Karad,0.557268173149,POTALE,17.26075,74.09664,Potale,17.26564566,74.09551753
254,Karad,0.773715141569,RAJMACHI,17.31875,74.23576,Rajmachi,17.32418694,74.24030864
255,Karad,1.49301429729,RETHARE BK.,17.17065,74.21426,Rethare bk.,17.15915573,74.22152371
256,Karad,1.24920094509,RETHARE KH.,17.17348,74.20324,Rethare kh.,17.1841306,74.20698111
257,Karad,0.615643842924,RISWAD,17.38631,74.19937,Risvad,17.38784982,74.19379718
258,Karad,1.19165301856,SABALEWADI,17.41185,74.05868,Sabalwadi,17.41086424,74.04749621
259,Karad,1.38107667226,SAIDAPUR,17.29857,74.17708,Saidapur (CT),17.30859318,74.18476256
260,Karad,0.89443034319,SAJUR,17.31418,74.05275,Sajur,17.31121701,74.04491692
261,Karad,0.717272500296,SAKURDI,17.31922,74.09014,Sakurdi,17.31458561,74.08544004
262,Karad,1.16500606212,SALSHIRAMBE,17.14838,74.09746,Salshirambe,17.14028562,74.10442153
263,Karad,0.619215787685,SAVADE,17.17417,74.06849,Savade,17.1686224,74.0689974
264,Karad,1.73852600549,SAYAPUR,17.29036,74.22799,Sayapur,17.30503777,74.22234834
265,Karad,0.484975118521,SHAMGAON,17.40423,74.25718,Shamgaon,17.40630894,74.25316189
266,Karad,0.857944729626,SHELAKEWADI (MHASOLI.),17.16948,74.02764,Shelakewadi,17.17661622,74.03071051
267,Karad,1.73268222805,SHELAKEWADI (YEVATI),17.17007,74.01591,Shelekewadi,17.17661622,74.03071051
268,Karad,1.14911548914,SHENOLI,17.19158,74.26073,Shenoli,17.19006781,74.27143107
269,Karad,1.14911548914,SHENOLI,17.19158,74.26073,Shenolistalion,17.19006781,74.27143107
270,Karad,1.7103906534,SHERE,17.20902,74.22332,Shere,17.2206479,74.21277823
271,Karad,2.34373685962,YEVATI,17.15311,74.01148,Shevalwadi,17.15523647,74.03342649
272,Karad,4.8978489007,SHEVALWADI -UNDALE,17.16809,74.07752,Shevalwadi,17.15523647,74.03342649
273,Karad,4.8978489007,SHEVALWADI -UNDALE,17.16809,74.07752,Shevalwadi,17.15523647,74.03342649
274,Karad,0.450780540635,SHEVALWADI (MHASOLI),17.15917,74.0324,Shewalewadi,17.15523647,74.03342649
275,Karad,0.790974391199,SHINGANWADI,17.24937,74.07899,Shinganwadi,17.24243711,74.0773227
276,Karad,0.6334153731,SHIRVADE,17.36687,74.14176,Shiravade,17.37185656,74.13887458
277,Karad,0.726627463055,SHIRGAON,17.46781,74.06429,Shirgaon,17.47325462,74.06050157
278,Karad,0.714949349092,SHITALWADI,17.35983,74.05156,Shitalwadi,17.36377721,74.04624224
279,Karad,0.859868142568,SHIVADE,17.39732,74.1037,Shiwade,17.39197478,74.09784403
280,Karad,2.78084605411,SUPANE,17.29805,74.12048,Supane,17.30248675,74.09470173
281,Karad,0.0976250433325,SURLI,17.32485,74.27131,Surli,17.32572527,74.27138198
282,Karad,1.68423551255,TALBID,17.33863,74.11093,Talbid,17.34997463,74.10041591
283,Karad,0.474311604141,TALGAON,17.1515,74.07059,Talgaon,17.15235082,74.07496442
284,Karad,1.22084151537,TAMBAVE,17.30301,74.08659,Tambave,17.30512621,74.07530586
285,Karad,1.99133739212,TARUKH,17.23779,74.0427,Tarukh,17.22045825,74.03797978
286,Karad,0.843336977682,TASAVADE,17.36769,74.12968,Tasavade,17.37134612,74.12271762
287,Karad,1.42288411384,TEMBHU,17.28344,74.23216,Tembhu,17.29031234,74.24346493
288,Karad,0.915002641858,TULSAN,17.19414,74.07485,Tulsan,17.20208928,74.07262388
289,Karad,0.494169586988,UNDALE,17.16222,74.08963,Undale,17.16588523,74.09226047
290,Karad,0.505296121967,UTTAR TAMBAVE,17.30718,74.07106,Uttar Tambave,17.30512621,74.07530586
291,Karad,0.488845463884,VADOLI  BHIKESHWAR,17.4056,74.12127,Vadoli bhikeshwar,17.40432883,74.11685956
292,Karad,1.42718419418,VADOLI  NILESHWAR,17.34935,74.20227,Vadoli Nileshwar,17.36108334,74.19681942
293,Karad,1.59997397285,WAGHERI,17.34586,74.23539,Vagheri,17.36024434,74.23501002
294,Karad,1.64037649729,WAHAGAON,17.3347,74.15169,Vahagaon,17.33677042,74.13638869
295,Karad,2.99531662823,VANARWADI,17.19961,74.03641,Vanarwadi,17.21934129,74.05560818
296,Karad,0.991674049864,VANAVASMACHI (S.GAD),17.31875,74.23576,Vanavasmachi,17.31276692,74.22883245
297,Karad,1.09328720819,BANVADI,17.31879,74.19745,Vanvadi (Sadashivgad),17.32224308,74.18780687
298,Karad,1.10752014488,VANVASMACHI - KHODASHI,17.31934,74.14564,Vanvasmachi,17.32142615,74.13543815
299,Karad,1.23840928508,VARADE,17.3753,74.11448,Varade,17.3751174,74.10281179
300,Karad,0.632034424051,WARUNJI,17.28349,74.16007,Varunji,17.28389845,74.15413257
301,Karad,1.62478253731,VASANTGAD,17.30862,74.10782,Vasantgad,17.32246855,74.1029373
302,Karad,0.625820311981,VASTI  SAKURDI,17.31907,74.09119,Vastisakurdi,17.32427514,74.08894764
303,Karad,0.663816177711,WATHAR,17.17988,74.18185,Vathar,17.18431594,74.18603181
304,Karad,1.09431501807,VIJAYNAGAR,17.29835,74.13519,Vijaynagar,17.30747589,74.13133143
305,Karad,0.257325428521,WING,17.24076,74.11983,Ving,17.24271766,74.12112217
306,Karad,0.0765755175159,VIRVADE,17.32431,74.21126,Virvade,17.32465177,74.21188628
307,Karad,0.757167304138,WAGHESHWAR,17.39749,74.17047,Wagheshwar,17.39880775,74.17747094
308,Karad,2.5732561153,WANYACHIWADI,17.41351,74.16164,Wanyachiwadi,17.40856648,74.13794677
309,Karad,0.275098115057,YELGAON,17.12891,74.02764,Yelgaon,17.12696316,74.02604253
310,Karad,0.869025151649,YENAKE,17.27144,74.09167,Yenake,17.27798924,74.08720394
311,Karad,0.903900690012,YENAPE,17.11015,74.03465,Yenape,17.10867063,74.04301335
312,Karad,1.47665577955,YERAVALE,17.25813,74.11815,Yeravale,17.27108011,74.11507015
313,Karad,1.16063718193,YESHWANTNAGAR,17.36088,74.1598,Yeshwantnagar,17.36431306,74.17012771
314,Karad,0.758893374531,YEVATI,17.15311,74.01148,Yevati,17.15950617,74.01397166
315,Khandala,0.493174261177,AHIRE,18.05843,74.07563,Ahire,18.0541245,74.07451001
316,Khandala,1.64789751705,AJNUJ,18.05172,74.00252,Ajnuj,18.05692942,73.98792738
317,Khandala,0.593403558449,ANDORI,18.08978,74.14512,Andori,18.09354241,74.1411385
318,Khandala,2.29793757048,BALU PATALACHIWADI,18.07638,74.19771,Balu patlachiwadi,18.09044978,74.18178682
319,Khandala,1.31385549841,BAVADA,18.07697,74.02782,Bavda,18.08668911,74.02075141
320,Khandala,2.92745950624,BAVAKALWADI,18.0899,74.16942,Bavkalwadi,18.10072809,74.1946661
321,Khandala,0.940698230077,BHADAVADE,18.0904,74.0463,Bhadavade,18.09800427,74.04239969
322,Khandala,0.439524848872,BHADE,18.10214,74.09224,Bhade,18.09884783,74.09454154
323,Khandala,2.69266321345,BHATGHAR,18.16549,73.85445,Bhatghar,18.17131065,73.87918914
324,Khandala,1.29780521673,BHOLI,18.11456,74.02792,Bholi,18.12476922,74.0219685
325,Khandala,1.14913368955,BORI,18.01324,74.10388,Bori,18.01140823,74.09318507
326,Khandala,0.527113334915,DHANAGARWADI,18.12792,73.99805,Dhangarwadi,18.12497734,73.9941394
327,Khandala,0.291396610889,DHAVADWADI,18.03337,74.05688,Dhawadwadi,18.03365143,74.05962004
328,Khandala,0.830380044692,GHATDARE,18.01837,74.0708,Ghatdare,18.02548374,74.07318935
329,Khandala,0.341547717226,GUTHALWADI,18.14395,73.91492,Guthalwadi,18.1423648,73.91215139
330,Khandala,0.418975844836,HARALI,18.01868,74.04668,Harali,18.02216821,74.04518181
331,Khandala,0.933358977236,RAJEWADI,18.15378,73.8968,Hartali,18.16183048,73.89429905
332,Khandala,1.24688315479,KANHAVADI,18.11397,73.86799,Kanhavadi,18.10932228,73.87872694
333,Khandala,0.630558614611,KARADWADI,18.0778,74.13653,Karadwadi,18.07531299,74.14189089
334,Khandala,1.19404568762,KAVATHE,18.08418,73.93865,Kavathe,18.07977623,73.94895259
335,Khandala,1.21458908688,KESURDI,18.09098,73.97986,Kesurdi,18.08321624,73.98794299
336,Khandala,2.17684904191,KHANDALA,18.05983,74.01671,Khandala,18.0415812,74.02416458
337,Khandala,0.990653478468,KHED - BK.,18.03715,74.14405,Khed Bk.,18.04226506,74.13637841
338,Khandala,1.34571136404,LONAND,18.04146,74.18873,Lonand (CT),18.04975196,74.17945871
339,Khandala,0.448715522437,LONI,18.11752,74.04368,Loni,18.11859038,74.04777383
340,Khandala,0.778545552033,MARIAICHIWADI,18.07531,74.16536,Mariachiwadi,18.07819142,74.17207256
341,Khandala,0.63369654107,MHAVASHI,18.05904,74.05407,Mhavashi,18.05753198,74.04828943
342,Khandala,0.411739895903,MIRAJE,18.11971,73.92896,Mirje,18.12073867,73.92521727
343,Khandala,0.429349865139,SHIRWAL,18.14786,73.97648,Moh tarf shirwal,18.14453211,73.97854062
344,Khandala,0.398592328592,MORVE,18.08074,74.08725,Morve,18.07738405,74.08592475
345,Khandala,0.910726090067,NAIGAON,18.10942,73.96433,Naigaon,18.10140911,73.96612399
346,Khandala,0.929001530621,NIMBODI,18.00549,74.14793,Nimbodi,18.01351662,74.15036775
347,Khandala,0.622928334273,PALASHI,18.1217,73.95754,Palashi,18.12117079,73.95167186
348,Khandala,0.622726816386,PARGAON,18.0593,74.01369,Pargaon,18.05696048,74.00833814
349,Khandala,1.63288788795,PIMPARE - BK.,18.10535,74.19152,Pimpare Bk.,18.11771482,74.19985496
350,Khandala,2.11077435827,RAJEWADI,18.15378,73.8968,Rajewadi,18.17178272,73.89046409
351,Khandala,2.31041901845,ANDORI,18.08978,74.14512,Rui,18.11046624,74.14306678
352,Khandala,0.650069369645,SANGAVI,18.12245,73.97117,Sangvi,18.12215467,73.9773135
353,Khandala,0.38580471542,SHEDAGEWADI,18.10076,74.11711,Shedgewadi,18.10285061,74.12002324
354,Khandala,0.144635417261,SHEKHMIRWADI,18.10681,74.02604,Shekhmirwadi,18.10565121,74.02541835
355,Khandala,0.264765510818,SHINDEWADI,18.16431,73.9517,Shindewadi,18.16193132,73.9518128
356,Khandala,0.429349865139,SHIRWAL,18.14786,73.97648,Shirwal (CT),18.14453211,73.97854062
357,Khandala,1.17668843038,SHIVAJINAGAR,18.08956,74.04956,Shivajinagar,18.07972576,74.04544911
358,Khandala,2.31248657693,SUKHED,18.01845,74.11062,Sukhed,18.03763932,74.10218908
359,Khandala,0.933060606471,TONDAL,18.12231,74.05677,Tondal,18.11584539,74.06239902
360,Khandala,0.81613397793,WADGAON,18.10387,73.94846,Vadgaon,18.09890982,73.94276838
361,Khandala,0.409426208507,RAJEWADI,18.15378,73.8968,Wadwadi,18.15130483,73.89966878
362,Khandala,0.975679809648,WAGHOSHI,18.07234,74.12927,Waghoshi,18.06907326,74.12070374
363,Khandala,0.468197621033,WANECHIWADI,18.02663,74.00069,Wanyachiwadi,18.03083754,74.00052115
364,Khandala,1.90986969759,WING,18.15744,73.91304,Wing,18.15599681,73.93105199
365,Khatav,1.91579866741,GADEWADI,17.6352,74.31747,Amalewadi,17.64160598,74.30068698
366,Khatav,0.280992206202,AMBAVADE,17.50452,74.47699,AMBAVADE,17.50374951,74.47951355
367,Khatav,2.16845191374,AMBHERI,17.60052,74.29966,Ambheri,17.59177843,74.28137194
368,Khatav,1.07172725762,ANPATWADI,17.79968,74.2746,Anpatwadi,17.79446524,74.26608689
369,Khatav,2.05133370224,ANPHALE,17.46291,74.56438,Anphale,17.46974038,74.58234535
370,Khatav,0.891044323179,AUNDH,17.54253,74.3341,Aundh,17.53891985,74.32659707
371,Khatav,1.71298425017,BANPURI,17.53732,74.5124,Banpuri,17.5220343,74.51440867
372,Khatav,4.6726596501,BHANDEWADI,17.67332,74.34294,Bhandewadi,17.63367066,74.32833088
373,Khatav,2.72070881234,BHOSARE,17.6063,74.3395,Bhosare,17.58854748,74.32183509
374,Khatav,3.71868560223,BHURAKAVADI,17.63574,74.40228,Bhurakvadi,17.61488212,74.37485087
375,Khatav,2.21588576643,BHUSHANGAD,17.46758,74.40794,Bhushangad,17.45863592,74.42660846
376,Khatav,2.7126266171,JAMB,17.62854,74.28899,Bitalewadi,17.63242556,74.26371921
377,Khatav,1.16762265111,BOMBALE,17.59336,74.52429,Bombale,17.60151188,74.53123395
378,Khatav,0.702652159059,BUDH,17.77073,74.33226,Budh,17.76560703,74.3283752
379,Khatav,1.29403775406,CHINCHANI,17.81616,74.26145,Chinchani,17.81567572,74.24923683
380,Khatav,1.59288336104,CHITALI,17.41983,74.49705,Chitali,17.409827,74.50779686
381,Khatav,0.622247149329,CHORADE,17.42286,74.37635,Chorade,17.42212546,74.38216433
382,Khatav,0.201045681243,DALMODI,17.58766,74.50178,Dalmodi,17.58585855,74.50161812
383,Khatav,0.900917723607,DAMBHEWADI,17.60055,74.55579,Dambhewadi,17.59380894,74.56050542
384,Khatav,0.396120088477,DARAJAI,17.66976,74.40865,Darajai,17.66657181,74.41031805
385,Khatav,2.16378196737,DARUJ,17.65772,74.40403,Daruj,17.64918145,74.38567987
386,Khatav,1.02553139502,DATEWADI,17.51226,74.55585,Datewadi,17.50489903,74.56167661
387,Khatav,1.85861861872,DHAKATWADI,17.61681,74.37216,Dhakarwadi,17.60157351,74.37937097
388,Khatav,1.63166275799,DHARPUDI,17.67885,74.38839,Dharpudi,17.6726334,74.3744394
389,Khatav,1.5781697227,DHOKALWADI,17.47787,74.60486,Dhokalwadi,17.46726711,74.61475114
390,Khatav,2.30154814653,DHONDEWADI,17.48604,74.52477,Dhondewadi,17.47874113,74.54507669
391,Khatav,0.881973474942,DISKAL,17.81413,74.29465,Diskal,17.80897951,74.30098573
392,Khatav,1.90329092109,ENKUL,17.55888,74.57373,Enkul,17.55564145,74.59135876
393,Khatav,2.22864077761,PHADATARWADI - NER,17.74111,74.31571,Fadtarwadi,17.72214443,74.30890482
394,Khatav,0.909836631491,PHADTARWADI (BUDH),17.75968,74.31291,Fadtarwadi Bk,17.7581497,74.30446983
395,Khatav,2.54890537027,GADEWADI,17.6352,74.31747,Gadewadi,17.64911876,74.29835778
396,Khatav,3.57525624371,AUNDH,17.54253,74.3341,Ganeshwadi,17.51404119,74.31846757
397,Khatav,1.53367758821,GANESHWADI,17.5766,74.46607,Ganeshwadi,17.57358085,74.45195284
398,Khatav,3.01127944632,GARALEWADI,17.40589,74.68455,Garalewadi,17.41009611,74.65651343
399,Khatav,0.167536369698,GARAVADI,17.82168,74.32698,Garavadi,17.82215692,74.32848126
400,Khatav,0.288573358209,GARUDI,17.46747,74.68544,Garudi,17.46501468,74.68455885
401,Khatav,2.67024991207,GIRIJASHANKARWADI,17.4605,74.25905,Girijashankarwadi,17.45655935,74.23421747
402,Khatav,1.45035301369,GOPUJ,17.53298,74.39608,Gopuj,17.5211892,74.39023122
403,Khatav,1.57258612903,GOREGAON (NIM),17.49269,74.49587,Goregaon  (N) (Vangi),17.48333942,74.50699455
404,Khatav,1.02456137449,GOREGAON-WANGI,17.43881,74.32385,Goregaon (vangi),17.42978163,74.32192066
405,Khatav,2.18358933672,GOSAVYACHIWADI,17.55064,74.37064,Gosavyachiwadi,17.53464946,74.38259483
406,Khatav,1.91983004769,GUNDEWADI,17.43405,74.49567,Gundewadi,17.43640104,74.51359832
407,Khatav,1.27555891073,GURSALE,17.5221,74.4406,Gursale,17.52683365,74.42964227
408,Khatav,0.357918983952,HINGANE,17.60952,74.49716,Hingane,17.60639427,74.49635361
409,Khatav,1.77932062175,HIWARWADI,17.50306,74.61173,Hivarwadi,17.49636543,74.62696943
410,Khatav,0.773210022304,HOLICHAGAON,17.46959,74.43473,Holichagaon,17.46769458,74.4277162
411,Khatav,1.59341511409,JAIGAON,17.57425,74.31821,Jaigaon,17.56460175,74.30709638
412,Khatav,2.59978000966,JAKHANGAON,17.64635,74.3231,Jakhangaon,17.62950371,74.30608777
413,Khatav,2.03110817733,JAMB,17.62854,74.28899,Jamb,17.61974091,74.27219449
414,Khatav,1.39990851947,KALAMBI,17.48844,74.30236,Kalambi,17.48466494,74.28976771
415,Khatav,2.21923350374,KALEDHON,17.4313,74.64491,Kaledhon,17.4312365,74.66582859
416,Khatav,2.5196683455,KALEWADI,17.81116,74.26495,Kalewadi,17.80040213,74.24400319
417,Khatav,1.5272733056,KANHARWADI,17.52433,74.60622,Kanharwadi,17.51720477,74.61853366
418,Khatav,2.85427022935,KANKATRE,17.4672,74.58596,Kankatre,17.44399815,74.57444925
419,Khatav,1.68022054129,KANASEWADI,17.55681,74.60438,Kansewadi,17.54743945,74.61681307
420,Khatav,0.441079156022,KARANDEWADI,17.51706,74.33807,Karandewadi,17.52041583,74.34028788
421,Khatav,1.51845817564,KATARKHATAV,17.56968,74.52264,Katarkhatav,17.55772934,74.52957092
422,Khatav,1.88167439313,KATEWADI,17.75545,74.31982,Katewadi,17.76547777,74.30550668
423,Khatav,1.24973510399,KATGUN,17.69817,74.34779,Katgun,17.69021761,74.33945347
424,Khatav,1.06774715477,KHABALWADI,17.55655,74.29219,Khabalwadi,17.55115675,74.28385713
425,Khatav,0.380591673545,KHARSHINGE,17.50633,74.35169,Kharashinge,17.50421474,74.34886845
426,Khatav,0.450061071503,KHATAV,17.65398,74.36146,Khatav,17.65307374,74.35732032
427,Khatav,1.27901349938,KHATGUN,17.68039,74.33318,Khatgun,17.69021761,74.33945347
428,Khatav,1.69331544681,KHATVAL,17.539,74.57752,Khatval,17.52824985,74.58883149
429,Khatav,1.37951622513,KOKARALE,17.60743,74.31794,Kokarale,17.60322657,74.30569393
430,Khatav,2.398561442,KUMATHE,17.56865,74.3963,Kumathe,17.55422473,74.37947823
431,Khatav,1.15282567258,RAJACHE KURLE,17.44779,74.27466,Kurle,17.44148678,74.26603171
432,Khatav,1.82405810354,SIDHESHWAR KUROLI,17.59834,74.39264,Kuroli,17.58503104,74.38257954
433,Khatav,0.900281928794,LADEGAON,17.47781,74.3537,Ladegaon,17.47069225,74.34965458
434,Khatav,0.183669262401,LALGUN,17.7799,74.294,Lalgun,17.78077484,74.29547136
435,Khatav,1.34432859879,LANDEWADI,17.51643,74.27205,Landewadi,17.51264214,74.26001074
436,Khatav,2.42322959251,LONI,17.6129,74.3557,Loni,17.59480771,74.34295457
437,Khatav,0.784165141908,MANDAVE,17.64484,74.48789,Mandave,17.63924088,74.48339087
438,Khatav,2.2155179763,MANEWADI TUPEWADI,17.54234,74.53463,Manetupewadi,17.53570449,74.51492678
439,Khatav,1.30630200632,MANJARWADI,17.8678,74.28196,Manjarwadi,17.86258712,74.27089867
440,Khatav,1.42178819104,MARADWAK,17.47299,74.4969,Maradwak,17.46674153,74.50859515
441,Khatav,1.77575607671,MAYANI,17.44207,74.54994,Mayani,17.44436938,74.56650511
442,Khatav,1.22853310076,MHASURNE,17.41997,74.43931,Mhasurne,17.41435201,74.44928065
443,Khatav,1.5723547375,MOL,17.84301,74.28181,Mol,17.83401148,74.27035126
444,Khatav,1.84086733115,MORALE,17.45508,74.49608,Morale,17.45121121,74.51295375
445,Khatav,1.57235651087,MULIKWADI,17.46566,74.65051,Mulikwadi,17.45619202,74.6615203
446,Khatav,3.09007162165,NAGNATHAWADI,17.76828,74.29812,Nagnathawadi,17.75192083,74.27453154
447,Khatav,3.17627454684,NAIKACHIWADI,17.58725,74.41948,Naikachiwadi,17.57218548,74.44493861
448,Khatav,1.22606536983,NANDOSHI,17.5328,74.30308,Nandoshi,17.53057121,74.29175531
449,Khatav,1.90239963249,NADHAVAL,17.55224,74.46559,Nathaval,17.53516659,74.46674174
450,Khatav,1.24968987693,NAVALEWADI,17.77846,74.27189,Navalewadi,17.76877382,74.26590458
451,Khatav,1.6639052968,NER,17.7269,74.30064,Ner,17.71488227,74.29128009
452,Khatav,2.07377797315,NIDHAL,17.7065,74.40743,Nidhal,17.70450932,74.38796458
453,Khatav,0.579045885482,NIMSOD,17.45373,74.46442,Nimsod,17.4561918,74.46923034
454,Khatav,0.873012970811,PACHWAD,17.48707,74.65052,Pachwad,17.48320102,74.65768266
455,Khatav,1.3729928481,PADAL,17.50364,74.5876,Padal,17.49628105,74.59799629
456,Khatav,1.63478065091,PALASGAON,17.53935,74.54744,Palasgaon,17.52720727,74.55613244
457,Khatav,0.3543103134,PALASHI,17.49761,74.36798,Palashi,17.49593631,74.36513704
458,Khatav,0.310025615919,PANDHARWADI,17.81,74.27368,Pandharwadi,17.80759303,74.275158
459,Khatav,0.655035715989,PANGARKHEL,17.7868,74.32287,Pangarkhel,17.79207676,74.32011967
460,Khatav,1.96140050339,PARGAON,17.43781,74.31136,Pargaon,17.43070957,74.29443541
461,Khatav,0.607491297574,PAWARWADI,17.72852,74.28148,Pawarwadi,17.73301525,74.27822026
462,Khatav,1.03334505934,PEDGAON,17.64845,74.45354,Pedgaon,17.64488033,74.44453616
463,Khatav,2.22095957511,PIMPARI,17.51035,74.50798,Pimpari,17.49763919,74.52413515
464,Khatav,1.4239491238,PUSEGAON,17.70807,74.3185,Pusegaon,17.6997958,74.30824025
465,Khatav,1.87374149644,PUSESAVALI,17.46098,74.31839,Pusesawali,17.46151878,74.30073407
466,Khatav,0.624865130013,RAHATANI,17.44386,74.37607,Rahatani,17.44734555,74.38069051
467,Khatav,0.736465406919,RAJAPUR,17.78638,74.34144,Rajapur,17.79193639,74.34522561
468,Khatav,3.97381562162,JAKHANGAON,17.64635,74.3231,Ramoshiwadi,17.64082152,74.28605001
469,Khatav,1.21789967097,RANSINGWADI,17.74985,74.37085,Ranshingwadi,17.74288501,74.36197465
470,Khatav,1.14813627447,REVALKARWADI,17.66203,74.27798,Revalkarwadi,17.65705489,74.26848473
471,Khatav,3.06546137991,SATEWADI,17.61677,74.43343,Satewadi,17.62126784,74.46196766
472,Khatav,2.18355868727,SHINDEWADI,17.79003,74.27819,Shindewadi,17.78306913,74.25890616
473,Khatav,2.11211307728,SHIRSWADI,17.49993,74.43057,Shirsawadi,17.49768822,74.45034716
474,Khatav,,SURYACHIWADI,,,Suryachiwadi,18.89823234,75.66626074
475,Khatav,0.133535510425,TADAVALE,17.63255,74.51387,Tadavale,17.6313497,74.51382972
476,Khatav,1.46376373257,TARASWADI,17.45536,74.68874,Taraswadi,17.4422713,74.69021326
477,Khatav,1.21970538622,TRIMALI,17.51788,74.29309,Trimali,17.51244565,74.28309847
478,Khatav,2.28603148036,UMBARDE,17.55334,74.43388,Umbarde,17.55239241,74.41234016
479,Khatav,1.27396194309,UMBARMALE,17.71501,74.36763,Umbarmale,17.71108538,74.35633046
480,Khatav,1.12227963883,UNCHITHANE,17.47187,74.33725,Unchithane,17.46720372,74.32786782
481,Khatav,1.02204757416,VADGAON ( J.S.),17.4501,74.34581,Vadgaon (J.s.),17.44091071,74.34559899
482,Khatav,1.59202994076,VADI,17.50124,74.296,Vadi,17.49640436,74.28186996
483,Khatav,0.374624222284,WANZOLI,17.47147,74.37908,Vanzoli,17.46877699,74.37695766
484,Khatav,1.22697579406,VARDHANGAD,17.72371,74.26727,Vardhangad,17.71272689,74.26838623
485,Khatav,2.92036565994,VARUD,17.5814,74.36882,Varud,17.5661764,74.34637106
486,Khatav,1.78041116063,VETANE,17.74784,74.34361,Vetane,17.73279789,74.33784907
487,Khatav,1.3072460953,VIKHALE,17.46057,74.62033,Vikhale,17.46519698,74.6316597
488,Khatav,3.10745659344,VISAPUR,17.68804,74.30157,Visapur,17.67703774,74.27460699
489,Khatav,1.46622123954,WAKALWADI,17.49902,74.3982,Wakalwadi,17.49143661,74.40951041
490,Khatav,1.84691145207,WAKESHWAR,17.60204,74.42223,Wakeshwar,17.61349332,74.40960948
491,Khatav,1.36462722632,YERALWADI,17.5493,74.50009,Yaralwadi,17.54002827,74.49165743
492,Khatav,1.90148035256,YELIV,17.49987,74.33767,Yeliv,17.49078176,74.32248197
493,Khatav,1.41568134358,YELMARWADI,17.58157,74.5582,Yelmarwadi,17.57108631,74.56577761
494,Koregaon,1.99516973785,AMBAWADE S. KOREGAON,17.78479,74.15367,Ambawade s. koregaon,17.776869,74.13676239
495,Koregaon,1.38250845937,AMBAVADE-S-WAGHOLI,17.81671,74.08884,Ambawade s.wagholi,17.80598567,74.08223258
496,Koregaon,0.675025814264,AMBHERI,17.60329,74.24922,Ambheri,17.59861605,74.24515585
497,Koregaon,0.945341537296,ANPATWADI,17.8796,74.0821,Anpatwadi,17.87315522,74.08792591
498,Koregaon,0.820011817974,APSHINGE,17.61565,74.22255,Apshinge,17.60929052,74.21863262
499,Koregaon,0.937310021925,ARABWADI,17.83248,74.0763,Arabwadi,17.82449798,74.07345357
500,Koregaon,0.756777740483,ARVI,17.5119,74.2264,Arvi,17.50654459,74.22199603
501,Koregaon,0.993363879881,ASANGAON,17.86341,74.09284,Asangaon,17.85870088,74.08486399
502,Koregaon,3.00570870725,ASGAON,17.74834,74.14529,Asgaon,17.72424957,74.13241742
503,Koregaon,2.55206915708,BARGEWADI,17.76423,74.13704,Bagewadi,17.74211816,74.13058192
504,Koregaon,0.514890147678,BANAWADI,17.84326,74.06583,Banawadi,17.83870237,74.0649703
505,Koregaon,1.1681756539,BHADALE,17.84647,74.217,Bhadale,17.83634706,74.21995174
506,Koregaon,2.59713193175,BHAKARWADI,17.71856,74.14226,Bhakarwadi,17.71064717,74.11919079
507,Koregaon,1.48498365428,BHAKTVADI,17.78224,74.10131,Bhaktawadi,17.7698265,74.09613813
508,Koregaon,2.15692422731,BHANDARMACHI,17.73625,74.24936,Bhandarmachi,17.71999772,74.23824275
509,Koregaon,2.97088603939,BHATAMWADI,17.71541,74.24327,Bhatamwadi,17.69500369,74.22516651
510,Koregaon,2.18214893689,BHAVENAGAR,17.94122,74.10379,Bhavenagar,17.95315084,74.12016827
511,Koregaon,0.882306343349,BHIMNAGAR,17.76954,74.08437,Bhimnagar,17.76616796,74.07682762
512,Koregaon,1.86966214458,BHOSE,17.74396,74.20302,Bhose,17.73044109,74.19252307
513,Koregaon,2.3619954217,BICHUKALE,17.84603,74.14563,Bichukale,17.8258573,74.13863955
514,Koregaon,0.812627244709,BORJAIWADI,17.75234,74.23425,Borjaiwadi,17.74503708,74.23453976
515,Koregaon,2.71795059955,CHANCHALI,17.77012,74.17999,Chanchali,17.74622724,74.17457424
516,Koregaon,1.74893337289,CHOUDHARWADI,17.91395,74.0588,Chaudharwadi,17.90581068,74.04465583
517,Koregaon,1.0180945587,CHAWANESHWAR,17.931,74.01758,Chawaneshwar,17.92494937,74.02480246
518,Koregaon,1.77163862209,CHILEWADI,17.87131,74.23705,Chilewadi,17.86714497,74.25320818
519,Koregaon,0.930083153609,CHIMANGAON,17.73221,74.22366,Chimangaon,17.72384947,74.22392843
520,Koregaon,2.09883214612,DHAMNER,17.61797,74.16218,Dhamner,17.60124291,74.15300479
521,Koregaon,2.39844502226,DHUMALWADI,17.77896,74.13668,Dhumalwadi,17.75894355,74.12824027
522,Koregaon,0.155463052492,DUDHANWADI,17.8543,74.05845,Dudhanwadi,17.85417659,74.05698688
523,Koregaon,2.16517960302,DUDHI,17.64338,74.17858,Dudhi,17.62783035,74.16628176
524,Koregaon,0.885295885004,DURGALWADI,17.49682,74.13431,Durgalwadi,17.49332348,74.1268103
525,Koregaon,2.11276217736,EKAMBE,17.68063,74.23196,Ekambe,17.66521755,74.2202976
526,Koregaon,2.60256992631,EKSAL,17.66951,74.18287,Eksal,17.65304416,74.16541313
527,Koregaon,1.29747509277,GHIGEWADI,17.90234,74.09764,Ghigewadi,17.89576766,74.10777184
528,Koregaon,1.86069036348,GODASEWADI,17.64804,74.16855,Godsewadi,17.64284516,74.15185783
529,Koregaon,2.67227291362,GUJARWADI  PALASHI,17.831,74.13325,Gujarwadi,17.80888447,74.12337092
530,Koregaon,1.15312006051,HASEWADI,17.86592,74.22497,Hasewadi,17.86818158,74.23560349
531,Koregaon,2.18843574057,HIVARE,17.82691,74.19546,Hivare,17.80871071,74.1875905
532,Koregaon,0.798925157652,JAGTAPWASTI,17.93923,74.07168,Jagtapwadi,17.93403109,74.0768926
533,Koregaon,2.54905753722,JALGAON,17.73928,74.13323,Jalgaon,17.72110532,74.11856184
534,Koregaon,1.56924550894,JAREWADI,17.68244,74.12769,Jarewadi,17.67042547,74.11991937
535,Koregaon,2.15819167511,KANHERKHED,17.64175,74.22896,Kanherkhed,17.63103203,74.21198054
536,Koregaon,1.47142131779,KARANJKHOP,17.94419,74.05186,Karanjkhop,17.93864055,74.03923303
537,Koregaon,2.9608889872,KANHERKHED,17.64175,74.22896,Katewadi,17.62760315,74.20528853
538,Koregaon,1.56629942821,KATHAPUR,17.63332,74.14992,Kathapur,17.63474029,74.13521473
539,Koregaon,1.9443637006,KAWADEWADI,17.83455,74.20262,Kawadewadi,17.82348687,74.18839543
540,Koregaon,0.497560889131,KHAMAKARWADI,17.82528,74.08976,Khamakarwadi,17.82918563,74.09205389
541,Koregaon,1.93295280913,KHED,17.76307,74.15473,Khed,17.74576768,74.15296846
542,Koregaon,1.52856808605,KINHAI,17.79562,74.16945,Kinhai,17.78541555,74.15977643
543,Koregaon,1.61858209336,KIROLI,17.533,74.17235,Kiroli,17.52644979,74.15871772
544,Koregaon,1.75496640303,KOLAVADI,17.79737,74.10974,Kolavadi,17.78160075,74.11042649
545,Koregaon,2.51298896634,KOMBADWADI,17.51135,74.24453,Kombadwadi,17.51670893,74.22150745
546,Koregaon,2.68313365056,KOREGAON,17.69864,74.16236,Koregaon (CT),17.71995751,74.15049181
547,Koregaon,2.369145971,KUMATHE,17.72078,74.18169,Kumathe,17.70474867,74.16695762
548,Koregaon,2.42641448483,LHASURNE,17.70197,74.14254,Lhasurne,17.68972272,74.12358278
549,Koregaon,1.07910192643,MADHWAPURWADI,17.80772,74.17528,Madanapurwadi,17.79986295,74.16929735
550,Koregaon,0.918868740113,MANGALAPUR,17.65857,74.11676,Mangalapur,17.65035814,74.11772877
551,Koregaon,1.42836816862,MOHITEWADI,17.51698,74.17015,Mohitewadi,17.50603245,74.16310322
552,Koregaon,1.10001028989,MORBEND,17.95965,74.04021,Moreband,17.96200209,74.0503112
553,Koregaon,1.48186330701,NAGEWADI,17.84826,74.23874,Nagewadi,17.83611665,74.24450742
554,Koregaon,3.17807155162,NAGZARI,17.51027,74.24246,Nagzari,17.48184133,74.23936929
555,Koregaon,0.712531790961,NALAVADEWADI- T,17.49842,74.14758,Nalavadewadi,17.49214002,74.14891605
556,Koregaon,1.98663715207,NALWADEWADI-B,17.85093,74.17831,Nalavadewadi,17.83406321,74.17212039
557,Koregaon,0.790780950247,NANDVAL,17.96,74.07123,Nandwal,17.96602901,74.07519512
558,Koregaon,1.88835769584,NAIGAON,17.9789,74.05347,Naygaon,17.99323403,74.06304493
559,Koregaon,1.5116947631,NHAVI BK,17.54666,74.25816,Nhavi bk,17.54039239,74.24550747
560,Koregaon,1.02679705994,AZADPUR,17.76726,74.22687,Nhavi kh.,17.758112,74.22554814
561,Koregaon,2.39718274968,NIGADI,17.64684,74.20314,Nigadi,17.6302679,74.18867103
562,Koregaon,5.86488566492,PARATWADI,17.83248,74.0763,Paratwadi,17.78312745,74.0958449
563,Koregaon,1.073704879,PAWARWADI,17.53686,74.27153,Pawarwadi,17.5313906,74.26318454
564,Koregaon,1.83271984546,PETH KINHAI,17.79375,74.17471,Peth Kinhai,17.78541555,74.15977643
565,Koregaon,2.43630229261,PIMPODE BK.,17.91388,74.092,Pimpode bk.,17.93354207,74.10216057
566,Koregaon,2.01807376037,PIMPODE KH.,17.831,74.1042,Pimpode kh.,17.81605886,74.09337778
567,Koregaon,2.02330185733,RAMOSHIWADI,17.71965,74.25457,Ramoshiwadi,17.70632829,74.24155856
568,Koregaon,0.876940173845,RANDULLABAD,17.95508,74.03386,Randullabad,17.96212564,74.03013507
569,Koregaon,0.591098206112,RAUTWADI,17.88935,74.06538,Rautwadi,17.885032,74.06212197
570,Koregaon,2.69915286917,REVADI,17.80038,74.099317,Revdi,17.78893992,74.07683205
571,Koregaon,3.95548742242,RIKIBDARWADI,17.45835,74.142,Rikibadarwadi,17.49334517,74.13530797
572,Koregaon,0.602046894976,RUI,17.77585,74.21486,Rui,17.77082704,74.21273758
573,Koregaon,3.2760939424,SANGAVI,17.73007,74.20176,Sangavi,17.70148856,74.19425223
574,Koregaon,1.46331873462,SAP,17.58258,74.23494,Sap,17.5775423,74.22218684
575,Koregaon,0.750588605027,SARKALWADI,17.90982,74.05201,Sarkalwadi,17.91413005,74.0574697
576,Koregaon,1.31686498504,SASURVE,17.62097,74.18068,Sasurve,17.61090747,74.17412786
577,Koregaon,2.01330032556,SATHEWADI,17.50169,74.2002,Sathewadi,17.50708737,74.18207798
578,Koregaon,2.16587127647,SHENDURJANE,17.78578,74.19879,Shendurjane,17.76821694,74.18994526
579,Koregaon,1.96142033596,SHIRAMBE,17.65849,74.1922,Shirambe,17.64644808,74.17867342
580,Koregaon,2.14852554709,SHIRDHON,17.67555,74.14228,Shirdhon,17.65776094,74.13436378
581,Koregaon,1.41314871452,SONAKE,17.93244,74.07482,Sonake,17.92520734,74.06383672
582,Koregaon,1.73346797513,SURLI,17.55022,74.20278,Surli,17.54708658,74.1867633
583,Koregaon,3.05969916734,TADAWALE S.KOREGAON,17.74634,74.1587,Tadawale s.koregaon,17.71995751,74.15049181
584,Koregaon,0.428467267405,TADAVALE-S-WAGHOLI,17.9155,74.14033,Tadawale s. wagholi,17.91369933,74.14391027
585,Koregaon,0.777137743249,TAKALE,17.54334,74.15838,Takale,17.5379499,74.16304582
586,Koregaon,1.5297087692,TALIYE,17.86453,74.14764,Talaye,17.85078528,74.14825059
587,Koregaon,0.678630294566,TARGAON,17.5112,74.14668,Targaon.,17.50517126,74.14568427
588,Koregaon,1.41909642848,TRIPUTI,17.69384,74.10363,Triputi,17.68159327,74.09986124
589,Koregaon,1.52635614183,VELANG  K.,17.64009,74.22668,Velang,17.62822495,74.21943697
590,Koregaon,3.68733287978,VELANG  SHI.,17.65223,74.19543,Velang,17.62822495,74.21943697
591,Koregaon,0.81656183956,VELU,17.5768,74.25811,Velu,17.56950609,74.25721616
592,Koregaon,1.39132853405,VIKHALE,17.87284,74.17774,Vikhale,17.86351998,74.18651178
593,Koregaon,1.24062532411,WAGHOLI,17.90299,74.08112,Wagholi,17.89196621,74.08292778
594,Koregaon,3.36259513518,WATHAR- [KIROLI],17.52661,74.19043,Wathar kiroli,17.52644979,74.15871772
595,Koregaon,1.89605562165,WATHAR STN.,17.89115,74.13585,Wathar station,17.87537186,74.14264423
596,Mahabaleshwar,1.655237727,ACHALI,17.86535,73.70031,Achali,17.86904559,73.71546059
597,Mahabaleshwar,2.28274513797,MOLESHWAR,17.88435,73.72501,Adhal,17.86510203,73.73251102
598,Mahabaleshwar,1.15863597684,AHIRE,17.75626,73.7311,Ahire,17.74601276,73.72911676
599,Mahabaleshwar,0.386019064634,AKALPE,17.72766,73.69412,Akalpe,17.72837072,73.69768743
600,Mahabaleshwar,0.810603617411,AMBRAL,17.90981,73.83681,Ambral,17.91317276,73.84360745
601,Mahabaleshwar,0.496912667146,ARAW,17.72615,73.62716,Araw,17.72438538,73.63147031
602,Mahabaleshwar,1.48750956069,AVAKALI,17.92616,73.70919,Avakali,17.93926108,73.71203352
603,Mahabaleshwar,0.841786925693,WALANE,17.76896,73.70725,Awalan,17.76467943,73.70069331
604,Mahabaleshwar,1.70908743145,BHEKAVALI,17.91326,73.69316,Bhekavali,17.91342107,73.70931237
605,Mahabaleshwar,0.580395706267,BHILAR,17.91251,73.7624,Bhilar,17.91613905,73.76634275
606,Mahabaleshwar,0.558669412655,BHOSE,17.92712,73.759111,Bhose,17.9302421,73.76324833
607,Mahabaleshwar,0.477618186169,BIRMANI,17.88766,73.58393,Birmani,17.8892965,73.5881031
608,Mahabaleshwar,1.08550174337,BIRVADI,17.89586,73.63351,Birwadi,17.89984437,73.64287526
609,Mahabaleshwar,0.978032620527,CHATURBET,17.8623,73.62918,Chaturbet,17.85362439,73.62765845
610,Mahabaleshwar,1.01570239349,DABHE  DABHEKAR,17.82662,73.62844,Dabhe  dabhekar,17.81756374,73.62718742
611,Mahabaleshwar,1.29297126002,DABHE MOHAN,17.83113,73.62847,Dabhe mohan,17.83196303,73.61628663
612,Mahabaleshwar,1.29297126002,DABHE MOHAN,17.83113,73.62847,Dabhe turuk,17.83196303,73.61628663
613,Mahabaleshwar,0.833509876565,DANDEGHAR,17.93263,73.81707,Dandeghar,17.93577659,73.82422099
614,Mahabaleshwar,2.19078576374,DANAVALI,17.90073,73.7454,Danvali,17.90198008,73.76606286
615,Mahabaleshwar,3.47010881239,JAWALI,17.94197,73.61393,Dare,17.94909367,73.64586726
616,Mahabaleshwar,0.76154927695,DEVALI,17.84345,73.65534,Devali,17.84635145,73.66185737
617,Mahabaleshwar,1.46870171392,DEVASARE,17.85824,73.70504,Devasare,17.85770475,73.71890555
618,Mahabaleshwar,4.11180012144,MOLESHWAR,17.88435,73.72501,Dhardev,17.8517311,73.7433112
619,Mahabaleshwar,2.27652883417,UMBARI,17.89001,73.77013,Dhawali,17.87502104,73.78478384
620,Mahabaleshwar,1.9299045702,DUDHGAON,17.86336,73.63575,Dudhgaon,17.87050334,73.6523694
621,Mahabaleshwar,1.14916755335,METATALE,17.91385,73.62468,Dudhoshi,17.91849313,73.61497649
622,Mahabaleshwar,1.50364032691,GAVADHOSHI,17.78353,73.68839,Gavadhoshi,17.77017296,73.69060507
623,Mahabaleshwar,0.760691674949,GHAVARI,17.86185,73.68692,Ghavari,17.85711546,73.69210805
624,Mahabaleshwar,3.05934466293,CHATURBET,17.8623,73.62918,Ghonaspur,17.8436975,73.60788303
625,Mahabaleshwar,1.32483480458,GODAVALI,17.92534,73.81516,Godavali,17.92815633,73.82732761
626,Mahabaleshwar,1.2752265887,GOGAVE,17.80914,73.73297,Gogave,17.80661508,73.74471996
627,Mahabaleshwar,0.703285503135,GOROSHI,17.87516,73.63182,Goroshi,17.87723087,73.63809932
628,Mahabaleshwar,1.25198289564,GUREGHAR,17.92377,73.73421,Gureghar,17.91378412,73.73967663
629,Mahabaleshwar,1.26927232034,HARCHANDI,17.7973,73.69251,Harchandi,17.79308501,73.70365118
630,Mahabaleshwar,1.8698522427,JAWALI,17.94197,73.61393,Haroshi,17.93268051,73.62866336
631,Mahabaleshwar,0.287101478474,HATLOT,17.86734,73.60399,Hatlot,17.86706162,73.60129301
632,Mahabaleshwar,1.04184748041,JAWALI,17.94197,73.61393,Jaoli,17.94716001,73.62212967
633,Mahabaleshwar,1.41113069322,KALAMGAON,17.82648,73.66119,Kalamgaon,17.83506501,73.67100766
634,Mahabaleshwar,1.49986059392,KOTROSHI,17.81143,73.68367,Kalamgaon  kalamkar,17.82268999,73.67586928
635,Mahabaleshwar,0.914223691836,SHIRVALI,17.89791,73.61874,Kasrud,17.89102737,73.61401386
636,Mahabaleshwar,0.400286626307,KASAVAND,17.90636,73.78222,Kaswand,17.90619605,73.78599919
637,Mahabaleshwar,0.720549630416,KHAMBIL CHORGE,17.81619,73.72097,Khambil chorge,17.82217114,73.71835094
638,Mahabaleshwar,2.16375298868,SONAT,17.83808,73.70658,Khambil pokale,17.82217114,73.71835094
639,Mahabaleshwar,0.995689009309,KHAROSHI,17.80736,73.6496,Kharoshi,17.7986118,73.64759311
640,Mahabaleshwar,0.566125565687,KHINGAR,17.91459,73.82165,Khengar,17.91709041,73.82631101
641,Mahabaleshwar,0.214601608664,KOTROSHI,17.81143,73.68367,Kotroshi,17.81178857,73.68566183
642,Mahabaleshwar,0.303077972538,KSHETRAMAHABALESHWAR,17.96363,73.66263,Kshetra mahabaleshwar,17.96166237,73.6606472
643,Mahabaleshwar,0.791029855502,KUMBHROSHI,17.93588,73.59375,Kumbharoshi,17.93444163,73.60107282
644,Mahabaleshwar,1.15748365986,KUMATHE,17.90866,73.57046,Kumthe,17.90204714,73.56201167
645,Mahabaleshwar,0.97122180798,KUROSHI,17.83322,73.72885,Kuroshi,17.83275846,73.73801243
646,Mahabaleshwar,0.915977485972,LAKHWAD,17.82241,73.7372,Lakhwad,17.82011763,73.74551099
647,Mahabaleshwar,0.518681768563,LAMAJ,17.75481,73.6554,Lamaj,17.75298407,73.65990704
648,Mahabaleshwar,1.94198137173,MACHUTAR,17.89923,73.7086,Machutar,17.89606552,73.72664902
649,Mahabaleshwar,4.53168406023,DEVASARE,17.85824,73.70504,Majarewadi,17.87242311,73.74518249
650,Mahabaleshwar,2.34959707306,CHIKHALI,17.87115,73.67791,Malusar,17.89205218,73.68116466
651,Mahabaleshwar,1.37107691712,MANGHAR,17.88646,73.64741,Manghar,17.88986142,73.65986401
652,Mahabaleshwar,1.57712497979,METGUTAD,17.92284,73.70186,Metgutad,17.9314587,73.69002075
653,Mahabaleshwar,0.440404214416,SHINDI,17.71985,73.60118,Met shindi,17.71589184,73.60132742
654,Mahabaleshwar,0.848308258175,METATALE,17.91385,73.62468,Met taliye,17.91663761,73.63214337
655,Mahabaleshwar,1.65443450977,MORANI,17.72768,73.6431,Mhalunge,17.71356447,73.64803826
656,Mahabaleshwar,0.889832576533,MOLESHWAR,17.88435,73.72501,Moleshwar,17.88547213,73.73333573
657,Mahabaleshwar,0.833378594605,MORANI,17.72768,73.6431,Morni,17.73010912,73.6505437
658,Mahabaleshwar,1.58649439427,NAKINDA,17.93924,73.69687,Nakinda,17.94888537,73.68581895
659,Mahabaleshwar,1.67605083455,YERANDAL,17.88405,73.71552,Navali,17.89810863,73.7098075
660,Mahabaleshwar,0.846899535199,NIVALI,17.74244,73.66859,Nivali,17.74224426,73.67658406
661,Mahabaleshwar,0.645527800832,PANGARI,17.93769,73.77058,Pangari,17.93828113,73.77665027
662,Mahabaleshwar,1.54319439086,PARPAR,17.91812,73.58575,Parpar,17.90789022,73.5956064
663,Mahabaleshwar,1.50768860051,PARPAR,17.91812,73.58575,Parsond,17.91531943,73.57180725
664,Mahabaleshwar,1.62518965709,PARUT,17.88197,73.65896,Parut,17.87022464,73.66809979
665,Mahabaleshwar,1.14846125884,PARPAR,17.91812,73.58575,Petpar,17.92012652,73.5963981
666,Mahabaleshwar,0.239828952549,RAJPURI,17.90663,73.84443,Rajpuri,17.90552325,73.84637546
667,Mahabaleshwar,0.563163380178,RAMEGHAR,17.7945,73.7422,Rameghar,17.79182453,73.74671633
668,Mahabaleshwar,5.42562118885,PIMPRI  T. TAMB,17.717,73.72641,Ravandi,17.71756128,73.67519007
669,Mahabaleshwar,0.970114642314,RENOSHI,17.79717,73.66586,Renoshi,17.788534,73.66716142
670,Mahabaleshwar,1.35259852408,RULE,17.79186,73.6793,Rule,17.77971723,73.68005815
671,Mahabaleshwar,1.36597389218,SALOSHI,17.77119,73.62562,Saloshi,17.77112731,73.63851988
672,Mahabaleshwar,0.782080577039,BHEKAVALI,17.91326,73.69316,Shindola,17.90623506,73.69352285
673,Mahabaleshwar,0.694799750499,SHIRVALI,17.89791,73.61874,Shiravali,17.9041556,73.61854051
674,Mahabaleshwar,2.75075278229,DABHE  DABHEKAR,17.82662,73.62844,Shirnar,17.81840741,73.65295144
675,Mahabaleshwar,0.575938200292,SONAT,17.83808,73.70658,Sonat,17.83294521,73.70586634
676,Mahabaleshwar,1.34250224766,SOUNDARI,17.83985,73.71475,Soundari,17.84409726,73.7266227
677,Mahabaleshwar,0.872372677913,TAIGHAT,17.92488,73.78522,Taighat,17.93084979,73.79057021
678,Mahabaleshwar,0.575062447175,TALADEO,17.82522,73.69595,Taldev,17.82397621,73.70122298
679,Mahabaleshwar,0.669889870504,YERANDAL,17.88405,73.71552,Tekavali,17.88646677,73.72131869
680,Mahabaleshwar,0.571740121983,UCHAT,17.76269,73.63067,Uchat,17.75843822,73.63370612
681,Mahabaleshwar,1.14691698335,UMBARI,17.89001,73.77013,Umbari,17.88730563,73.78058928
682,Mahabaleshwar,2.31819146914,VANAVALI T.SOLASHI,17.76368,73.74284,Vanali t. solasi,17.75499866,73.76274296
683,Mahabaleshwar,0.895763426427,VELAPUR,17.78819,73.70765,Velapur,17.78113001,73.71172445
684,Mahabaleshwar,0.735434146356,VENGALE,17.79486,73.72394,Vengale,17.79032528,73.72899644
685,Mahabaleshwar,2.71710480691,TALADEO,17.82522,73.69595,Vivar,17.84844535,73.68797196
686,Mahabaleshwar,1.8407639265,YERANDAL,17.88405,73.71552,Yerandal,17.87606085,73.73075483
687,Mahabaleshwar,1.18901875181,YERNE BK,17.88316,73.68936,Yerne bk,17.88786042,73.69945235
688,Mahabaleshwar,1.18901875181,YERNE BK,17.88316,73.68936,Yerne kh,17.88786042,73.69945235
689,Mahabaleshwar,1.099304849,ZANZVAD,17.86074,73.64333,Zanzwad,17.8519275,73.64803768
690,Man,2.17130352174,ANDHALI,17.76239,74.47774,Andhali,17.74813371,74.46372862
691,Man,1.12402245156,BANGARWADI,17.51731,74.79691,Bangarwadi,17.52087707,74.78699166
692,Man,0.839407311799,BHALVADI,17.73456,74.73032,Bhalavadi,17.7349596,74.73823451
693,Man,1.42902984113,BHANDAVALI,17.78136,74.43855,Bhandavali,17.77150643,74.42988587
694,Man,0.573676223494,BHATAKI,17.67392,74.79389,Bhatki,17.67566653,74.79898509
695,Man,0.373139261798,BIDAL,17.73916,74.52103,Bidal,17.74251202,74.52119545
696,Man,1.12791235914,BIJAVADI,17.8247,74.5465,Bijavadi,17.81525634,74.54261083
697,Man,0.704364198609,BODAKE,17.75086,74.49896,Bodake,17.74526177,74.49584781
698,Man,1.40986677856,BOTHE,17.77748,74.37828,Bothe,17.7648761,74.37972928
699,Man,4.35144288479,CHILARWADI (N.V.),17.51364,74.59015,Chillarwadi (N.V.),17.49636543,74.62696943
700,Man,0.843906169205,DAHIWADI,17.70314,74.54425,Dahivadi,17.70278731,74.55220808
701,Man,2.7901189799,DANAVALEWADI,17.8051,74.59263,Danavalewadi,17.78998247,74.61366349
702,Man,0.784002881662,DANGIREWADI,17.78195,74.63926,Dangirewadi,17.78879449,74.63748228
703,Man,2.67281150445,DEWAPUR,17.59888,74.83111,Devapur,17.57484612,74.83069273
704,Man,2.20992422351,DHAKANI,17.60004,74.69738,Dhakani,17.58050662,74.7012253
705,Man,1.58009027836,DHAMANI,17.62369,74.67464,Dhamani,17.6096021,74.67659102
706,Man,1.96401191658,DHULDEV,17.65393,74.85293,Dhuldev,17.6680594,74.86405302
707,Man,2.70946839993,DIDWAGHWADI (DIVAD),17.6296,74.72585,Didwaghwadi (divad),17.60552096,74.72976771
708,Man,1.47189183277,DIVAD,17.6296,74.72585,Divad,17.61964763,74.71669264
709,Man,0.275325639274,DIVADI,17.68356,74.43923,Divadi (mahimangad),17.68367059,74.43663373
710,Man,1.77894629319,DORGEWADI (NARAVANE),17.5901,74.59205,Dorgewadi (Naravane),17.57692737,74.60157421
711,Man,2.27422377014,KULAKJAI,17.80056,74.3918,Gadewadi,17.8111013,74.41020862
712,Man,2.11449329948,GANGOTI,17.58677,74.76809,Gangoti,17.57336345,74.75394313
713,Man,1.34117505735,WARUGAD,17.8335,74.44463,Garadachiwadi (varugad),17.84554986,74.44407402
714,Man,1.98818145314,GATEWADI,17.60005,74.66609,Gatewadi,17.58908182,74.68090386
715,Man,1.39796881535,HASTANPUR(GHEREWADI),17.83473,74.59548,Gherewadi,17.8404927,74.607218
716,Man,1.37733785743,GONDVALE- BK.,17.67104,74.58194,Gondavale Bk.,17.65889081,74.57940653
717,Man,0.532784326136,GONDAVALE-KD.,17.66291,74.61512,Gondavale kh.,17.65842485,74.61688901
718,Man,0.548512898311,HAWALDARWADI,17.72402,74.82184,Hawaldarwadi (paryanti),17.72524292,74.82685706
719,Man,3.0553391868,HINGANI,17.63882,74.87614,Hingani,17.61259803,74.86752511
720,Man,0.856015017509,INJABAV,17.73487,74.76543,Injabav,17.74042108,74.77103005
721,Man,2.97778436966,JADHAVWADI,17.82961,74.52927,Jadhavwadi,17.8037605,74.52192006
722,Man,2.84214013563,JAMBHULNI,17.5542,74.76423,Jambhulani,17.53134162,74.75223505
723,Man,0.645383335416,JASHI,17.69556,74.66211,Jashi,17.68976488,74.66177177
724,Man,2.59005551138,KULAKJAI,17.80056,74.3918,Kalaskarwadi (kulakjai),17.82348723,74.38748172
725,Man,0.969282829914,KALCHAUNDI,17.4927,74.76565,Kalchondi,17.48655158,74.7591713
726,Man,1.92389360797,KALEWADI (NARAVANE),17.6212,74.59846,Kalewadi (Naravane),17.60470527,74.60394019
727,Man,0.420698767702,KARKHEL,17.70999,74.85169,Karkhel,17.70630619,74.85259541
728,Man,1.1463672485,KASARWADI (AANDHALI),17.73812,74.45571,Kasarwadi (Andhali),17.73042541,74.46291379
729,Man,2.21002758768,WARUGAD,17.8335,74.44463,Khandyachiwadi(varugad),17.82341462,74.46262026
730,Man,1.45105061355,KULAKJAI,17.80056,74.3918,Khokade,17.80343024,74.37842977
731,Man,0.723666571533,KHUTBAV,17.7795,74.72265,Khutbav,17.77548214,74.7280265
732,Man,1.48634386503,KIRAKSAL,17.63809,74.56588,Kiraksal,17.62498036,74.5631409
733,Man,1.30192099325,KOLEWADI,17.71294,74.4433,Kolewadi,17.70961982,74.4315135
734,Man,1.73293407545,KUKUDWAD,17.5473,74.65201,Kukudwad,17.53184782,74.65413654
735,Man,1.19503683936,KULAKJAI,17.80056,74.3918,Kulakjai,17.79173933,74.39824848
736,Man,0.376377653009,KURNEWADI,17.51739,74.84504,Kuranwadi,17.51729672,74.8485881
737,Man,1.68528343377,LODHAVADE,17.64461,74.63257,Lodhavade,17.62975983,74.63574936
738,Man,1.34712716152,MAHABALESHWAR WADI,17.50631,74.79201,Mahabaleshwar wadi,17.49433321,74.79009665
739,Man,1.34550966423,MAHIMANGAD,17.70395,74.46172,Mahimangad,17.71184307,74.4713479
740,Man,1.72019608541,MALAVADI,17.76648,74.45324,Malavadi,17.75423551,74.44331187
741,Man,3.90983817708,MANKARNAWADI,17.6646,74.64891,Mankarnawadi,17.6502269,74.68258682
742,Man,0.866126375519,MARDI,17.74054,74.69653,Mardi,17.74137622,74.68839908
743,Man,1.81200809816,MOGARALE,17.86046,74.51876,Mogarale,17.87443533,74.5275658
744,Man,0.121287469292,MOHI,17.79992,74.67507,Mohi,17.80069251,74.67587878
745,Man,1.44320627646,NARAVANE,17.60429,74.61755,Naravane,17.60470527,74.60394019
746,Man,0.818034364402,PACHVAD,17.84285,74.56053,Pachvad,17.84890596,74.56491813
747,Man,1.89139227594,PALASHI,17.67272,74.68278,Palashi,17.68370786,74.69640804
748,Man,2.82878319364,PALASAVADE,17.57811,74.86399,Palsavade,17.55579395,74.8511786
749,Man,1.28533719399,PANAVAN,17.5694,74.73084,Panavan,17.56023543,74.72345074
750,Man,1.71768333768,PANDHARWADI (MAHIMANGAD),17.70501,74.42777,Pandharwadi (mahimangad),17.69133824,74.42022192
751,Man,1.40414083081,PARKANDI,17.7999,74.46496,Parkhandi,17.78972843,74.45710074
752,Man,1.00716933803,PARYANTI,17.71834,74.80074,Paryanti,17.71883553,74.81023452
753,Man,1.64924904502,PIMPARI,17.64299,74.66608,Pimpari,17.62833163,74.66370521
754,Man,0.705636688718,PINGALI- BK.,17.67629,74.51329,Pingali Bk,17.6717107,74.50867907
755,Man,1.35573313046,PINGALI- KD.,17.6698,74.54727,Pingali Kh.,17.6590715,74.54119079
756,Man,3.18612425664,PULKOTI,17.58978,74.78593,Pulkoti,17.56149387,74.78113241
757,Man,2.03553441177,RAJVADI,17.82383,74.5596,Rajavadi,17.81525634,74.54261083
758,Man,1.33557298133,RANAND,17.7195,74.64043,Ranand,17.70763984,74.63843736
759,Man,0.833340689106,RANJANI,17.70727,74.7248,Ranjani,17.6997845,74.72518356
760,Man,0.282593959527,SAMBHUKHED,17.73913,74.7869,Sambhukhed,17.73911872,74.78956827
761,Man,1.08066797838,SATREWADI (MALAVADI),17.74615,74.43765,Satrewadi (malavadi),17.75423551,74.44331187
762,Man,0.649559663927,SHENAVADI,17.47543,74.80206,Shenwadi,17.46959286,74.80230008
763,Man,0.638124396512,SHEVARI,17.72397,74.6086,Shevari,17.71899787,74.60559165
764,Man,1.4412204336,SHINDI BK.,17.71506,74.49218,Shindi Bk.,17.70214186,74.49328823
765,Man,0.646483407268,SHINDI KD.,17.79345,74.43091,Shindi kh,17.79567459,74.42526857
766,Man,1.28723205627,SHINGANAPUR,17.85126,74.66038,Shinganapur,17.84019491,74.6639543
767,Man,1.31964290989,SHIRAVALI,17.75919,74.40449,Shiravali,17.74758324,74.40189061
768,Man,2.77942165239,SHIRTAV,17.59018,74.8088,Shirtav,17.56522067,74.80738142
769,Man,0.505808770653,SOKASAN,17.75288,74.63463,Sokasan,17.75388679,74.63928785
770,Man,1.08035810886,SWARUPKHANWADI,17.67139,74.49069,Swarupkhanwadi (mahimangad),17.66718768,74.48149619
771,Man,0.454061498137,TAKEWADI,17.79286,74.48883,Takewadi (Andhali),17.79163639,74.48473847
772,Man,0.0997683082884,THADALE,17.81572,74.63368,Thadale,17.81619683,74.63288167
773,Man,1.40875838463,TONDALE,17.82635,74.49446,Tondale,17.83553001,74.50363201
774,Man,1.44754370784,WARUGAD,17.8335,74.44463,Ugalyachiwadi (varugad),17.82462614,74.45463548
775,Man,1.52727301591,UKIRDE,17.69272,74.46419,Ukirde,17.67898701,74.46393754
776,Man,1.69331645522,WADGAON,17.75569,74.56397,Vadgaon,17.74844558,74.57803451
777,Man,0.320640023113,WALAI,17.53572,74.70322,Valai,17.53323253,74.70474969
778,Man,1.52959341413,VARKUTE MALAVADI,17.51276,74.81211,Varkute malavadi,17.51869757,74.82512184
779,Man,1.34117505735,WARUGAD,17.8335,74.44463,Varugad,17.84554986,74.44407402
780,Man,1.26709671035,VIRALI,17.50829,74.70625,Virali,17.49698046,74.70771293
781,Man,0.704493628309,WADJAL,17.56942,74.67008,Wadjal,17.56325668,74.66854052
782,Man,2.2145579932,WAKI,17.66339,74.73948,Waki,17.6440333,74.73456168
783,Man,1.19713819418,WAR-MHASWAD,17.66781,74.74339,Warkute mhaswad,17.67848496,74.74485733
784,Man,1.31352857194,WAWARHIRE,17.78357,74.60426,Wawarhire,17.77494244,74.59578631
785,Patan,1.48135822266,ADDEV,17.33753,73.89882,Aadev Kh.,17.32742791,73.88972194
786,Patan,0.913201078289,ABDARWADI,17.35308,74.01999,Abdarwadi,17.34878887,74.0126538
787,Patan,1.95293992163,CHOUGULEWADI (K),17.15484,73.96938,Acharewadi,17.14272187,73.98268436
788,Patan,1.48135822266,ADDEV,17.33753,73.89882,Adadev,17.32742791,73.88972194
789,Patan,0.489182944492,ADUL PETH,17.35169,73.95268,Adul,17.34937746,73.9487591
790,Patan,1.23465922357,AMBALE,17.50491,73.94846,Ambale,17.49496279,73.94328681
791,Patan,0.48349649034,AMBAVADE KH.,17.23839,73.91895,Ambavade kh.,17.24266483,73.91978276
792,Patan,1.39157366468,AMBAVANE,17.42567,73.87935,Ambavane,17.42179137,73.86687929
793,Patan,0.399362024943,AMBEGHAR T MARALI,17.28266,73.83125,Ambeghar tarf Marli,17.2792244,73.83015367
794,Patan,0.619463545131,AMBRAG,17.30518,73.85685,Ambrag,17.2996148,73.85658451
795,Patan,1.04315316407,AMBRULE,17.32994,73.91645,Ambrule,17.33091638,73.90667593
796,Patan,0.792993405517,ASAVALEWADI,17.273,73.96393,Asawalewadi,17.27912489,73.96010434
797,Patan,0.834550345728,ATOLI,17.28922,73.76956,Atoli,17.28231911,73.76646964
798,Patan,0.359682990066,AWARDE,17.51255,73.94237,Awarde,17.50964079,73.94088713
799,Patan,0.444670357553,BACHOLI,17.27376,73.90978,Bacholi,17.27751496,73.91122064
800,Patan,2.50254026826,KADHANE,17.25181,74.03476,Bagalwadi,17.2654396,74.01600615
801,Patan,3.41980234748,DHAVADE,17.30876,73.84709,Bahe,17.30349373,73.81535242
802,Patan,1.48716593303,BAHULE,17.30012,74.02073,Bahule,17.28675623,74.02017151
803,Patan,1.88999748221,NANEL,17.37868,73.76966,Baje,17.38297898,73.78689129
804,Patan,,BHAMBE,,,Bamanewadi,17.23098902,74.05105292
805,Patan,4.6046378907,KUMBHARGAON,17.21849,74.00972,Bamanwadi,17.23098902,74.05105292
806,Patan,2.61119641589,BAMBVADE,17.5299,73.92607,Bambavade,17.50878807,73.91528682
807,Patan,0.648383507329,BANPETHWADI,17.35136,73.86001,Banpethwadi,17.3507217,73.85393767
808,Patan,0.366404890387,BANPURI,17.26469,73.93253,Banpuri,17.26657277,73.92969809
809,Patan,0.35075865919,BELAVADE KH.,17.32967,73.92914,Belavade kh.,17.33058139,73.92597647
810,Patan,,BHAMBE,,,Bhambe,17.54290126,73.87772572
811,Patan,0.970965179839,BHARSAKHALE,17.50085,73.85576,Bharsakhale,17.49566661,73.84839181
812,Patan,1.00532959744,BHOSGAON,17.23083,73.9537,Bhosgaon,17.22493149,73.94652614
813,Patan,0.5437780678,BHUDAKEWADI,17.5197,73.9557,Bhudakewadi,17.51537161,73.95808669
814,Patan,1.06655319165,BIBI,17.40392,73.90048,Bibi,17.39854621,73.89215389
815,Patan,0.513993308925,BODAKEWADI,17.37146,74.01371,Bodakewadi,17.36744695,74.01130638
816,Patan,1.42109837851,BONDRI,17.40599,73.86944,Bondri,17.40062366,73.85728455
817,Patan,1.12073825489,DHANKAL,17.38529,73.68706,Bopoli,17.38722283,73.69742556
818,Patan,2.89002575279,MANERI,17.34301,73.79781,Chafer,17.32070269,73.78383781
819,Patan,1.05003366573,CHAPHOLI,17.46595,73.86352,Chafoli,17.46124673,73.85493575
820,Patan,1.25576709801,CHALKEWADI,17.20625,74.01222,Chalkewadi,17.19770127,74.01994525
821,Patan,0.2342197698,CHAVANWADI,17.18981,73.97864,Chavanwadi  (dhamani ),17.19013253,73.97646112
822,Patan,2.23482064032,CHIKHALEWADI,17.20947,74.00289,Chikhalewadi,17.19770127,74.01994525
823,Patan,1.15110169486,CHITEGHAR,17.40959,73.88514,Chiteghar,17.418669,73.87992737
824,Patan,0.51496404359,CHOPADI,17.34518,73.93243,Chopadi,17.340696,73.93364344
825,Patan,0.449807495525,CHOPADARWADI,17.3238,73.95564,Chopdarwadi,17.32108285,73.95250081
826,Patan,2.1055890182,CHOUGULEWADI (K),17.15484,73.96938,Chougulewadi,17.14868421,73.98812098
827,Patan,0.674445526374,CHOUGULEWADI ( S),17.32511,73.96857,Chougulewadi,17.31904629,73.96872149
828,Patan,0.843464959359,DADHOLI,17.39061,73.96534,Dadholi,17.38804854,73.95785815
829,Patan,1.27384989016,WANZOLI,17.19372,73.94764,Dakewadi (wazoli),17.18657821,73.93826376
830,Patan,,NIVADE,,,Daphalwadi,17.56248926,73.30875258
831,Patan,1.03860726634,DAVARI,17.2944,73.94513,Davari,17.28647045,73.93996022
832,Patan,1.17593397071,DERVAN,17.39286,73.99362,Dervan,17.38408493,73.98743499
833,Patan,0.507044484552,BIBI,17.40392,73.90048,Devghar tarf patan,17.40815759,73.89871512
834,Patan,1.3654947948,DHADAMWADI,17.45273,73.88607,Dhadamwadi,17.4530438,73.8989386
835,Patan,0.604537403427,DHAMANI,17.18745,73.96113,Dhamani,17.18377711,73.96532582
836,Patan,1.30674692679,DHAVADE,17.30876,73.84709,Dhavade,17.30408373,73.83579735
837,Patan,1.36551565904,DHAYATI,17.42589,73.96197,Dhayati,17.41482796,73.95638083
838,Patan,1.51931150366,DHEBEWADI,17.23681,73.95799,Dhebewadi,17.23879134,73.94383513
839,Patan,1.52320711154,DHOROSHI,17.49969,73.92912,Dhoroshi,17.48952417,73.91949289
840,Patan,,DICHOLI,,,Dicholi,17.50749668,73.73758227
841,Patan,1.14524668353,DIGEWADI,17.35804,73.95624,Digewadi,17.36817674,73.95432943
842,Patan,3.29494287723,DHAVADE,17.30876,73.84709,Dikshi,17.29143876,73.82190837
843,Patan,0.666586938769,DIVASHI - BK.,17.291,73.98049,Divashi Bk.,17.29444448,73.97535133
844,Patan,1.79966688757,DIVASHI KD.,17.45635,73.86142,Divashi kh,17.45632207,73.84445387
845,Patan,2.15983660288,DONGALEWADI,17.33284,73.8692,Donglewadi,17.33087245,73.8894431
846,Patan,0.555319992008,DUSALE,17.45593,73.96546,Dusale,17.45132037,73.96344568
847,Patan,0.655744652262,NUNE,17.50383,73.99446,Dutalwadi,17.50677584,73.99981686
848,Patan,0.523334854439,SALAVE,17.27627,73.87594,Ekavadewadi,17.27992749,73.879042
849,Patan,0.593210471469,GADKHOP,17.39114,73.75825,Gadhav  khop,17.39386276,73.76305755
850,Patan,0.528789147825,GALMEWADI,17.1845,74.00155,Galmewadi,17.18260578,73.99698422
851,Patan,1.60093338612,GAMEWADI,17.398,74.01085,Gamewadi,17.40873023,74.02091007
852,Patan,0.301174381587,GARAWADE,17.30584,74.02509,Garawade,17.3083844,74.02606255
853,Patan,1.26086629114,GAVHANWADI,17.32224,73.95528,Gavhanwadi,17.32288187,73.94342106
854,Patan,3.68075447553,BAMBVADE,17.5299,73.92607,Gaymukhwadi,17.49867894,73.91453642
855,Patan,1.19723294961,GHANAV,17.43823,73.88273,Ghanav,17.43313708,73.87278685
856,Patan,1.04546036221,GHANABI,17.43326,73.82643,Ghanbi,17.42511653,73.83135533
857,Patan,2.0955991191,DHANKAL,17.38529,73.68706,Ghatmatha,17.40275825,73.67964723
858,Patan,5.00465136457,TOLEWADI,17.37618,73.87153,Gheradategad,17.39341584,73.82796295
859,Patan,2.29230275379,GHOT,17.48771,73.9344,Ghot,17.47069128,73.92220287
860,Patan,1.11167411825,GHOTIL,17.1979,73.90643,Ghotil,17.19185783,73.89809225
861,Patan,0.92348845692,GIREWADI,17.34719,74.01795,Girewadi,17.34970432,74.02624263
862,Patan,0.529110190341,GOSHATWADI,17.36073,73.75345,Goshatwadi,17.35651141,73.75575638
863,Patan,0.718538983627,GOTHANE,17.30451,73.73832,Gothane,17.29819472,73.73688604
864,Patan,0.776813830638,GOVARE,17.34463,73.73782,Govare,17.33916548,73.73326026
865,Patan,0.700925535568,GUDHE,17.23698,73.97904,Gudhe,17.23068053,73.97880186
866,Patan,0.751259048849,GUNJALI,17.34436,73.85493,Gunjali,17.33910683,73.85047904
867,Patan,2.95569042663,PACHAGANI,17.31002,73.79299,Guteghar,17.29286108,73.81425306
868,Patan,0.62026349371,NADOLI,17.35646,73.96907,Harugdewadi,17.35292689,73.97359248
869,Patan,0.638404195655,HELWAK,17.3761,73.72657,Helwak,17.37558447,73.72057847
870,Patan,1.10534112543,HUMBARLI,17.39756,73.73999,Humbarli,17.40564436,73.73392827
871,Patan,1.60347835464,HUMBARWADI,17.30393,73.92401,Humbarwadi,17.29327238,73.91383569
872,Patan,0.557035816106,JADHAVWADI,17.40393,74.03034,Jadhavwadi,17.40877806,74.03166223
873,Patan,1.23243397071,JALAGEWADI,17.41636,74.01,Jalagewadi,17.42548139,74.00340086
874,Patan,1.37062787438,JALAV,17.50332,73.89622,Jalu,17.49513554,73.88655572
875,Patan,0.721738237979,JAMDADWADI,17.33086,73.9897,Jamdadwadi & chaugulewadi,17.32643308,73.9847275
876,Patan,0.824001674157,JANUGADEWADI,17.25334,73.94361,Janugdewadi,17.25816791,73.94949686
877,Patan,0.763137354043,JAREWADI,17.28942,74.02747,Jarewadi,17.28403871,74.023009
878,Patan,1.15431409718,JINTI,17.21808,73.88493,Jinti,17.22801663,73.8880758
879,Patan,0.368487599518,KADAVE  BK.,17.53049,73.95219,Kadave  Bk.,17.52773135,73.95026436
880,Patan,0.627381124038,KADAVE KH,17.54345,73.93917,Kadave kh,17.54493325,73.93346071
881,Patan,1.24630083793,KADHANE,17.25181,74.03476,Kadhane,17.26219703,74.03035025
882,Patan,1.23894381749,KADOLI,17.3438,73.76648,Kadoli,17.3368067,73.75739291
883,Patan,0.699187871889,KAHIR,17.27649,73.81516,Kahir,17.27259731,73.80998859
884,Patan,0.937042236736,KALAMBE,17.516,73.8952,Kalambe,17.50779847,73.8972305
885,Patan,0.946353151189,KALGAON,17.16416,73.95066,Kalgaon,17.15565038,73.95051432
886,Patan,0.31883375832,KALKEWADI,17.30068,73.896,Kalkewadi,17.29857569,73.89396002
887,Patan,1.12843567687,KALOLI,17.36148,73.88256,Kaloli,17.35156955,73.88027171
888,Patan,1.13630287041,KAMARGAON,17.41994,73.74691,Kamargaon,17.4098741,73.74875704
889,Patan,0.968812697817,KARALE,17.23964,73.86973,Karale,17.23770866,73.86083441
890,Patan,0.516218788136,KARAPEWADI,17.2316,74.00722,Karapewadi,17.23419229,74.00318768
891,Patan,0.822952638413,KARATE,17.35575,73.80111,Karate,17.35657615,73.79340442
892,Patan,0.516218788136,KARAPEWADI,17.2316,74.00722,Karpewadi,17.23419229,74.00318768
893,Patan,0.663375778467,KARVAT,17.40198,73.84433,Karvat,17.39853792,73.83922356
894,Patan,0.560175697818,KASANI,17.17358,73.89796,Kasani,17.16875547,73.89947788
895,Patan,0.104132420268,KUSRUND,17.31172,73.89516,Kasrund,17.31211493,73.89427057
896,Patan,0.428964005197,KATHI,17.48556,73.81329,Kathi,17.48362744,73.81679053
897,Patan,2.41527972337,KAVADEWADI,17.38259,73.87514,Kavadewadi,17.38373497,73.85241099
898,Patan,1.10223602832,KAWARWADI,17.35564,73.89925,Kavarwadi,17.34737703,73.89351318
899,Patan,1.85802125368,KELOLI,17.43356,73.96401,Keloli,17.44410221,73.95042116
900,Patan,2.61264944354,DHANKAL,17.38529,73.68706,Kemase,17.38732964,73.66253193
901,Patan,3.05501502755,KER,17.39996,73.88685,Ker,17.41007722,73.86008055
902,Patan,0.602052271651,KERAL,17.45128,73.87934,Keral,17.45180162,73.88498923
903,Patan,0.493557756836,KHALE,17.24722,73.9936,Khale,17.25112922,73.99139866
904,Patan,1.34542645208,KHARADWADI,17.41875,73.98366,Kharadwadi,17.41552251,73.97143833
905,Patan,1.86910821826,KHIVASHI,17.44853,73.8709,Khivashi,17.4360152,73.85913719
906,Patan,1.28669053014,KHONOLI,17.39757,73.97456,Khonoli,17.39971805,73.96264447
907,Patan,0.873625790171,KILLEMORGIRI,17.3346,73.84863,Killemorgiri,17.33052787,73.84159134
908,Patan,,ZADOLI,,,Kisrule,16.73384629,73.96457527
909,Patan,1.64610858454,KOKISARE,17.32663,73.84452,Kokisare,17.31894664,73.83126498
910,Patan,1.85620050849,CHOUGULEWADI (K),17.15484,73.96938,Kolagewadi,17.14076974,73.97878071
911,Patan,2.90758920962,NAV,17.32971,73.74268,Kolane,17.31882092,73.71777683
912,Patan,0.262613583027,KOLEKARWADI,17.227,73.90795,Kolekarwadi,17.22755396,73.91035369
913,Patan,2.10197816632,MENDEGHAR,17.37328,73.72644,Kondhavale,17.35442771,73.72498249
914,Patan,0.469445718295,KONJAVADE,17.51729,73.97641,Konjavade,17.51650941,73.97205921
915,Patan,0.675759901961,KORIVALE,17.2824,73.99916,Korivale,17.27632527,73.99934344
916,Patan,0.763154126501,KUMBHARGAON,17.21849,74.00972,Kumbhargaon,17.21600921,74.00302063
917,Patan,1.65057970746,KUSAVADE,17.51654,73.82729,Kusavade,17.52948916,73.81967985
918,Patan,2.36960825195,KUTHARE,17.20972,73.98073,Kuthare,17.20729796,73.95856548
919,Patan,0.505183432333,LENDHORI,17.34001,73.81003,Lendhori,17.33608311,73.81242358
920,Patan,3.55098706576,KALGAON,17.16416,73.95066,Loharwadi,17.15015325,73.98069578
921,Patan,0.885819075387,LUGADEWADI,17.36903,73.94533,Lugadewadi,17.36295271,73.93993333
922,Patan,1.84337113972,MAHIND,17.27377,73.90978,Mahind,17.28062025,73.89397034
923,Patan,0.511460918582,MAJGAON,17.38825,74.03875,Majgaon,17.38700535,74.03410989
924,Patan,2.71832159992,MALDAN,17.24344,73.97031,Maldan,17.24949901,73.94551131
925,Patan,1.01842603435,MALHARPETH,17.344,74.00645,Malharpeth,17.34728701,73.99749394
926,Patan,0.229182877477,MALOSHI,17.5533,73.90993,Maloshi,17.55260047,73.90789657
927,Patan,1.59632538993,MANDRULKOLE,17.24539,73.95788,Mandrulkole,17.2491209,73.97239553
928,Patan,2.09147993776,MANDRULKOLE KH.,17.25712,73.95457,Mandrulkole Kh.,17.2491209,73.97239553
929,Patan,0.381331051215,MANADURE,17.4715,73.8746,Mandure,17.47074624,73.87810733
930,Patan,1.34033669271,MANERI,17.34301,73.79781,Maneri,17.33112275,73.79990275
931,Patan,0.452453779525,MANEWADI,17.23862,74.01664,Manewadi,17.24027262,74.0205332
932,Patan,0.722528607895,MANYACHIWADI,17.25774,73.97985,Manyachiwadi,17.26421079,73.9804704
933,Patan,5.95777535911,KUMBHARGAON,17.21849,74.00972,Manyachiwadi,17.26421079,73.9804704
934,Patan,0.610492942303,MARALI,17.3083,73.95047,Marali,17.30343994,73.94779485
935,Patan,1.33756476919,MARATHWADI,17.21835,73.94064,Marathwadi,17.21168153,73.93015904
936,Patan,1.33756476919,MARATHWADI,17.21835,73.94064,Marathwadi,17.21168153,73.93015904
937,Patan,5.9541891586,KUMBHARGAON,17.21849,74.00972,Marekarwadi,17.17080171,73.98422608
938,Patan,2.05023992851,MARLOSHI,17.50134,73.91509,Marloshi,17.48958556,73.90019527
939,Patan,0.904377608109,MARUL HAVELI,17.30486,74.00823,Marul Haveli,17.30327914,73.99987364
940,Patan,0.306865234825,MASKARWADI,17.17278,73.98624,Maskarwadi,17.17080171,73.98422608
941,Patan,3.64175573434,KALGAON,17.16416,73.95066,Maskarwadi,17.17080171,73.98422608
942,Patan,0.306865234825,MASKARWADI,17.17278,73.98624,Maskarwadi No. 1,17.17080171,73.98422608
943,Patan,2.2480749964,KATWADI,17.38906,73.88596,Mastewadi,17.39114778,73.86488748
944,Patan,0.5310391747,MATHANEWADI,17.41189,74.01567,Mathanewadi,17.41623317,74.01775152
945,Patan,1.83485779328,MATREWADI,17.20137,73.93188,Matrewadi,17.21786301,73.9324266
946,Patan,1.08664866483,MANDRUL HAVELI,17.32728,74.00904,Maundrul haveli,17.32907352,73.9989768
947,Patan,1.6868686805,MENDH JADHAVWADI,17.20316,73.91927,Mendh,17.20307034,73.93515057
948,Patan,1.52719216847,MENDEGHAR,17.37328,73.72644,Mendheghar,17.36639961,73.71398536
949,Patan,0.980426502393,MENDHOSHI,17.43739,73.89622,Mendhoshi,17.43910169,73.90528612
950,Patan,1.8062979259,MHAVASHI,17.37465,73.91922,Mhavashi,17.38984161,73.92524824
951,Patan,1.18171894485,KAMARGAON,17.41994,73.74691,Mirgaon,17.42912057,73.75252097
952,Patan,1.09543079374,JINTI,17.21808,73.88493,Modakwadi,17.21747503,73.87463583
953,Patan,0.744344091062,MOREWADI,17.22381,73.96227,Morewadi (kuthare),17.22049429,73.95618185
954,Patan,0.725881312812,MORGIRI,17.32536,73.85855,Morgiri,17.33146715,73.86096563
955,Patan,1.3053223739,MULGAON,17.3663,73.90521,Mulgaon,17.3545611,73.90527137
956,Patan,1.09811299603,MURUD,17.535,73.90689,Murud,17.52787748,73.91406402
957,Patan,2.46422722248,CHOUGULEWADI (K),17.15484,73.96938,Muttalwadi,17.13399517,73.97725436
958,Patan,1.0837491757,NADE,17.34405,73.96683,Nade,17.33478314,73.96999326
959,Patan,0.388907327096,NADOLI,17.35646,73.96907,Nadoli,17.35624884,73.96541231
960,Patan,0.701660007652,NANEGAON  BK.,17.4147,73.99116,Nanegaon bk.,17.40857243,73.98958056
961,Patan,0.991457177531,NANEGAON KH.,17.42924,73.97934,Nanegaon kh.,17.4218445,73.9845604
962,Patan,0.459406013035,NANEL,17.37868,73.76966,Nanel,17.38024954,73.77366462
963,Patan,2.67477849202,NARALWADI,17.3414,73.99518,Naralwadi,17.34109666,73.9699817
964,Patan,0.370725813661,NATOSHI,17.3057,73.87962,Natoshi,17.30619495,73.87616659
965,Patan,0.520108427443,NAV,17.32971,73.74268,Nav,17.32624819,73.73938492
966,Patan,1.02788029687,NAVADI,17.33753,74.038,Navadi,17.3307977,74.03136405
967,Patan,0.797703204573,NAVASARWADI,17.33843,73.98572,Navasarwadi,17.33150949,73.9837402
968,Patan,3.22471835971,KAMARGAON,17.41994,73.74691,Nawaja,17.44208776,73.72728694
969,Patan,1.34577949868,NECHAL,17.37488,73.70191,Nechal,17.36461498,73.695192
970,Patan,2.14634151306,NERALE,17.34665,73.85992,Nerale,17.33753806,73.87774682
971,Patan,0.98521044128,NIGADE,17.20597,73.89305,Nigade,17.20415649,73.88397111
972,Patan,0.242526609311,NISARE,17.34135,74.02661,Nisare,17.34180859,74.02437612
973,Patan,,NIVADE,,,Nivade,16.78534768,73.98439755
974,Patan,1.38089381914,NIVAKANE,17.47192,73.86345,Nivakane,17.48433464,73.86311807
975,Patan,0.423267533157,NIVI,17.17298,73.9231,Nivi,17.17609773,73.92081416
976,Patan,1.31142128578,NUNE,17.50383,73.99446,Nune,17.51445226,73.98908623
977,Patan,1.53426371543,PACHAGANI,17.31002,73.79299,Pachgani,17.29629026,73.79155461
978,Patan,0.728583341422,PACHUPATEWADI,17.22988,73.97211,Pachupatewadi,17.23387152,73.9666696
979,Patan,4.08262544455,TELEWADI,17.28613,73.99785,Padharwadi Telewadi,17.27912489,73.96010434
980,Patan,1.38333058693,PADLOSHI,17.42755,73.95342,Padloshi,17.42343802,73.94111386
981,Patan,2.18301530716,PALASHI,17.2764,73.84934,Palashi,17.26372544,73.83363936
982,Patan,0.862024655883,PANERI,17.24773,73.82913,Paneri,17.24232646,73.82330947
983,Patan,0.844437004574,PAPARDE,17.31964,73.98786,Paparde Bk,17.31491563,73.98163191
984,Patan,0.844437004574,PAPARDE,17.31964,73.98786,Paparde Kh.,17.31491563,73.98163191
985,Patan,1.87520199493,PATAN,17.37411,73.90445,Patan (CT),17.36787789,73.88803084
986,Patan,4.11482915513,GOTHANE,17.30451,73.73832,Patharpunj,17.30614056,73.69959755
987,Patan,0.951271527222,PATHAVADE,17.44082,73.94955,Pathavade,17.43656969,73.94176785
988,Patan,2.27378680505,PAWARWADI,17.21626,73.96042,Pawarwadi,17.20375947,73.97736136
989,Patan,2.27378680505,PAWARWADI,17.21626,73.96042,Pawarwadi,17.20375947,73.97736136
990,Patan,1.35051409719,PIMPALOSHI,17.39178,73.87082,Pimpaloshi,17.38356718,73.88019618
991,Patan,,ZADOLI,,,Punvali,17.47788171,73.75692655
992,Patan,3.67586059674,RAMISHTEWADI,17.16286,73.97696,Ramishtewadi,17.13546136,73.95760253
993,Patan,0.674411391203,RASATI,17.37989,73.74279,Rasati,17.37736036,73.74856608
994,Patan,2.53598173055,NAV,17.32971,73.74268,Risawad,17.31364213,73.75963427
995,Patan,0.380432270064,RUVALE,17.24494,73.88824,Ruvale,17.24171919,73.88944832
996,Patan,1.2049091576,SABALEWADI,17.2521,73.96212,Sabalewadi,17.2628519,73.96070899
997,Patan,2.73499184163,SADAWAGHAPUR,17.44094,73.93104,Sadawaghapur,17.41803719,73.92163939
998,Patan,0.138138064593,SAIKADE,17.24504,74.00638,Saikade,17.24449607,74.00521053
999,Patan,0.481650813501,SAKHARI,17.422,73.90307,Sakhari,17.41905862,73.89973737
1000,Patan,0.647869432433,SALAVE,17.27627,73.87594,Salave,17.27256809,73.87122823
1001,Patan,1.07685638555,SANBUR,17.26387,73.91046,Sanbur,17.25706737,73.90324206
1002,Patan,1.49470626687,SANGWAD,17.33268,73.96654,Sangwad,17.3209393,73.95968291
1003,Patan,,SAWARGHAR,,,Sawarghar,17.52330704,73.86812708
1004,Patan,0.790813490104,SHEDGEWADI,17.3447,74.05891,Shedgewadi,17.34499076,74.05146547
1005,Patan,0.348414999641,SHENDEWADI,17.19724,74.00408,Shendewadi (kumbhargaon),17.19488743,74.00191351
1006,Patan,1.1739406026,SHIDRUKWADI,17.25266,74.0011,Shidrukwadi,17.26155068,73.99513805
1007,Patan,1.22942253675,SHINGANWADI,17.3883,74.00569,Shinganwadi,17.37779723,74.00206963
1008,Patan,0.604781301125,SHIRAL,17.36132,73.83309,Shiral,17.3662184,73.83061332
1009,Patan,,ZADOLI,,,Shirshinge,17.76442124,73.29125389
1010,Patan,0.903246669948,SHITAPWADI,17.26233,73.94719,Shitapwadi,17.27041606,73.94800133
1011,Patan,1.41943082599,SHIVANDESHWAR,17.37664,73.70553,Shivandeshwar,17.38679194,73.71363914
1012,Patan,1.41475516765,SONAICHIWADI,17.321,74.02462,Sonaichiwadi,17.32373371,74.01160359
1013,Patan,0.176823152947,SONAVADE,17.30534,73.92722,Sonavade,17.30382611,73.9267102
1014,Patan,0.762011510051,SULEWADI,17.31988,73.93137,Sulewadi,17.31807468,73.92444518
1015,Patan,0.494999492694,SURUL,17.39161,73.8999,Surul,17.38716876,73.89958136
1016,Patan,0.504699958773,SUTARWADI,17.26098,73.97599,Sutarwadi,17.26461631,73.9731455
1017,Patan,1.57558172142,MANERI,17.34301,73.79781,Taliye,17.33405419,73.78630689
1018,Patan,0.709634124063,TAMINE,17.2624,73.85125,Tamine,17.2565951,73.85402677
1019,Patan,1.03916882652,TAMKADE,17.35942,73.8787,Tamkade,17.35579064,73.86967717
1020,Patan,1.22506054567,CHITEGHAR,17.40959,73.88514,Tamkane,17.41026595,73.87361557
1021,Patan,1.97183343994,TARALE,17.50127,73.97857,Tarale,17.48812758,73.96608712
1022,Patan,1.26010416721,TELEWADI,17.28613,73.99785,Telewadi,17.28217623,73.98672744
1023,Patan,0.776292914987,DHANKAL,17.38529,73.68706,Thankal,17.38065231,73.6815919
1024,Patan,2.08296156685,THOMASE,17.36871,74.00727,Thomase,17.36421972,73.98821499
1025,Patan,0.814871810797,TOLEWADI,17.37618,73.87153,Tolewadi,17.37277934,73.86472814
1026,Patan,1.42672365882,TONDOSHI,17.53081,73.90183,Tondoshi,17.51798324,73.90149095
1027,Patan,4.7945227265,GOKUL TARF HELWAK,17.39246,73.74169,Torane,17.409166,73.70003332
1028,Patan,1.42822935391,TRIPUDI,17.36442,73.93107,Tripudi,17.35684082,73.9202052
1029,Patan,2.38736104095,KADHANE,17.25181,74.03476,Tupewadi,17.25701297,74.01294833
1030,Patan,0.483486562248,UDHAVANE,17.255,73.88268,Udhavane,17.25229056,73.87911904
1031,Patan,0.230828450171,UMARKANCHAN,17.21683,73.91089,Umarkanchan,17.2149805,73.91187691
1032,Patan,0.267071220659,URUL,17.36527,74.02645,Urul,17.36413555,74.02423188
1033,Patan,0.507744364284,WADI KOTAWADE,17.31746,73.86732,Vadi kotawade,17.31579667,73.86286557
1034,Patan,2.15441729448,VAJAROSHI,17.47461,73.96609,Vajroshi,17.46253404,73.95020598
1035,Patan,0.225286462467,VANZOLE,17.3583,73.77685,Vanzole,17.35669323,73.77555695
1036,Patan,5.70596965947,CHIKHALEWADI,17.20947,74.00289,Varekarwadi,17.21934129,74.05560818
1037,Patan,0.0877516277573,VATOLE,17.42194,73.80543,Vatole,17.42134765,73.80597652
1038,Patan,1.5613079441,VEKHANDWADI,17.48581,73.97932,Vekhandwadi,17.47187011,73.981085
1039,Patan,0.724716065266,VETALWADI,17.33376,74.02667,Vetalwadi,17.33143809,74.02029041
1040,Patan,1.2479392504,VIHE,17.33922,74.05556,Vihe,17.33262375,74.04604799
1041,Patan,2.32663848401,VIREWADI,17.44995,73.94802,Virewadi,17.43200142,73.95929282
1042,Patan,3.47993202401,GOVARE,17.34463,73.73782,Waghane,17.3384642,73.70567653
1043,Patan,0.815032027175,WAGHAJAIWADI,17.39917,73.98898,Wagjaiwadi,17.39738015,73.98153135
1044,Patan,0.369201610354,WANZOLI,17.19372,73.94764,Wazoli,17.19108118,73.94974947
1045,Patan,2.41064015842,KALGAON,17.16416,73.95066,Yelavewadi,17.16816884,73.97295889
1046,Patan,0.677932386799,YERAD,17.36371,73.85595,Yerad,17.36538478,73.84980782
1047,Patan,0.399807972057,YERADWADI,17.34202,73.99181,Yeradwadi,17.33889258,73.98995147
1048,Patan,0.822222273074,YERPHALE,17.37605,73.94395,Yerphale,17.37295294,73.9369144
1049,Patan,,ZADOLI,,,Zadoli,17.46937755,73.74449818
1050,Patan,0.78498671882,ZAKADE,17.34048,73.83717,Zakade,17.33919696,73.82989751
1051,Phaltan,1.90178528514,ADARKI BK.,17.92275,74.218417,Adarki Bk.,17.90590941,74.22155455
1052,Phaltan,2.13760530175,ADARKI KH.,17.909139,74.201639,Adarki Kh.,17.90590941,74.22155455
1053,Phaltan,0.592159193371,ALGUDEWADI,18.0095,74.47156,Alagudewadi,18.01467165,74.47022406
1054,Phaltan,1.64172965072,ALJAPUR,17.9165,74.248167,Aljapur,17.90178961,74.24684067
1055,Phaltan,1.21811132827,ANDRUD,17.88909,74.62402,Andrud,17.89946724,74.62770829
1056,Phaltan,0.868554121069,ARADGAON,17.987083,74.207,Aradgaon,17.9931238,74.21220651
1057,Phaltan,2.35606441992,ASU,18.05258,74.65416,Asu,18.03818416,74.67051154
1058,Phaltan,1.07322139889,BARAD,17.95208,74.58648,Barad,17.9514913,74.59660675
1059,Phaltan,1.017576405,BHADALI  BK.,17.93844,74.46915,Bhadali  Bk.,17.94228152,74.47788044
1060,Phaltan,0.713507810908,BHADALI  KH.,17.93626,74.47555,Bhadali  Kh.,17.94228152,74.47788044
1061,Phaltan,1.23664925658,BHILKATTI,18.02025,74.375139,Bhilkatti,18.01880806,74.38673537
1062,Phaltan,0.964374393243,BIBI,17.925944,74.276472,Bibi,17.92114853,74.28406704
1063,Phaltan,0.325253157575,BODKEWADI,17.875667,74.42625,Bodkewadi,17.87631526,74.42325298
1064,Phaltan,0.511617484946,CHAMBHARWADI,17.993083,74.196389,Chambharwadi,17.99718401,74.19419563
1065,Phaltan,1.17184716642,CHAUDHARWADI,18.02669,74.41061,Chaudharwadi,18.01616895,74.41125067
1066,Phaltan,1.46255641742,CHAVHANWADI,18.01225,74.214667,Chavhanwadi,18.01568481,74.22801814
1067,Phaltan,1.48324270659,DALVADI,17.903778,74.383,Dalvadi,17.89493601,74.39349557
1068,Phaltan,0.461255277202,DHAVAL,17.902278,74.331722,Dhaval,17.89822192,74.33080858
1069,Phaltan,0.97917358756,DHAVALEWADI (ASU),18.04108,74.64071,Dhavalewadi,18.04027023,74.63148801
1070,Phaltan,0.698690711511,DHAVALEWADI(NIMB),18.000472,74.353639,Dhavalewadi,17.99440301,74.35535045
1071,Phaltan,1.02239433255,DHULDEV,18.00016,74.46038,Dhuldev,17.99440932,74.46792339
1072,Phaltan,0.72265645659,DHUMALWADI,17.875944,74.477806,Dhumalwadi,17.88231693,74.47646745
1073,Phaltan,0.517834957699,DOMBALWADI,18.031111,74.280972,Dombalwadi,18.02951196,74.28557175
1074,Phaltan,1.71538281711,DUDHEBAVI,17.92774,74.50807,Dudhebavi,17.91357896,74.5145018
1075,Phaltan,0.658188823427,FADATARWADI,18.040444,74.374194,Fadatarwadi,18.03926144,74.38029376
1076,Phaltan,0.284634913516,FARANDWADI,17.988694,74.405917,Farandwadi,17.98630144,74.40687379
1077,Phaltan,2.93446885623,GHADGEWADI,17.951722,74.282944,Ghadgewadi,17.92631951,74.27542573
1078,Phaltan,1.03288045893,GIRAVI,17.889778,74.453611,Girvi,17.88486921,74.44532453
1079,Phaltan,0.680665732303,GOKHALI,18.03814,74.61754,Gokhali,18.03384328,74.62212529
1080,Phaltan,1.91033417373,GUNWARE,17.98922,74.59297,Gunware,18.00092024,74.60619711
1081,Phaltan,0.63417942824,HANMANTWADI,18.00371,74.66019,Hanmantwadi,18.00873027,74.65734421
1082,Phaltan,0.893452116249,HINGANGAON,17.967278,74.218639,Hingangaon,17.95944566,74.22052416
1083,Phaltan,1.49400557832,HOL,18.091778,74.348361,Hol,18.07875544,74.35183995
1084,Phaltan,1.55885511323,JADHAVWADI(ASU),17.970444,74.434528,Jadhavwadi,17.95653368,74.43636053
1085,Phaltan,1.55885511323,JADHAVWADI(PHL),17.970444,74.434528,Jadhavwadi PHL,17.95653368,74.43636053
1086,Phaltan,0.920257813982,JAOLI,17.87973,74.58587,Jaoli,17.88080634,74.59449224
1087,Phaltan,0.97519130218,JINTI,18.06575,74.385361,Jinti,18.0573708,74.38263764
1088,Phaltan,1.43074547419,KALAJ,18.017444,74.290806,Kalaj,18.00457936,74.2905467
1089,Phaltan,1.18963185136,KAMBLESHWAR,18.05446,74.44532,Kambleshwar,18.0441159,74.44244734
1090,Phaltan,0.715312397241,KAPADGAON,18.027694,74.195556,Kapadgaon,18.02130832,74.19637467
1091,Phaltan,0.688522602395,KAPASHI,17.934333,74.240889,Kapashi,17.93570755,74.24723491
1092,Phaltan,0.249122173418,KASHIDWADI,17.995833,74.371639,Kashiwadi,17.99693036,74.37369274
1093,Phaltan,1.43805998234,KHADAKI,17.956889,74.332972,Khadaki,17.94519938,74.33878771
1094,Phaltan,0.879326977729,KHAMGAON,18.070806,74.322667,Khamgaon,18.0635484,74.32597048
1095,Phaltan,0.493666627631,KHARADEWADI,18.029778,74.316889,Kharadewadi,18.02758296,74.32094731
1096,Phaltan,0.566268733869,KHATKEWASTI,18.0326,74.60092,Khatkewasti,18.03721586,74.60318248
1097,Phaltan,1.02192485046,KHUNTE,18.067972,74.410861,Khunte,18.05971644,74.41510881
1098,Phaltan,1.16480008488,KOLKI,17.97929,74.45316,Kolki (CT),17.97248309,74.46153089
1099,Phaltan,0.762463879742,KOREGAON,18.049694,74.2055,Koregaon,18.04837077,74.21257633
1100,Phaltan,1.80953299158,KORHALE,17.911472,74.280222,Korhale,17.8952944,74.27836792
1101,Phaltan,0.625913418392,KURVALI  BK.,17.93839,74.62925,Kurvali  Bk.,17.93899612,74.6351322
1102,Phaltan,1.09622957494,KURVALI KH.,17.939861,74.404333,Kurvali Kh.,17.93211826,74.4107474
1103,Phaltan,1.20327067253,KUSUR,18.054417,74.24625,Kusur,18.06523057,74.24582061
1104,Phaltan,0.521812537133,MALEWADI,18.049222,74.2445,Malewadi,18.05018883,74.24932978
1105,Phaltan,0.581445359882,MALVADI,17.934333,74.317833,Malvadi,17.93206888,74.31287883
1106,Phaltan,4.08757093769,NIRUGUDI,17.917028,74.45,Mandavkhadak,17.90468144,74.41361148
1107,Phaltan,0.997714283981,MANEWADI,17.860056,74.339833,Manewadi,17.85110271,74.33921392
1108,Phaltan,0.662292509096,MATHACHIWADI,18.00519,74.5748,Mathachiwadi,18.00951088,74.57911061
1109,Phaltan,0.402469399086,MIRDHE,17.90759,74.56583,Mirdhe,17.90439251,74.56761245
1110,Phaltan,0.499504258052,MIREWADI(KUSUR),18.071,74.24675,Mirewadi,18.07488103,74.24912948
1111,Phaltan,1.81712047482,MIRYACHIWADIR (DALWADI),17.903778,74.383,Mirewadi,17.8903835,74.37316231
1112,Phaltan,0.798505150908,MIRGAON,17.975667,74.355639,Mirgaon,17.96905911,74.3526833
1113,Phaltan,2.40640643825,MULIKWADI,17.971306,74.291194,Mulikwadi,17.98852678,74.30497389
1114,Phaltan,1.39312601588,MUNJWADI,17.98337,74.63824,Munjwadi,17.9949238,74.64333441
1115,Phaltan,1.10963482835,MURUM,18.06587,74.30629,Murum,18.05607064,74.30430634
1116,Phaltan,1.20237064019,NAIK BOMWADI,17.93504,74.54288,Naik bombawadi,17.93427854,74.55421723
1117,Phaltan,1.64293837138,NANDAL,17.986472,74.313667,Nandal,17.97250298,74.3187283
1118,Phaltan,0.473846059222,NIMBLAK,17.98325,74.56732,Nimbalak,17.98151352,74.57141141
1119,Phaltan,1.14144333499,NIMBHORE,18.012111,74.360278,Nimbhore,18.0207261,74.36614749
1120,Phaltan,0.559130770461,NIRUGUDI,17.917028,74.45,Nirugudi,17.91412592,74.45431567
1121,Phaltan,1.05745601045,PADEGAON,18.077167,74.213944,Padegaon,18.08167274,74.20513425
1122,Phaltan,1.04852660781,PAWARWADI,18.02578,74.64497,Pawarwadi,18.02853264,74.63548549
1123,Phaltan,1.22180964903,PIMPALWADI [SAKHARWADI],18.055528,74.337472,Pimpalwadi,18.05150597,74.34822692
1124,Phaltan,0.676141456602,PIMPARAD,17.98133,74.53209,Pimparad,17.98476651,74.53736414
1125,Phaltan,1.42299058328,PIRACHIWADI,17.889222,74.301028,Pirachiwadi,17.87668891,74.30374613
1126,Phaltan,0.609183139415,RAJALE,18.02403,74.53871,Rajale,18.01914865,74.5413256
1127,Phaltan,2.05796146084,RAJURI,17.9567,74.63743,Rajuri,17.97446584,74.64288334
1128,Phaltan,0.0723549507611,RAVADI BK.,18.05828,74.28289,Ravadi Bk,18.05824764,74.28357357
1129,Phaltan,1.11081423055,RAVADI KH.,18.074972,74.265194,Ravadi Kh.,18.06499143,74.26474258
1130,Phaltan,2.08501298327,SANGAVI,18.0539,74.49226,Sangavi,18.0412229,74.50679124
1131,Phaltan,1.11611342686,SARADE,18.05413,74.56874,Sarade,18.0503971,74.55894009
1132,Phaltan,1.01566257492,SASKAL,17.93044,74.46514,Saskal,17.92210705,74.46907162
1133,Phaltan,1.57076837845,SASTEWADI,18.02547,74.43534,Sastewadi,18.01424676,74.44436095
1134,Phaltan,0.446109345486,SASWAD,17.981833,74.256389,Saswad,17.98005613,74.26017072
1135,Phaltan,1.43471380849,SATHE,18.02774,74.57306,Sathe,18.0385281,74.58050352
1136,Phaltan,0.706801722719,SHERECHIWADI (DH.),17.923639,74.33925,Sherechiwadi,17.9190887,74.33458533
1137,Phaltan,1.22465031698,SHERECHIWADI(HING),17.9535,74.189417,Sherechiwadi,17.9435929,74.19447431
1138,Phaltan,2.12481187439,SHERESHINDEWADI,17.9365,74.55718,Shereshindewadi,17.95112261,74.57011054
1139,Phaltan,0.9299720032,SHINDEMALA,18.047917,74.241333,Shindemal,18.04656904,74.2326518
1140,Phaltan,0.829715020886,SHINDENAGAR,18.014,74.67299,Shindenagar,18.00873775,74.66742709
1141,Phaltan,0.515154330456,SHINDEWADI,18.045694,74.412278,Shindewadi,18.04114324,74.41136458
1142,Phaltan,0.973644227209,SONGAON,18.03986,74.53337,Songaon,18.04793072,74.5369419
1143,Phaltan,0.0813947104859,SONWADI BK.,17.96136,74.48046,Sonwadi Bk.,17.96144432,74.48122438
1144,Phaltan,0.221572052332,SONWADI KH.,17.96256,74.48296,Sonwadi Kh.,17.96144432,74.48122438
1145,Phaltan,0.292482498971,SURVADI,18.021278,74.339944,Survadi,18.02285974,74.34215407
1146,Phaltan,1.04838154857,TADAVALE,18.03157,74.29397,Tadavale,18.03244992,74.30384205
1147,Phaltan,0.695165512129,TAKALWADE,17.9936,74.55291,Takalwade,17.99839958,74.55712215
1148,Phaltan,1.37925172853,TAMBAVE,17.991361,74.166056,Tambave,17.99458216,74.17865029
1149,Phaltan,1.90922828546,TARADGAON,18.025806,74.234189,Taradgaon,18.02875851,74.25197655
1150,Phaltan,0.962511291031,TARDAF,17.860778,74.358389,Tardaf,17.85224976,74.35683186
1151,Phaltan,0.731086779052,TATHAVADA,17.862722,74.322694,Tathavada,17.86372811,74.32952048
1152,Phaltan,0.537053744644,TAVADI,17.949417,74.398222,Tavadi,17.95104621,74.4030014
1153,Phaltan,0.751424495999,TAKUBAICHIWADI,17.965889,74.249417,Thakubaichiwadi,17.95945745,74.2515974
1154,Phaltan,1.7852196041,THAKURKI,17.983056,74.414139,Thakurki,17.96716157,74.4117588
1155,Phaltan,4.82246199762,TIRAKWADI,17.94649,74.48789,Tirakwadi,17.94715521,74.53347224
1156,Phaltan,1.43066865775,UPALAVE,17.861472,74.381778,Upalave,17.85602106,74.39402258
1157,Phaltan,2.4132661449,VADALE,17.95342,74.52339,Vadale,17.96134711,74.50215189
