,Block Name,Distance,GP Name,GP_lat,GP_long,TOT_P,Throughput,Village Name,Village_lat,Village_long
0,Lakhani,1.0488640547,ALESUR,21.09483,79.86922,1219.0,19.504,Alesur,21.08632676,79.87359603
1,Lakhani,1.12017691862,BHUGAON,20.95029,79.93729,1359.0,21.744,Bhugaon,20.94027218,79.93842753
2,Lakhani,0.13918709056,CHANNA,21.03283,79.82491,1409.0,22.544,Channa,21.03357524,79.82383249
3,Lakhani,1.87020903534,RENGEPAR[KOH],21.04834,79.88306,517.0,8.272,Chichtola,21.03152242,79.88281036
4,Lakhani,1.12250660591,DAITMANGALI,21.11524,79.80644,275.0,4.4,Chikhalbodi,21.12533377,79.80660507
5,Lakhani,0.578329065764,DAITMANGALI,21.11524,79.80644,516.0,8.256,Daitmangli,21.11070359,79.80916703
6,Lakhani,2.23090920526,DHABETEKADI,21.02264,79.87844,969.0,15.504,Dhabetekadi,21.02177074,79.89991345
7,Lakhani,0.774682798129,DHANALA,21.02899,79.83033,1101.0,17.616,Dhanala,21.02211852,79.83156101
8,Lakhani,2.90241328021,GONDI,20.9146,79.84409,507.0,8.112,Dhwarkheda,20.88934933,79.85116786
9,Lakhani,1.0574677625,DIGHORI,20.98025,79.88995,1091.0,17.456,Dighori,20.97092112,79.89192848
10,Lakhani,1.08106313656,GADEGAON,21.0842,79.79557,624.0,9.984,Gadegaon,21.07683605,79.80237305
11,Lakhani,3.01006679196,POHARA,21.03175,79.84964,591.0,9.456,Gadpendhari,21.00678086,79.83843821
12,Lakhani,0.469493938734,GARADA,21.04311,79.80483,496.0,7.936,Garada,21.04557383,79.80850389
13,Lakhani,1.32286050207,GHODEZARI,20.93909,79.8933,1071.0,17.136,Ghodezari,20.92905886,79.88645193
14,Lakhani,1.66609075629,GONDEGAON,20.97922,79.85587,792.0,12.672,Gondegaon,20.9698263,79.86837158
15,Lakhani,0.803141347008,GONDI,20.9146,79.84409,500.0,8.0,Gondi,20.90798635,79.84719795
16,Lakhani,0.410396975349,GONDSAWARI,21.13127,79.83881,946.0,15.136,Gondsawari,21.13126913,79.84276686
17,Lakhani,1.69435553009,GURDHA,20.96893,79.85921,1326.0,21.216,Gurdha,20.95537338,79.86666052
18,Lakhani,1.19330349414,ISAPUR,20.97786,79.84871,955.0,15.28,Isapur,20.96716147,79.84961206
19,Lakhani,0.585824790849,KANERI,20.99317,79.85601,2124.0,33.984,Kaneri,20.98827175,79.85393208
20,Lakhani,1.32532121149,KANHALGAON,20.96775,79.88293,885.0,14.16,Kanhalgaon,20.9561424,79.88582805
21,Lakhani,0.957010195422,KAWALEWADA,20.92313,79.85889,422.0,6.752,Kawadsi,20.92663108,79.85047255
22,Lakhani,1.27092395521,RENGOLA,20.96243,79.82256,698.0,11.168,Kesalwada,20.96309922,79.83477881
23,Lakhani,1.29812924999,KESALWADA[P],21.14334,79.86518,2071.0,33.136,Kesalwada (pawar),21.1445389,79.87763086
24,Lakhani,0.075026563127,KESALWADA[W],21.05713,79.79752,2071.0,33.136,Kesalwada (Waghaye),21.05760874,79.79802949
25,Lakhani,0.386381142233,KAWALEWADA,20.92313,79.85889,866.0,13.856,Khairi,20.92559266,79.86151453
26,Lakhani,1.22811940228,KHAIRI,21.07021,79.8942,866.0,13.856,Khairi,21.07378323,79.90539969
27,Lakhani,0.716852331146,KHARASHI,20.91105,79.89431,1338.0,21.408,Kharashi,20.91011353,79.88748186
28,Lakhani,3.55237007346,DONGARGAON[N],20.98511,79.83762,352.0,5.632,Khaurshipar,20.99562462,79.80530849
29,Lakhani,1.51265056415,KHEDEPAR,21.11609,79.8372,885.0,14.16,Khedepar,21.10314389,79.84167858
30,Lakhani,0.485446084501,KHUNARI,20.91841,79.90415,1253.0,20.048,Khunari,20.91406627,79.90461852
31,Lakhani,1.72699638544,PARSODI,21.1394,79.86353,623.0,9.968,Khurshipar,21.1538088,79.86974565
32,Lakhani,0.485884220037,KINHI,21.09511,79.80334,2003.0,32.048,Kinhi (Gadegaon),21.09089469,79.8021062
33,Lakhani,1.03659366031,ZARAP[KOLARA],20.95402,79.90757,517.0,8.272,Kolara,20.94802409,79.89992641
34,Lakhani,1.08706917546,KOLARI,20.93786,79.91135,1239.0,19.824,Kolari,20.92885153,79.91541607
35,Lakhani,1.38580152257,LAKHANI,21.07337,79.82855,12636.0,202.176,Lakhani,21.06393898,79.8372809
36,Lakhani,0.614315693533,LAKHORI,21.09257,79.85358,2751.0,44.016,Lakhori,21.08793026,79.85679446
37,Lakhani,0.939595063024,LOHARA,20.90218,79.89252,1926.0,30.816,Lohara,20.89616266,79.89887022
38,Lakhani,0.90007333941,MACHARNA,20.95177,79.83876,1277.0,20.432,Macharna,20.94573371,79.84453476
39,Lakhani,4.36860070939,DONGARGAON[N],20.98511,79.83762,143.0,2.288,Malkazari,21.01696869,79.81299391
40,Lakhani,0.292814352028,MANEGAON,21.06526,79.85592,3203.0,51.248,Manegaon,21.06329056,79.85779326
41,Lakhani,0.399698311969,MANGALI,20.9555,79.8163,836.0,13.376,Mangali,20.95194637,79.8168793
42,Lakhani,0.934412511268,KAWALEWADA,20.92313,79.85889,621.0,9.936,Mangapur,20.91779031,79.86583674
43,Lakhani,3.31835006171,MAREGAON,20.90111,79.84272,1475.0,23.6,MAREGAON,20.87854051,79.86361805
44,Lakhani,0.90606477073,MASALMETA,21.10872,79.86179,1057.0,16.912,Masalmeta,21.10482391,79.8694613
45,Lakhani,2.30194518112,POHARA,21.03175,79.84964,490.0,7.84,Mendha,21.04040795,79.86978719
46,Lakhani,0.765439531973,SOMALWADA,21.09448,79.81713,2071.0,33.136,Mendha (somalwada),21.09261839,79.82423322
47,Lakhani,1.19030651104,MIREGAON,21.00074,79.93814,1648.0,26.368,Miregaon,20.9930156,79.94607816
48,Lakhani,0.962858524699,MOGARA,21.00173,79.87698,1119.0,17.904,Mogara,20.99543536,79.88334935
49,Lakhani,0.197379143933,MORGAON,21.11802,79.88835,536.0,8.576,Morgaon,21.11697682,79.88988959
50,Lakhani,0.128902634272,SINDIPAR,21.13281,79.88451,1056.0,16.896,Mundipar,21.13181019,79.88513902
51,Lakhani,2.79516796654,KAWALEWADA,20.92313,79.85889,2007.0,32.112,Murmadi,20.92733104,79.83235599
52,Lakhani,2.79516796654,KAWALEWADA,20.92313,79.85889,4352.0,69.632,Murmadi (CT),20.92733104,79.83235599
53,Lakhani,0.591328772072,MURMADI(SA),21.07385,79.8252,500.0,8.0,Murmadi (Hamesha),21.07207567,79.81982749
54,Lakhani,0.998308010315,MURMADI[TUP],20.97114,79.90101,2007.0,32.112,Murmadi (Tup),20.96278388,79.90452606
55,Lakhani,2.10155853379,RAMPURI,20.98825,79.90697,494.0,7.904,Nanhori,20.98204629,79.88784918
56,Lakhani,2.1563771105,LOHARA,20.90218,79.89252,694.0,11.104,Narva,20.88414063,79.90013856
57,Lakhani,0.385903278364,NILAGONDI,21.123,79.90934,500.0,8.0,Nilagondi,21.12408328,79.91287462
58,Lakhani,1.13949390586,NIMGAON,20.9508,79.88144,980.0,15.68,Nimgaon,20.94062217,79.88016071
59,Lakhani,1.60883330894,KAWALEWADA,20.92313,79.85889,234.0,3.744,Pahadi,20.92006972,79.84375062
60,Lakhani,2.30332057347,PALANDUR,20.91861,79.85695,4739.0,75.824,Palandur,20.89898828,79.86405638
61,Lakhani,2.30240211833,PALASGAON,20.92762,79.91126,3277.0,52.432,Palasgaon,20.90918932,79.9213624
62,Lakhani,0.425543609694,PARSODI,21.1394,79.86353,3729.0,59.664,Parsodi,21.13947895,79.85942775
63,Lakhani,0.715593258497,PATHARI,20.89135,79.87971,2563.0,41.008,Pathari,20.88506745,79.88120275
64,Lakhani,0.604739389802,PENDHARI,21.0122,79.83893,1973.0,31.568,Pendhari,21.00678086,79.83843821
65,Lakhani,1.37926866312,POHARA,21.03175,79.84964,765.0,12.24,Pohara,21.02479729,79.86064523
66,Lakhani,4.90865392166,DONGARGAON[N],20.98511,79.83762,76.0,1.216,Purkabodi,20.99812025,79.79243751
67,Lakhani,1.14737650088,RAJEGAON,21.11344,79.89168,839.0,13.424,Rajegaon,21.10387626,79.89583273
68,Lakhani,0.526000084273,RAMPURI,20.98825,79.90697,950.0,15.2,Rampuri,20.98405298,79.90930724
69,Lakhani,0.917798971633,RENGEPAR[KOH],21.04834,79.88306,915.0,14.64,Rengepar (kohali),21.04191887,79.88861689
70,Lakhani,0.405249871474,RENGEPAR[KOTHA],21.11588,79.82465,915.0,14.64,Rengepar (kotha),21.11900451,79.82666118
71,Lakhani,1.02303816164,RENGOLA,20.96243,79.82256,869.0,13.904,Rengola,20.95401871,79.82655206
72,Lakhani,1.98210926673,DEVHADI,20.91131,79.83069,196.0,3.136,Saigaon,20.92405189,79.81734476
73,Lakhani,0.428224773537,SALEBHATA,21.1236,79.86668,2490.0,39.84,Salebhata,21.12075877,79.86946696
74,Lakhani,0.46690211809,SAMEWADA,21.08629,79.89386,890.0,14.24,Samewada,21.08865908,79.89757562
75,Lakhani,0.539625913219,DEVHADI,20.91131,79.83069,415.0,6.64,Sangaon,20.91495786,79.83411642
76,Lakhani,0.619782266197,SAWARI,21.07612,79.82653,1307.0,20.912,Sawari,21.08161253,79.82754658
77,Lakhani,1.56156265778,SELOTI,21.05291,79.84131,2062.0,32.992,Seloti,21.04602132,79.85442287
78,Lakhani,0.128902634272,SINDIPAR,21.13281,79.88451,597.0,9.552,Sindipar,21.13181019,79.88513902
79,Lakhani,0.44643870219,SIPEWADA,21.04253,79.82043,771.0,12.336,Sipewada,21.04107676,79.82444008
80,Lakhani,0.765439531973,SOMALWADA,21.09448,79.81713,514.0,8.224,Somalwada,21.09261839,79.82423322
81,Lakhani,0.701382415957,KINHI,21.09511,79.80334,200.0,3.2,Sonekhari,21.10136819,79.80249471
82,Lakhani,0.683268723809,SOMANALA,20.97931,79.93317,895.0,14.32,Sonmala,20.97533297,79.93818668
83,Lakhani,0.74826353413,VIHIRGAON,20.92245,79.93035,887.0,14.192,Vihirgaon,20.91987923,79.93700782
84,Lakhani,0.980914811381,WAKAL,20.89172,79.83463,1210.0,19.36,Wakal,20.88303315,79.8329861
85,Lakhani,1.3439318099,ZARAP[KOLARA],20.95402,79.90757,781.0,12.496,Zarap,20.94493974,79.91611125
86,Mohadi,0.664081213101,AKOLA,21.34666,79.6186,925.0,14.8,Akola,21.34649574,79.6250097
87,Mohadi,1.18356821322,ANDHALGAON,21.35757,79.62041,6309.0,100.944,Andhalgaon,21.36080224,79.63129939
88,Mohadi,0.890937144106,BACCHERA,21.3889,79.52467,513.0,8.208,Bacchera,21.39670177,79.52270991
89,Mohadi,0.901704461267,BETALA,21.25619,79.7261,2925.0,46.8,Betala,21.26265592,79.73135138
90,Mohadi,0.740969750777,BHIKARKHEDA,21.36061,79.68678,788.0,12.608,Bhikarkheda,21.35674407,79.68095207
91,Mohadi,0.284794573126,BHOSA,21.25542,79.58368,304.0,4.864,Bhosa,21.25653085,79.58615624
92,Mohadi,0.661894413794,BIDSITEPAR,21.22212,79.61663,1167.0,18.672,Bidsitepar,21.22319278,79.62291107
93,Mohadi,0.733971616563,DEULGAON,21.41319,79.56688,104.0,1.664,Bitekhari,21.40658925,79.56686472
94,Mohadi,0.757113224422,KHADKI,21.22647,79.78193,191.0,3.056,Bonde,21.21966211,79.78205473
95,Mohadi,0.695211175398,BONDRI,21.37061,79.54066,586.0,9.376,Bondri,21.37679429,79.53967324
96,Mohadi,0.244483299337,BORGAON,21.24639,79.77618,828.0,13.248,Borgaon(mundhari),21.24671175,79.77851364
97,Mohadi,0.17461250736,BOTHALI,21.2556,79.67396,500.0,8.0,Bothali,21.25682603,79.67501284
98,Mohadi,0.69522959103,CHICHKHEDA,21.29198,79.63936,750.0,12.0,Chichkheda,21.29752937,79.64245141
99,Mohadi,0.346156799315,CHICHOLI,21.36001,79.61131,2212.0,35.392,Chicholi,21.361718,79.60851535
100,Mohadi,1.12419423901,PIPALGAON[ZAN],21.276,79.60347,695.0,11.12,Chorkhamari,21.27599147,79.59262041
101,Mohadi,0.932641320452,DAHEGAON,21.2869,79.67413,1041.0,16.656,Dahegaon,21.28780962,79.68307852
102,Mohadi,3.25064836098,MOHAGAON[KAR],21.30434,79.80495,193.0,3.088,Dawadipar (kardi),21.28479958,79.82828696
103,Mohadi,1.27955373527,DEULGAON,21.41319,79.56688,557.0,8.912,Deulgaon,21.42469198,79.56650406
104,Mohadi,1.0845613381,DEWHADA[BU],21.33248,79.79776,2032.0,32.512,Dewhada Buj.,21.3235464,79.80196258
105,Mohadi,1.93697782334,DEWHADAKHURD,21.34972,79.82513,2032.0,32.512,Dewhada Kh.,21.346184,79.80681645
106,Mohadi,2.19358189735,BHIKARKHEDA,21.36061,79.68678,189.0,3.024,Dharmapuri,21.34096395,79.68485894
107,Mohadi,1.69732735028,DHIWARWADA,21.22894,79.75221,1427.0,22.832,Dhiwarwada,21.24420441,79.75223754
108,Mohadi,0.611142093039,DHOP,21.39211,79.60652,1619.0,25.904,Dhop,21.39483527,79.61164608
109,Mohadi,0.184805721755,DHUSALA,21.351125,79.5537,1698.0,27.168,Dhusala,21.35146511,79.55544671
110,Mohadi,1.6403917265,KHADKI,21.22647,79.78193,352.0,5.632,Dongardeo,21.22881022,79.76630418
111,Mohadi,0.133771875339,EKALARI,21.23837,79.63351,2360.0,37.76,Ekalari,21.23739965,79.63427296
112,Mohadi,3.49010309828,BACCHERA,21.3889,79.52467,414.0,6.624,Futara,21.41771222,79.53804278
113,Mohadi,2.09771249733,ROHA,21.28483,79.74415,419.0,6.704,Ghatkuroda,21.26781077,79.75288416
114,Mohadi,1.46229836229,BONDRI,21.37061,79.54066,484.0,7.744,Ghorpad,21.35824009,79.53586653
115,Mohadi,0.966921205537,HARDOLI,21.30634,79.59542,1184.0,18.944,Hardoli,21.31132997,79.6030641
116,Mohadi,1.03557382936,HIWARA,21.39861,79.50645,1459.0,23.344,Hivra,21.40599868,79.5125393
117,Mohadi,0.461064929837,JAMB,21.39262,79.58045,3698.0,59.168,Jamb,21.39146531,79.5847271
118,Mohadi,1.81263332098,MOHAGAON[KAR],21.30434,79.80495,103.0,1.648,Jambhalapani,21.3112117,79.8208169
119,Mohadi,0.561580240077,JAMBHORA,21.24957,79.81513,2847.0,45.552,Jambhora,21.25365586,79.81831517
120,Mohadi,0.726035388191,MOHADI,21.30602,79.67549,1023.0,16.368,Kalamna,21.30013846,79.67853353
121,Mohadi,0.52846001393,KANDRI,21.38784,79.54646,4868.0,77.888,Kandri,21.39188354,79.54914205
122,Mohadi,0.459932693129,KANHALGAON,21.26114,79.77059,885.0,14.16,Kanhalgaon (Khadki),21.26051934,79.7749781
123,Mohadi,0.699149315674,KARADI,21.27327,79.80431,193.0,3.088,Kardi,21.27224045,79.81096627
124,Mohadi,1.57050002958,KATEBAMHANI,21.38982,79.6882,812.0,12.992,Kate Bamhani,21.39147777,79.70326389
125,Mohadi,1.9181229469,KATI,21.32336,79.55939,974.0,15.584,Kati,21.33613357,79.57183567
126,Mohadi,1.17636250482,KESALAWADA,21.22855,79.8074,2071.0,33.136,Kesalwada (Jambhora),21.23271463,79.81783317
127,Mohadi,0.693460930306,KHAIRLANJI,21.3688,79.57143,619.0,9.904,Khairlanji,21.37132584,79.57755303
128,Mohadi,0.838827945576,KHAMARI[BU],21.27165,79.586,2721.0,43.536,Khamari Bk,21.27599147,79.59262041
129,Mohadi,1.14435845947,PARADI,21.29084,79.66418,4.0,0.064,Khodgaon,21.28166245,79.65918213
130,Mohadi,0.237515398246,KHUTSAWARI,21.2942,79.60585,371.0,5.936,Khutsawari,21.2938352,79.60810886
131,Mohadi,3.60521318826,JAMBHORA,21.24957,79.81513,405.0,6.48,Kisanpur,21.25637938,79.84914257
132,Mohadi,1.05753542783,KUSHARI,21.30916,79.70129,2292.0,36.672,Kushari,21.30848532,79.71147283
133,Mohadi,1.17636250482,KESALAWADA,21.22855,79.8074,581.0,9.296,Lendezari (Jambhora),21.23271463,79.81783317
134,Mohadi,0.888274738285,MAHALGAON,21.31575,79.65639,979.0,15.664,Mahalgaon,21.32219708,79.66145353
135,Mohadi,1.18471879657,MALIDA,21.36849,79.61655,760.0,12.16,Malida,21.37892002,79.61888588
136,Mohadi,0.720391977168,MANDESAR,21.28622,79.621,1771.0,28.336,Mandesar,21.29168061,79.62474166
137,Mohadi,1.05622011167,MOHADI,21.30602,79.67549,1640.0,26.24,Mohadi,21.30734085,79.68558665
138,Mohadi,0.847916470724,MOHAGAON[DEVI],21.26847,79.65739,141.0,2.256,Mohagaon (Devi),21.26672826,79.66535646
139,Mohadi,0.342847375585,MOHAGAON[KAR],21.30434,79.80495,1731.0,27.696,Mohgaon (Nilaj),21.30256553,79.80765644
140,Mohadi,0.739886275524,MAHALGAON,21.31575,79.65639,536.0,8.576,Morgaon,21.3093813,79.65845887
141,Mohadi,1.11487452869,MUNDHARI[BU],21.27732,79.76377,1625.0,26.0,Mundhari Buj,21.2749894,79.77423494
142,Mohadi,0.714545439373,MUNDHARI[KHURD],21.28716,79.78033,1625.0,26.0,Mundhari Kh,21.28446831,79.78659237
143,Mohadi,0.700127970007,DEWHADA[BU],21.33248,79.79776,1644.0,26.304,Narsinhatola,21.33689224,79.80258233
144,Mohadi,1.12325007011,NAWEGAON[DHU],21.35611,79.56493,500.0,8.0,Navegaon,21.3586429,79.57542999
145,Mohadi,0.562284311289,NAWEGAON[BHO],21.30207,79.8203,500.0,8.0,Navegaon Buj.,21.30006485,79.82528259
146,Mohadi,0.374598007406,NERI,21.24742,79.60332,2215.0,35.44,Neri,21.24944523,79.60620849
147,Mohadi,2.76439243357,SALAIKHURD,21.39746,79.64858,124.0,1.984,Nerla,21.37806361,79.63187869
148,Mohadi,0.566199276861,NILAJ[BU],21.31241,79.7941,1925.0,30.8,Nilaj Bk,21.3073261,79.79440726
149,Mohadi,0.214300109529,NILAJKHURD,21.29144,79.79744,371.0,5.936,Nilaj Kh,21.29268019,79.79585673
150,Mohadi,0.637233616665,PACHGAON,21.25935,79.62095,2774.0,44.384,Pachgaon,21.26228924,79.62622891
151,Mohadi,0.295927040496,PAHUNI,21.23644,79.57079,1288.0,20.608,Pahuni,21.23701395,79.57357804
152,Mohadi,1.46484494304,PALDONGARI,21.36503,79.64017,701.0,11.216,Paldongari,21.3719828,79.65218545
153,Mohadi,0.607747918659,PALORA,21.243,79.79975,3698.0,59.168,Palora (Jambhora),21.23858011,79.79630047
154,Mohadi,0.826976817518,PANDHARABODI,21.31191,79.56404,1074.0,17.184,Pandharabodi,21.31515886,79.57122119
155,Mohadi,1.10315205903,BACCHERA,21.3889,79.52467,915.0,14.64,Panjara,21.37923106,79.52228414
156,Mohadi,1.03610206135,BOTHALI,21.2556,79.67396,915.0,14.64,Panjara,21.24629653,79.67451599
157,Mohadi,0.650362912497,PANJRA[BORI],21.25218,79.79957,915.0,14.64,Panjara (Bori),21.25290321,79.79334251
158,Mohadi,0.639961113613,PANJRA GRAM,21.3755,79.52699,915.0,14.64,panjara gram,21.37923106,79.52228414
159,Mohadi,0.411424785384,ROHA,21.28483,79.74415,2492.0,39.872,Roha,21.28824139,79.74261239
160,Mohadi,1.45910974427,ROHANA,21.2732,79.688,2064.0,33.024,Rohna,21.27254725,79.70206413
161,Mohadi,0.616365928783,SAKARLA,21.37515,79.59982,1094.0,17.504,Sakarla,21.37511274,79.60577243
162,Mohadi,0.491005786339,SALAI[BU],21.37456,79.69298,2023.0,32.368,Salai Buj,21.37628217,79.6973464
163,Mohadi,0.225430854234,SALAIKHURD,21.39746,79.64858,500.0,8.0,Salai Kh.,21.39570015,79.64749898
164,Mohadi,0.262271690244,SALEBARDI,21.32879,79.59142,743.0,11.888,Salebardi,21.33045178,79.58962306
165,Mohadi,0.472101590528,SATONA,21.22084,79.59998,2338.0,37.408,Satona,21.22167703,79.60444517
166,Mohadi,3.16754227276,TADGAON,21.4122,79.61389,577.0,9.232,Sihari,21.41743452,79.64396786
167,Mohadi,0.535533745771,SIRSOLI,21.32217,79.62609,1073.0,17.168,Sirsoli,21.32694083,79.62679776
168,Mohadi,0.795134720632,SITEPAR,21.2966,79.57411,619.0,9.904,Sitepar,21.30264948,79.57820241
169,Mohadi,1.79381113396,SIWANI,21.3595,79.6112,905.0,14.48,Siwani,21.34962294,79.59750478
170,Mohadi,1.25670188309,TADGAON,21.4122,79.61389,1491.0,23.856,Tadgaon,21.41682948,79.62496467
171,Mohadi,0.185729349813,TAKLA,21.40712,79.68303,978.0,15.648,Takala,21.40866109,79.68372191
172,Mohadi,0.859783315711,TANGA,21.37251,79.66412,1075.0,17.2,Tanga,21.37734683,79.6705982
173,Mohadi,5.60445011095,MOHAGAON[KAR],21.30434,79.80495,9.0,0.144,Usaripar,21.30382109,79.85904599
174,Mohadi,0.38897874352,USARRA,21.39975,79.67006,2110.0,33.76,Usarra,21.39833968,79.67349831
175,Mohadi,0.54504929464,VIHIRGAON,21.36061,79.68664,887.0,14.192,Vihirgaon,21.36236061,79.69155622
176,Mohadi,1.63138635182,MOHADI,21.30602,79.67549,1387.0,22.192,Wadegaon,21.31882005,79.68318634
177,Mohadi,0.177229795319,WADEGAON,21.33139,79.61292,1387.0,22.192,Wadegaon,21.33190437,79.61130046
178,Sakoli,0.618726630106,AMAGAON[BU],21.15852,79.96015,1925.0,30.8,Amgaon Bk.,21.16334973,79.96311306
179,Sakoli,2.2302039028,KHAIRIWALMAZRI,21.14136,79.99511,371.0,5.936,Amgaon Kh.,21.15617048,79.98060844
180,Sakoli,2.17075803652,UMARZARI,21.19097,79.93472,624.0,9.984,Ategaon,21.17632993,79.92086974
181,Sakoli,1.28253402608,BAMHANI,21.07256,79.91012,812.0,12.992,Bamhani,21.07150847,79.9224292
182,Sakoli,0.807979050945,BAMPEWADA,21.16581,79.93108,2352.0,37.632,Bampewada,21.16136938,79.93724754
183,Sakoli,1.08300197303,BARDKINHI,21.0305,79.9259,568.0,9.088,Baradkinhi,21.03225436,79.91563588
184,Sakoli,0.364169086253,BODRA,21.10828,79.96871,2519.0,40.304,Bodra,21.10571635,79.97089462
185,Sakoli,1.40469504442,BOLDE,20.98826,80.07576,891.0,14.256,Bolde,20.97572926,80.07404426
186,Sakoli,0.195365301036,BONDE,21.03284,79.97044,191.0,3.056,Bonde,21.03108374,79.97038678
187,Sakoli,0.427716597301,CHANDORI,21.1811,79.89481,1834.0,29.344,Chandori,21.17796776,79.89720445
188,Sakoli,0.913843570185,CHARGAON,21.07061,80.05772,1019.0,16.304,Chargaon,21.07354771,80.06594545
189,Sakoli,0.551466165972,GUDHARI,21.08959,79.91828,312.0,4.992,Chichgaon,21.09264339,79.92246867
190,Sakoli,1.07871120868,DHARMAPURI,21.0619,79.98436,189.0,3.024,Dharmapuri,21.06136122,79.97398048
191,Sakoli,1.17243257336,DHARMAPURI,21.0619,79.98436,671.0,10.736,Gadkumbhali,21.05137906,79.98361415
192,Sakoli,1.92244871598,DHANOD,21.16411,79.9678,1710.0,27.36,Ghanod,21.18084375,79.96313899
193,Sakoli,1.74625084936,GIROLA,21.0359,79.93636,910.0,14.56,Girola,21.02804997,79.95093249
194,Sakoli,0.729533058788,GONDUMARI,21.02427,80.08596,2690.0,43.04,Gondumari,21.02310739,80.0928775
195,Sakoli,2.31181565423,GUDHARI,21.08959,79.91828,526.0,8.416,Gudhari,21.11011044,79.91469879
196,Sakoli,1.82146936811,PATHARI,21.10734,80.02287,1480.0,23.68,Jamanapur,21.10373874,80.00574085
197,Sakoli,0.910794986555,JAMBHALI/SADAK,21.08383,79.95857,1572.0,25.152,Jambhali,21.08067487,79.96667117
198,Sakoli,0.244760100217,JAMBLI\SADAK,21.19283,80.04948,371.0,5.936,Jambhali Khamba,21.19068955,80.05003073
199,Sakoli,0.416482214499,KATANGDHARA,20.97876,79.96127,903.0,14.448,Katangdhara,20.9773456,79.96498439
200,Sakoli,1.22524431403,KESALWADA,20.97007,80.01488,698.0,11.168,Kesalwada,20.96260447,80.02355906
201,Sakoli,2.16313260257,KHAIRIWALMAZRI,21.14136,79.99511,866.0,13.856,Khairi,21.13803072,79.97456059
202,Sakoli,3.58655713172,PATHARI,21.10734,80.02287,619.0,9.904,Khairlanji,21.10069253,79.98903862
203,Sakoli,0.951947287085,KHAMBA,21.16596,80.03825,1572.0,25.152,Khamba,21.17313546,80.04325747
204,Sakoli,0.766603230824,KINHI\MOKHE,21.13321,80.05458,2003.0,32.048,Kinhi,21.13941752,80.05779586
205,Sakoli,0.6471236826,KINHI\YEKODI,21.14455,79.917,2994.0,47.904,Kinhi(Ekodi),21.14763291,79.92229245
206,Sakoli,1.55459492419,BARDKINHI,21.0305,79.9259,81.0,1.296,Kitadi,21.0401959,79.93669152
207,Sakoli,0.204176887586,KUMBHLI,21.0498,79.98261,2716.0,43.456,Kumbhali,21.05137906,79.98361415
208,Sakoli,0.0913601222116,LAWARI,21.05419,80.01966,3263.0,52.208,Lawari,21.05338386,80.0198301
209,Sakoli,0.686322319403,MAHALGAON,21.02322,80.03861,979.0,15.664,Mahalgaon,21.02070183,80.044647
210,Sakoli,2.032387228,CHANDORI,21.1811,79.89481,159.0,2.544,Makkitola,21.17233206,79.8776112
211,Sakoli,0.886850449307,MALUTOLA,21.17823,80.05943,936.0,14.976,Malutola,21.18618157,80.060094
212,Sakoli,0.96177002199,MOHAGHATA,21.06579,79.94341,630.0,10.08,Mohgata,21.06129624,79.95132959
213,Sakoli,0.96177002199,MOHAGHATA,21.06579,79.94341,630.0,10.08,Mohgata Rayyt.,21.06129624,79.95132959
214,Sakoli,1.13436665005,MOKHE,21.11819,80.0543,1026.0,16.416,Mokhe,21.12501494,80.0624285
215,Sakoli,1.11666949686,MUNDIPAR\SADAK,21.06144,79.90813,1056.0,16.896,Mundipar,21.05774888,79.91813797
216,Sakoli,0.385932382154,NILAJ,21.02211,80.07864,1731.0,27.696,Nilaj,21.01912158,80.07674905
217,Sakoli,0.703185414001,PALASPANI,21.16596,79.90949,237.0,3.792,Nipiyartola,21.17221578,79.91048268
218,Sakoli,1.33737597737,KATANGDHARA,20.97876,79.96127,246.0,3.936,Nyaharwani,20.99078632,79.96143537
219,Sakoli,1.25113658775,PALSGAON/SOU,21.01763,80.06239,3277.0,52.432,Palasgaon,21.00639918,80.06312469
220,Sakoli,1.02784860795,PALASPANI,21.16596,79.90949,1244.0,19.904,Palaspani,21.15672954,79.90896038
221,Sakoli,0.807176945259,PAPADA[BU],20.97869,80.04982,1925.0,30.8,Papala Bk.,20.97803236,80.05756247
222,Sakoli,2.24880771821,ZADGAON,20.98139,80.01051,371.0,5.936,Papala Kh.,20.98135173,80.03217011
223,Sakoli,1.11376513907,PARASTOLA,21.13875,79.9563,884.0,14.144,Parastola,21.1290401,79.95893589
224,Sakoli,0.812640885607,PARSODI/SOUNDAD,21.05474,80.06638,3729.0,59.664,Parsodi,21.04749426,80.06535793
225,Sakoli,0.814807873832,PATHARI,21.10734,80.02287,2563.0,41.008,Pathari,21.10890209,80.03054423
226,Sakoli,0.227865533495,PINDKEPAR,21.12483,79.98271,867.0,13.872,Pindkepar,21.12288472,79.98340085
227,Sakoli,2.97297111903,KHAMBA,21.16596,80.03825,915.0,14.64,Rengepar,21.16092818,80.06640794
228,Sakoli,0.74766326104,SAKHARA,21.00841,79.97507,843.0,13.488,Sakara,21.00168627,79.9751208
229,Sakoli,0.860430109188,SAKOLI,21.08629,79.99699,4352.0,69.632,Sakoli (CT),21.08064772,79.99131462
230,Sakoli,3.40811779303,BOLDE,20.98826,80.07576,1925.0,30.8,Salai Bk.,20.95962077,80.06406676
231,Sakoli,5.23774926365,KESALWADA,20.97007,80.01488,500.0,8.0,Salai(kh),20.95962077,80.06406676
232,Sakoli,0.344640681926,SALEBARDI,20.90984,79.94,743.0,11.888,Salebardi,20.90779842,79.94249643
233,Sakoli,1.51532296573,SANGADI,20.96579,79.97582,6823.0,109.168,Sangadi,20.95487376,79.98455575
234,Sakoli,1.07922870417,SANGAON,20.97537,79.97274,415.0,6.64,Sangaon,20.96619119,79.97611825
235,Sakoli,2.57072338726,GUDHARI,21.08959,79.91828,286.0,4.576,Sarati,21.08234708,79.9418108
236,Sakoli,1.40273987849,SASARA,20.97255,79.95602,3580.0,57.28,Sasara,20.95994123,79.95644936
237,Sakoli,0.331777607462,SATALWADA,21.14638,80.06976,1765.0,28.24,Satalwada,21.14887597,80.07151295
238,Sakoli,0.327105518952,SAWARBHAND,21.04099,79.98322,1669.0,26.704,Sawarbandh,21.03902993,79.9808697
239,Sakoli,0.293004032057,SIREGAONTOLA,20.94045,80.02076,564.0,9.024,Siregaontola,20.94242301,80.02263016
240,Sakoli,1.09286074445,MOKHE,21.11819,80.0543,619.0,9.904,Sitepar,21.12354108,80.0454624
241,Sakoli,0.100533316576,SHIWANIBANDH,20.98951,79.9822,1504.0,24.064,Sivanibandh,20.99040199,79.98204192
242,Sakoli,1.82886889503,USGAON,21.17812,79.84966,1435.0,22.96,Sonegaon,21.1901022,79.86174351
243,Sakoli,0.751391161895,SONPURI,21.12241,79.94833,88.0,1.408,Sonpuri,21.11604438,79.95076079
244,Sakoli,0.314895879872,SUKADI,21.02106,80.02799,1335.0,21.36,Sukali,21.01988137,80.03074858
245,Sakoli,2.19016139233,CHARGAON,21.07061,80.05772,508.0,8.128,Sundari,21.07060853,80.07882791
246,Sakoli,0.438115441423,TUDAMAPURI,21.13811,80.02839,1210.0,19.36,Tudmapuri,21.13770273,80.03259167
247,Sakoli,1.24596077138,UKARA,21.09775,80.05319,704.0,11.264,Ukara,21.09939712,80.06506987
248,Sakoli,5.96213915305,UMARI,21.02427,80.08596,442.0,7.072,Umari,21.05676689,80.04026443
249,Sakoli,1.02650237385,UMARZARI,21.19097,79.93472,876.0,14.016,Umarzari,21.19514115,79.94355287
250,Sakoli,1.11535372152,USGAON,21.17812,79.84966,1078.0,17.248,Usgaon,21.17193156,79.85812567
251,Sakoli,1.53330587951,VIHIRGAON\BU-,20.95078,79.94709,887.0,14.192,Vihirgaon,20.93892283,79.95462748
252,Sakoli,1.26156373089,WADAD,21.03239,80.01027,770.0,12.32,Wadad,21.02190104,80.00563685
253,Sakoli,1.37457033412,WADEGAON,21.14516,80.03004,1387.0,22.192,Wadegaon,21.15484189,80.03828118
254,Sakoli,0.995154468266,KHAIRIWALMAZRI,21.14136,79.99511,759.0,12.144,Walmazari,21.14618273,80.00319323
255,Sakoli,0.915662675045,WANGI,20.9978,80.08275,154.0,2.464,Wangi,20.99764126,80.09156884
256,Sakoli,3.64799013058,SASARA,20.97255,79.95602,78.0,1.248,Watetekar,21.00532279,79.9576281
257,Sakoli,1.31494093475,VIRSHI,21.11169,80.04568,2898.0,46.368,Wirshi,21.099884,80.04495146
258,Sakoli,1.53003704253,YEKODI,21.1505,79.93787,2822.0,45.152,Yekodi,21.13721717,79.94172132
259,Sakoli,1.50382947967,SALEBARDI,20.90984,79.94,280.0,4.48,Yetgaon,20.90064908,79.95062045
260,Sakoli,1.329210963,ZADGAON,20.98139,80.01051,592.0,9.472,Zadgaon,20.97322254,80.00116186
