,Block Name,Distance,GP Name,GP_lat,GP_long,TOT_P,Throughput,Village Name,Village_lat,Village_long
0,BULDHANA,5.24297524222,DATPUR,20.532357,76.156713,214.0,3.424,Afjalpur,20.53141232,76.10637355
1,BULDHANA,2.49168993096,AJISPUR,20.499657,76.196543,1281.0,20.496,Ajispur,20.48564836,76.17787171
2,BULDHANA,0.83155659114,AMBHODA,20.479443,76.089096,2467.0,39.472,Ambhoda,20.47197217,76.08873767
3,BULDHANA,1.82500523398,SAO,20.484329,76.219242,554.0,8.864,Antriteli,20.4680062,76.22107285
4,BULDHANA,5.7034775505,DAHID KH,20.483507,76.072726,985.0,15.76,Atakal,20.48821515,76.01820174
5,BULDHANA,3.46706303895,HATEDI BK,20.470509,76.108272,143.0,2.288,Awalkhed,20.43951247,76.10466674
6,BULDHANA,0.556629411206,BHADGAON,20.360221,76.060161,2223.0,35.568,Bhadgaon,20.35890981,76.06531404
7,BULDHANA,0.642196225406,BHADOLA,20.520341,76.243113,4433.0,70.928,Bhadola,20.52592525,76.24468647
8,BULDHANA,4.50302889691,BIRSINGPUR,20.548521,76.17564,1591.0,25.456,Birsingpur,20.5346241,76.13501966
9,BULDHANA,3.41178523615,BORKHED,20.558004,76.24247,340.0,5.44,Borkhed,20.56615041,76.27406453
10,BULDHANA,3.59787760493,DHAD,20.40013,76.00467,340.0,5.44,Borkhed,20.39310812,76.03836816
11,BULDHANA,4.50627655707,SAGWAN,20.513766,76.163305,11117.0,177.872,Buldana (Rural),20.54854025,76.18552764
12,BULDHANA,1.60308340803,CHAUTHA,20.504411,76.047219,1678.0,26.848,Chautha,20.49356881,76.03707435
13,BULDHANA,4.52961439724,CHIKHLA,20.459399,76.124196,1187.0,18.992,Chikhala,20.44262896,76.08457501
14,BULDHANA,0.814664084051,DAHID BK,20.496674,76.062518,643.0,10.288,Dahid Bk.,20.4894688,76.06393507
15,BULDHANA,1.13046138209,DAHID KH,20.483507,76.072726,290.0,4.64,Dahid Kh.,20.4894688,76.06393507
16,BULDHANA,1.34284863355,DHALSAVNGI,20.41707,76.02955,3083.0,49.328,Dalsawangi,20.41904147,76.04226327
17,BULDHANA,1.54143145984,GHATNANDRA,20.402223,76.073889,1020.0,16.32,Dasalwadi,20.39029194,76.0814192
18,BULDHANA,1.66294670807,DEULGHAT,20.526509,76.129372,13805.0,220.88,Deulghat,20.52627618,76.11340483
19,BULDHANA,0.571581005599,DHAD,20.40013,76.00467,12340.0,197.44,Dhad,20.40502858,76.0063322
20,BULDHANA,1.7265846296,DONGARKHANDALA,20.494713,76.282063,290.0,4.64,Dongar Khandala,20.5022094,76.29658033
21,BULDHANA,0.517037502708,DUDHA,20.43261,76.06686,320.0,5.12,Dudha,20.42796049,76.06691821
22,BULDHANA,3.37450062549,WARWAND,20.514218,76.281853,500.0,8.0,Gondhankhed,20.53091571,76.30891123
23,BULDHANA,2.65768173381,SAWLA,20.540203,76.213436,878.0,14.048,Hanwatkhed,20.56357195,76.21879239
24,BULDHANA,0.956354502867,HATEDI BK,20.470509,76.108272,643.0,10.288,Hatedi Bk.,20.46434165,76.10187341
25,BULDHANA,1.31033221028,HATEDI KH,20.474481,76.108283,290.0,4.64,Hatedi Kh.,20.46434165,76.10187341
26,BULDHANA,0.487399777465,IRLA,20.29534,76.01538,1099.0,17.584,Irala,20.29836033,76.01876691
27,BULDHANA,3.54002013565,TANDULWADI,20.512544,76.13389,484.0,7.744,Ismailpur,20.4809409,76.12978492
28,BULDHANA,3.97915489717,SAGWAN,20.513766,76.163305,500.0,8.0,Jambharun,20.54857344,76.15443259
29,BULDHANA,2.19351346705,DHAD,20.40013,76.00467,1247.0,19.952,Kardi,20.39021291,75.98647676
30,BULDHANA,3.2444362635,KESAPUR,20.42341,76.08888,1932.0,30.912,Kesapur,20.42663028,76.1198252
31,BULDHANA,2.52038876136,RUIKHED TEKALE,20.48386,76.25264,119.0,1.904,Kherdi,20.48896271,76.2762156
32,BULDHANA,1.76488421391,KHUPGAON,20.47444,76.23244,1165.0,18.64,Khupgaon,20.47743293,76.24907848
33,BULDHANA,0.269838169328,KOLWAD,20.507431,76.146745,4796.0,76.736,Kolwad,20.50540254,76.14532286
34,BULDHANA,0.540757886192,KULMKHED,20.36233,75.94807,1473.0,23.568,Kulamkhed,20.36599016,75.95148558
35,BULDHANA,0.74846131513,KUNBELFAL,20.37737,75.97048,1430.0,22.88,Kumbhefal,20.37907969,75.97742498
36,BULDHANA,1.1033068164,MALWIHIR,20.525864,76.209212,1936.0,30.976,Malvihir,20.51643619,76.2125148
37,BULDHANA,4.61286751419,MALWANDI,20.446249,76.127121,1943.0,31.088,Malwandi,20.42075476,76.09219726
38,BULDHANA,0.292082304762,GHATNANDRA,20.402223,76.073889,1324.0,21.184,Nandraghat,20.40306056,76.07123271
39,BULDHANA,0.613907181922,NANDRAKOLI,20.483885,76.164339,4437.0,70.992,Nandrakoli,20.48798102,76.16038718
40,BULDHANA,0.568640402708,PADALI,20.52026,76.05393,2376.0,38.016,Padli,20.52239398,76.05889228
41,BULDHANA,5.30835061118,PALSKHED BHAT,20.417758,76.150517,290.0,4.64,Palaskhed Bhat,20.37163077,76.13739377
42,BULDHANA,0.711626817747,PALSKHED NAGO,20.52225,76.07874,290.0,4.64,Palaskhed Nago,20.51612559,76.08072302
43,BULDHANA,0.711626817747,PALSKHED NAGO,20.52225,76.07874,290.0,4.64,Palaskhed Naik,20.51612559,76.08072302
44,BULDHANA,0.238222712351,PANGRI,20.43344,76.1482,198.0,3.168,Pangri Pr.Deulghat,20.43159753,76.14936662
45,BULDHANA,2.84324280431,WARWAND,20.514218,76.281853,1219.0,19.504,Pimparkhed,20.53815827,76.27226169
46,BULDHANA,3.28167923467,RUIKHED TEKALE,20.48386,76.25264,545.0,8.72,Pokhari,20.50398399,76.22959357
47,BULDHANA,1.91166234909,RAIPUR,20.38371,76.14789,458.0,7.328,Raipur,20.39644707,76.1602088
48,BULDHANA,2.72400593408,RUIKHED MAIMBA,20.477296,76.27511,1736.0,27.776,Ruikhed,20.49233028,76.25446266
49,BULDHANA,0.960795894097,RUIKHED TEKALE,20.48386,76.25264,1736.0,27.776,Ruikhed,20.49233028,76.25446266
50,BULDHANA,0.825872443029,SAGWAN,20.513766,76.163305,10275.0,164.4,Sagwan,20.51867945,76.16925194
51,BULDHANA,1.32320143376,SAKHLI BK,20.456112,76.196724,1361.0,21.776,Sakhali Bk.,20.46121971,76.18525253
52,BULDHANA,0.619873826931,SAKHLI KH,20.455897,76.183484,1361.0,21.776,Sakhali Kh.,20.46121971,76.18525253
53,BULDHANA,0.905679921833,SAO,20.484329,76.219242,1996.0,31.936,Sao,20.48823761,76.22687031
54,BULDHANA,1.36207628135,SAWLA,20.540203,76.213436,653.0,10.448,Sawala,20.54354168,76.22602194
55,BULDHANA,0.476005336329,SIRPUR,20.43648,76.19169,4232.0,67.712,Shirpur,20.43502529,76.18739353
56,BULDHANA,3.09571989283,TANDULWADI,20.512544,76.13389,975.0,15.6,Tandulwadi,20.48967033,76.11694589
57,BULDHANA,0.675796306468,TRADKHED,20.46496,75.96511,2102.0,33.632,Taradkhed,20.470142,75.96849949
58,BULDHANA,1.00432957848,WARWAND,20.514218,76.281853,2210.0,35.36,Warwand,20.52261993,76.27831375
59,BULDHANA,1.59850609651,YELGAON,20.481133,76.203152,4901.0,78.416,Yelgaon,20.49427441,76.19693058
60,BULDHANA,2.63478832894,AMBHODA,20.479443,76.089096,483.0,7.728,Zari,20.46500602,76.06904002
61,Chikhli,3.59790518408,TAKARKHEDMUSLIM PRAMDAPUR,20.39272,76.40197,523.0,8.368,Ainkhed,20.40998126,76.43116958
62,Chikhli,2.359240525,AMBASHI,20.273264,76.351469,2105.0,33.68,Ambashi,20.29210964,76.36186064
63,Chikhli,3.02893070253,AMDAPUR,20.407444,76.448368,12740.0,203.84,Amdapur,20.43384599,76.45552152
64,Chikhli,2.99495893545,AMKHED,20.27857,76.37137,1518.0,24.288,Amkhed,20.29886659,76.39024729
65,Chikhli,0.665050678866,AMONA,20.22077,76.154987,1907.0,30.512,Amona,20.22420898,76.16020183
66,Chikhli,0.72135340281,ANCHARWADI,20.178738,76.20837,2956.0,47.296,Ancharwadi,20.18456694,76.21140378
67,Chikhli,2.61898678935,ANDHAI,20.41172,76.31376,600.0,9.6,Andhai,20.43319759,76.324076
68,Chikhli,1.59452263972,ANTRI KHEDEKAR,20.215364,76.289871,290.0,4.64,Antri Khedekar,20.2281358,76.29681953
69,Chikhli,5.32064895035,SHELGAON JAHANGIR,20.324587,76.322842,779.0,12.464,Anwi,20.37129585,76.33391988
70,Chikhli,0.923732729052,ASOLA PRKHERDA,20.20832,76.26228,290.0,4.64,Asola Pr.kherda,20.2134811,76.2692167
71,Chikhli,3.0222793053,BERALA,20.275613,76.247386,1395.0,22.32,Berala,20.30132481,76.25678114
72,Chikhli,2.17093940212,BHALGAON,20.293889,76.260556,2236.0,35.776,Bhalgaon,20.30701675,76.2759643
73,Chikhli,1.93114413977,BHANKHED,20.309722,76.246111,1651.0,26.416,Bhankhed.,20.32357445,76.25728108
74,Chikhli,0.356535837097,BHAROSA,20.232456,76.238716,2822.0,45.152,Bharosa,20.23241094,76.24213292
75,Chikhli,1.71912149982,BHOGAWATI,20.34814,76.21739,982.0,15.712,Bhogawati,20.36305878,76.22171666
76,Chikhli,2.65397354468,BHOKAR,20.295964,76.195364,2174.0,34.784,Bhokar,20.31415902,76.17889345
77,Chikhli,2.78157023606,BHORSA,20.319095,76.397558,1221.0,19.536,Bhorsa,20.33560269,76.41760144
78,Chikhli,2.78157023606,BHORSA,20.319095,76.397558,633.0,10.128,Bhorse,20.33560269,76.41760144
79,Chikhli,3.52012893618,MALSHEMBA,20.35187,76.13216,993.0,15.888,Borala,20.34561639,76.16525906
80,Chikhli,3.65011240594,BORGAONWASU,20.37041,76.285408,891.0,14.256,Borgaonwasu,20.37964614,76.31901048
81,Chikhli,2.37653961312,CHANDANPUR,20.22905,76.33121,1187.0,18.992,Chandanpur,20.24339205,76.34809857
82,Chikhli,2.61898678935,ANDHAI,20.41172,76.31376,358.0,5.728,Chandhai,20.43319759,76.324076
83,Chikhli,4.75110183742,CHANDHAIPRCHIKHLI,20.295964,76.226578,35.0,0.56,Chandhai Pr.chikhali,20.33818424,76.23357912
84,Chikhli,3.15284950046,DAHIGAON,20.369025,76.381575,1828.0,29.248,Dahigaon,20.39710062,76.37734485
85,Chikhli,4.01971266482,DASALA,20.475876,76.478301,1068.0,17.088,Dasala,20.47257608,76.43987436
86,Chikhli,1.11840819765,DEULGAONDHANGAR,20.239543,76.208774,262.0,4.192,Deulgaon Dhangar,20.24741676,76.21544455
87,Chikhli,2.86885838916,PANDHARDEO,20.3388,76.412581,46.0,0.736,Dewadari,20.36457882,76.4137027
88,Chikhli,2.51215448535,DHANORI,20.335047,76.497713,1066.0,17.056,Dhanori,20.35716422,76.50262868
89,Chikhli,1.72291573078,DHODAP,20.44723,76.31984,1520.0,24.32,Dhodap,20.4624169,76.32311909
90,Chikhli,2.78387175854,DHOTRA BHANGOJI,20.39758,76.33815,500.0,8.0,Dhotra Bhangoji,20.41925058,76.35152702
91,Chikhli,1.03667787181,DHOTRA NAIK,20.416509,76.539586,500.0,8.0,Dhotra Naik,20.42526511,76.53616972
92,Chikhli,2.86122276011,DIWATHANA,20.37746,76.31386,1497.0,23.952,Diwathana,20.4024897,76.32022801
93,Chikhli,3.16030471349,DONGARGAON,20.294698,76.467667,777.0,12.432,Dongargaon,20.32305784,76.46567503
94,Chikhli,2.51643548588,DONGAR SHEWALI,20.464551,76.320176,3253.0,52.048,Dongar Shewali,20.48695619,76.3167731
95,Chikhli,0.732419549969,EKLARA,20.324725,76.381533,2891.0,46.256,Eklara,20.33015545,76.37755766
96,Chikhli,2.74227472649,GANGALGAON,20.25944,76.31139,2808.0,44.928,Gangalgaon,20.27897245,76.32744017
97,Chikhli,3.22115390052,KARATWADI,20.370704,76.432612,275.0,4.4,Ghanmod,20.3947276,76.41534301
98,Chikhli,5.9007678821,BRAMHAPURI,20.39509,76.294397,467.0,7.472,Girola,20.43121009,76.25291485
99,Chikhli,1.73270127851,GODRI,20.328901,76.190444,2788.0,44.608,Godri,20.34145164,76.20029353
100,Chikhli,3.42408509044,GUNJALA,20.167343,76.289871,835.0,13.36,Gunjala,20.19802633,76.2870978
101,Chikhli,4.44841322025,PIMPARKHEDPRAMDAPUR,20.377181,76.465329,861.0,13.776,Haralkhed,20.40603881,76.49488825
102,Chikhli,2.59376493442,HARNI,20.48501,76.43194,1936.0,30.976,Harni,20.50825553,76.43401042
103,Chikhli,2.05846295933,HATNI,20.39632,76.23624,1636.0,26.176,Hatni,20.41299286,76.24482328
104,Chikhli,5.15983094937,ISOLI,20.348184,76.487698,5210.0,83.36,Isoli,20.38985676,76.50947185
105,Chikhli,0.81280061719,ISRUL,20.150251,76.127736,2453.0,39.248,Isrul,20.15442149,76.1341307
106,Chikhli,0.405555099284,BHANKHED,20.309722,76.246111,885.0,14.16,Jambhora,20.31038301,76.24228637
107,Chikhli,4.35132873654,KARANKHED,20.390409,76.404568,968.0,15.488,Karankhed,20.42340891,76.38212742
108,Chikhli,4.29704852505,KARATWADI,20.370704,76.432612,912.0,14.592,Karatwadi,20.39945068,76.40505997
109,Chikhli,2.74947740626,PIMPARKHEDPRAMDAPUR,20.377181,76.465329,688.0,11.008,Karkheda,20.40169376,76.46879115
110,Chikhli,1.85216536516,KARWAND,20.456314,76.378375,3535.0,56.56,Karwand,20.47282513,76.38072215
111,Chikhli,1.95251119606,KATODA,20.24746,76.342875,1686.0,26.976,Katoda,20.26290581,76.35177766
112,Chikhli,4.79826731028,KAVHALA,20.474847,76.440966,2555.0,40.88,Kavhala,20.44756408,76.40528229
113,Chikhli,1.78129580517,KAWATHAL,20.23491,76.31475,1066.0,17.056,Kawathal,20.24963127,76.32148339
114,Chikhli,0.657719600008,KELWAD,20.43971,76.22419,3269.0,52.304,Kelwad,20.44549678,76.22549731
115,Chikhli,2.33585772772,KHAIRAV,20.283753,76.338425,1936.0,30.976,Khairav,20.30475553,76.33796958
116,Chikhli,2.074038564,KHANDALA MAKARDHWAJ,20.32359,76.297325,579.0,9.264,Khandala Makardhwaj,20.34199321,76.30056485
117,Chikhli,0.811464657077,KHOR,20.324445,76.144238,1313.0,21.008,Khor,20.33167211,76.14315835
118,Chikhli,3.16235491953,KINHI SAWADAT,20.46405,76.48203,1648.0,26.368,Kinhi Sawadad,20.49178847,76.48873003
119,Chikhli,2.04995073239,KINHOLA,20.450462,76.297402,1420.0,22.72,Kinhola,20.46452133,76.28467416
120,Chikhli,2.5100051097,KOLARA,20.287009,76.296807,3088.0,49.408,Kolara,20.30730059,76.30735071
121,Chikhli,1.45382211621,KONAD,20.24385,76.165018,938.0,15.008,Konad,20.24977504,76.15259549
122,Chikhli,4.95332602807,KARANKHED,20.390409,76.404568,142.0,2.272,Mahattamkhed,20.43380474,76.39383496
123,Chikhli,4.90994795239,MAHIMAL,20.364135,76.415586,812.0,12.992,Mahimal,20.4017573,76.39092627
124,Chikhli,1.10429586447,MALGI,20.273151,76.235248,1125.0,18.0,Malagi,20.28296035,76.23690121
125,Chikhli,1.75848601513,MALGANI,20.37678,76.23351,1250.0,20.0,Malgani,20.39025446,76.24234164
126,Chikhli,1.13256268421,MALSHEMBA,20.35187,76.13216,1350.0,21.6,Malshemba,20.35485511,76.14254661
127,Chikhli,3.74627861918,MANGRUL PR KHERDA,20.17271,76.15422,1899.0,30.384,Mangrul Pr Kherda,20.17414185,76.11835941
128,Chikhli,3.22115390052,KARATWADI,20.370704,76.432612,260.0,4.16,Manmod,20.3947276,76.41534301
129,Chikhli,1.40892239174,MANUBAI,20.173854,76.307212,900.0,14.4,Manubai,20.18627973,76.30985389
130,Chikhli,5.62286807416,MERA BK,20.185249,76.289004,643.0,10.288,Mera  Bk.,20.21159085,76.33499722
131,Chikhli,1.95244363216,MERA KH,20.226758,76.265594,290.0,4.64,Mera Kh.,20.24042862,76.27733796
132,Chikhli,3.81583665661,MISALWADI,20.18039,76.20779,1015.0,16.24,Misalwadi,20.21128241,76.19186817
133,Chikhli,4.74097917061,MOHADARI,20.470729,76.454143,1072.0,17.152,Mohadari,20.4544015,76.49618214
134,Chikhli,3.23811286915,MUNGSARI,20.32754,76.367511,719.0,11.504,Mungasari,20.32525014,76.33655229
135,Chikhli,1.24626388652,MURADPUR,20.263384,76.256057,956.0,15.296,Muradpur,20.27413192,76.25944478
136,Chikhli,1.14173572731,PALASKHED DAULAT,20.31662,76.21287,624.0,9.984,Palaskhed  Daulat,20.31861826,76.22360976
137,Chikhli,4.76936137676,SHELUD,20.35658,76.27528,624.0,9.984,Palaskhed Jayanti,20.39699517,76.25995698
138,Chikhli,3.01457775294,DHODAP,20.44723,76.31984,290.0,4.64,Palaskhed Sapkal,20.46562244,76.34109818
139,Chikhli,4.34335721428,PANDHARDEO,20.3388,76.412581,1176.0,18.816,Pandhardeo,20.37319861,76.39284214
140,Chikhli,2.75302867668,PATODA,20.307835,76.411579,977.0,15.632,Patoda,20.32973957,76.39927302
141,Chikhli,1.90466466291,PETH,20.37185,76.33298,2316.0,37.056,Peth,20.38478541,76.3449582
142,Chikhli,1.97707709249,PIMPARKHEDPRAMDAPUR,20.377181,76.465329,2546.0,40.736,Pimparkhed Pr.Amdapur,20.39338278,76.47314232
143,Chikhli,3.07029634878,BHAROSA,20.232456,76.238716,1169.0,18.704,Ramnagar,20.25363301,76.25760104
144,Chikhli,2.27115627726,RANANTRI,20.25136,76.36113,828.0,13.248,Ranantri,20.26913746,76.37185023
145,Chikhli,2.12660688452,ROHADA,20.260943,76.276866,1630.0,26.08,Rohada,20.2727535,76.29290133
146,Chikhli,4.99261245941,SAKEGAON,20.32754,76.211268,1481.0,23.696,Sakegaon,20.36001661,76.17820143
147,Chikhli,2.8979304752,SATGAON BHUSARI,20.40073,76.196244,2534.0,40.544,Satgaon Bhusari,20.41393057,76.22022007
148,Chikhli,3.21330878392,DHANORI,20.335047,76.497713,500.0,8.0,Sawarkhed Bk.,20.35822879,76.4793109
149,Chikhli,3.21330878392,DHANORI,20.335047,76.497713,500.0,8.0,Sawarkhed Kh.,20.35822879,76.4793109
150,Chikhli,5.88031284903,KAVHALA,20.474847,76.440966,290.0,4.64,Sawarkhed Najik,20.43237204,76.40734255
151,Chikhli,1.63068339774,SAWNA,20.41339,76.2873,5452.0,87.232,Sawna,20.42687861,76.2934411
152,Chikhli,1.21404045747,SHELGAON ATOL,20.18851,76.16411,593.0,9.488,Shelgaon  Atol,20.19690012,76.17155405
153,Chikhli,2.65383941811,SHELODI,20.41672,76.35954,1603.0,25.648,Shelodi,20.43980509,76.36600381
154,Chikhli,2.57942288158,SHELSUR,20.42089,76.33701,2057.0,32.912,Shelsur,20.44322834,76.34368397
155,Chikhli,3.44712858624,SHELUD,20.35658,76.27528,3200.0,51.2,Shelud,20.38603744,76.28558401
156,Chikhli,5.19230932777,KARWAND,20.456314,76.378375,626.0,10.016,Shrikrishna Nagar,20.50243704,76.38615656
157,Chikhli,2.29237466118,SOMTHANA,20.37609,76.30104,1055.0,16.88,Somthana,20.39640203,76.30480173
158,Chikhli,2.89987879827,SONEWADI,20.412929,76.221283,1454.0,23.264,Sonewadi,20.40749533,76.19406751
159,Chikhli,4.00805660124,TAKARKHED HELGA,20.453226,76.44975,290.0,4.64,Takarkhed Helga,20.47476727,76.4189028
160,Chikhli,2.81863573922,TAKARKHEDMUSLIM PRAMDAPUR,20.39272,76.40197,4.0,0.064,Takarkhed (muslim Pr.Amdapur),20.41716613,76.4091224
161,Chikhli,2.51094334421,BHOGAWATI,20.34814,76.21739,2553.0,40.848,Tambulwadi,20.36098183,76.2372015
162,Chikhli,2.50366775286,TELHARA,20.331294,76.339467,1314.0,21.024,Telhara,20.34810495,76.35544182
163,Chikhli,2.2846430255,TORANWADA,20.447964,76.496192,1357.0,21.712,Toranwada,20.4685007,76.49552212
164,Chikhli,1.79126257211,UNDRI,20.459403,76.461829,7129.0,114.064,Undri,20.47542037,76.46366246
165,Chikhli,3.60903697866,VAIRAGAD,20.478965,76.494772,2401.0,38.416,Vairagad,20.5029147,76.47138667
166,Chikhli,3.89515750133,ANCHARWADI,20.178738,76.20837,894.0,14.304,Vasantnagar,20.20004737,76.23799322
167,Chikhli,5.28282529045,ANTRI KOLI,20.336924,76.223286,723.0,11.568,Waghapur,20.38178274,76.2065955
168,Chikhli,2.84958098631,WALTI,20.38519,76.25796,376.0,6.016,Walti,20.40787049,76.27068838
169,Chikhli,4.64808494895,WARKHED,20.358505,76.460656,111.0,1.776,Warkhed,20.38484537,76.42603234
170,Chikhli,1.65661777207,YEWATA,20.276427,76.19363,2030.0,32.48,Yewata,20.28386564,76.20739148
171,Malkapur,1.19553569527,ALAND,20.84643,76.11183,1279.0,20.464,Aland,20.83711768,76.10607973
172,Malkapur,1.97900241381,ANURABAD,20.9185,76.23773,1305.0,20.88,Anurabad,20.90075086,76.23632505
173,Malkapur,2.90761783283,BAHAPURA,20.89173,76.24976,2050.0,32.8,Bahapura,20.87191754,76.2314949
174,Malkapur,1.63639278756,BELAD,20.86299,76.23753,11117.0,177.872,Balad Pr. Malkapur,20.85347598,76.22551509
175,Malkapur,1.88481298474,BHADGANI,20.7778,76.248167,2868.0,45.888,Bhadgani,20.77805852,76.23003947
176,Malkapur,1.18719296329,BHALEGAON,20.92196,76.15382,1430.0,22.88,Bhalegaon,20.91141804,76.15563003
177,Malkapur,1.65014311325,CHIKHALI,20.99579,76.1591,35.0,0.56,Chikhali,20.99958134,76.17446814
178,Malkapur,1.92533808769,HARANKHED,20.858012,76.081666,32.0,0.512,Chinchkhed BK.,20.85918073,76.1001531
179,Malkapur,2.41703683728,WAGHOLA,20.99523,76.1948,392.0,6.272,Chinchol,20.99511857,76.21808235
180,Malkapur,0.277796156652,DASARKHED,20.96518,76.18233,1495.0,23.92,Dasarkhed,20.96559782,76.18496772
181,Malkapur,1.66313191156,DATALA,20.81582,76.20232,7256.0,116.096,Datala,20.80685977,76.18950815
182,Malkapur,3.31223115523,DEODHABA,20.947271,76.13243,3919.0,62.704,Deodhaba,20.92314327,76.11372663
183,Malkapur,2.53111875479,DHARANGAON,20.936114,76.204845,500.0,8.0,Dharangaon,20.91504713,76.21407567
184,Malkapur,1.44368566327,DUDHALGAON BK,20.83104,76.14568,986.0,15.776,Dudhalgaon BK.,20.82749054,76.13231794
185,Malkapur,1.44368566327,DUDHALGAON KD,20.83104,76.14568,986.0,15.776,Dudhalgaon Kh.,20.82749054,76.13231794
186,Malkapur,1.65320059009,WAKODI,20.871261,76.19066,1070.0,17.12,Gadegaon,20.85673552,76.19405359
187,Malkapur,2.04262546401,GHIRNI PC,20.84669,76.23595,3102.0,49.632,Ghirni,20.83454736,76.22120079
188,Malkapur,0.443643891191,GORAD,20.91728,76.08855,625.0,10.0,Gorad,20.91714395,76.09281879
189,Malkapur,0.765781807656,HARANKHED,20.858012,76.081666,1510.0,24.16,Harankhed,20.85623912,76.07454461
190,Malkapur,0.320360605248,HARSODA,20.9423,76.27497,2157.0,34.512,Harsoda,20.93948986,76.2742897
191,Malkapur,2.53111875479,DHARANGAON,20.936114,76.204845,362.0,5.792,Hingana Dharangaon,20.91504713,76.21407567
192,Malkapur,0.607361137024,HINGNA KAZI,20.91406,76.13296,362.0,5.792,Hingana Kazi,20.91046662,76.13736378
193,Malkapur,3.1504738652,JAMBHULDHABA,20.864985,76.094357,2507.0,40.112,Jambhuldhaba,20.86169191,76.12447246
194,Malkapur,0.446876919149,KALEGAON,20.94881,76.29722,11409.0,182.544,Kalegaon Pr.Malkapur,20.95197998,76.29457481
195,Malkapur,2.55015075938,GORAD,20.91728,76.08855,90.0,1.44,Khadki,20.90521761,76.10943097
196,Malkapur,1.19196319867,KHAMKHED,20.89992,76.13041,500.0,8.0,Khamkhed Pr.Malkapur,20.88920301,76.13066234
197,Malkapur,2.0231508524,BELAD,20.86299,76.23753,13.0,0.208,Khaparkhed,20.86919369,76.21922513
198,Malkapur,2.95044814101,WAKODI,20.871261,76.19066,500.0,8.0,Khokodi,20.8529518,76.17010772
199,Malkapur,1.31566142546,KUND BK,20.91074,76.20134,643.0,10.288,Kund Bk.,20.89981686,76.2062082
200,Malkapur,1.32870806818,KUND KD,20.90977,76.19913,290.0,4.64,Kund Kh.,20.89981686,76.2062082
201,Malkapur,2.8883779062,LASURA,20.78497,76.28755,1173.0,18.768,Lasura,20.78812111,76.25997088
202,Malkapur,2.19588853125,LONWADI,20.86148,76.16252,3159.0,50.544,Lonwadi Pr.Malkapur,20.84851216,76.14658211
203,Malkapur,1.95578858696,MAKNER,20.82979,76.25446,1396.0,22.336,Makner,20.82321242,76.237007
204,Malkapur,4.12637759042,WAKODI,20.871261,76.19066,11117.0,177.872,Malkapur  (Rural),20.85347598,76.22551509
205,Malkapur,4.53911967307,MHAISWADI,21.001076,76.188438,2010.0,32.16,Mhaiswadi,20.96994331,76.21671699
206,Malkapur,1.6107286412,MORKHED BK,20.81641,76.16179,324.0,5.184,Morkhed Bk.,20.80320871,76.15541067
207,Malkapur,1.6107286412,MORKHED BK,20.81641,76.16179,324.0,5.184,Morkhed Kh.,20.80320871,76.15541067
208,Malkapur,2.14658400865,NARWEL,20.964256,76.221457,4136.0,66.176,Narwel,20.96261982,76.24205568
209,Malkapur,1.70895999108,NIMBARI,20.84317,76.18956,1068.0,17.088,Nimbari,20.83582117,76.17511691
210,Malkapur,2.80493235142,KUND KD,20.90977,76.19913,124.0,1.984,Nimboli,20.91503884,76.17272142
211,Malkapur,2.49968165332,NIMKHED,20.753146,76.278546,389.0,6.224,Nimkhed Pr.Vadner,20.76276589,76.25681765
212,Malkapur,1.47993024566,PANHERA,20.89679,76.25922,500.0,8.0,Panhera Pr.Malkapur,20.88982417,76.24708093
213,Malkapur,0.679962442777,PIMPALKHUTA BK,20.77175,76.27776,1279.0,20.464,Pimpalkhuta Pr.Vadner,20.76775007,76.27281311
214,Malkapur,1.79746257859,BHALEGAON,20.92196,76.15382,712.0,11.392,Rangaon,20.93569335,76.14469122
215,Malkapur,0.655803595881,CHIKHALI,20.99579,76.1591,868.0,13.888,Rantham,20.99155263,76.16349393
216,Malkapur,1.26306681536,WARKHED,20.799084,76.295518,753.0,12.048,Sawali,20.79464332,76.28433428
217,Malkapur,2.16326197825,BHALEGAON,20.92196,76.15382,249.0,3.984,Shivni,20.93669049,76.16742585
218,Malkapur,2.17873192552,SHIRADHON,20.82951,76.1816,1066.0,17.056,Siradhon,20.81966227,76.16347678
219,Malkapur,0.448716792732,TALASWADA,20.9518,76.20401,1549.0,24.784,Talaswada,20.94960649,76.20038303
220,Malkapur,1.23993513325,TANDULWADI,20.94775,76.20545,499.0,7.984,Tandulwadi Pr.Malkapur,20.93685655,76.20800132
221,Malkapur,1.68490929161,TIGHRA,20.97609,76.12487,500.0,8.0,Tighra Pr.Malkapur,20.96204371,76.13095711
222,Malkapur,1.7934048008,UMALI,20.81415,76.23711,4373.0,69.968,Umali,20.80202545,76.22573194
223,Malkapur,0.885022932836,WADJI,20.834302,76.074947,1544.0,24.704,Wadji,20.83059074,76.08248049
224,Malkapur,0.614293949989,WADODA,20.89839,76.27942,3560.0,56.96,Wadoda,20.89676033,76.27376968
225,Malkapur,0.550086462384,WAGHOLA,20.99523,76.1948,2062.0,32.992,Waghola,20.9978776,76.19927614
226,Malkapur,1.99250017929,WAGHUD,20.87238,76.26682,2356.0,37.696,Waghud,20.86035871,76.25259901
227,Malkapur,2.65539613667,KHAMKHED,20.89992,76.13041,272.0,4.352,Wajirabad,20.88397935,76.14944266
228,Malkapur,2.59334930302,WAKODI,20.871261,76.19066,2031.0,32.496,Wakodi,20.84818103,76.18706962
229,Malkapur,3.25361678993,WARKHED,20.799084,76.295518,111.0,1.776,Warkhed,20.80536291,76.26494623
230,Malkapur,0.533203997247,VIWARA,20.95984,76.15743,1686.0,26.976,Wiwara,20.95874094,76.16242828
231,Malkapur,0.974602787385,ZODGA,20.92267,76.23986,2486.0,39.776,Zodga,20.92798622,76.24732053
232,Nandura,2.55756030641,ALAMPUR,20.89823,76.4352,3310.0,52.96,Alampur,20.88361685,76.41618821
233,Nandura,1.42360199942,AMBODA,20.81971,76.49849,2165.0,34.64,Amboda,20.82258053,76.48514146
234,Nandura,3.31568998218,WADNER BHOLJI,20.83561,76.32638,159.0,2.544,Aurangapur,20.81628151,76.30208673
235,Nandura,0.795374832597,AWADHA BK,20.853547,76.491606,643.0,10.288,Avdha Bk.,20.86001606,76.4883397
236,Nandura,0.795374832597,AWADHA BK,20.853547,76.491606,290.0,4.64,Avdha Kh.,20.86001606,76.4883397
237,Nandura,2.89760063437,MURAMBA,20.72557,76.39582,973.0,15.568,Barafgaon,20.74893911,76.38349117
238,Nandura,2.96306337678,BELAD,20.92899,76.461479,27.0,0.432,Belad Pr.Jalgaon,20.90893323,76.44269635
239,Nandura,2.15215990343,BELURA,20.76011,76.30316,987.0,15.792,Belura,20.75553271,76.28304871
240,Nandura,4.54486772106,MATODA,20.8565,76.39902,255.0,4.08,Bhilvadi,20.86478034,76.35618681
241,Nandura,0.863664785502,TARWADI,20.74627,76.34583,634.0,10.144,Bhorwand,20.75328526,76.34939506
242,Nandura,1.02006614289,BHOTA,20.92052,76.52309,1350.0,21.6,Bhota,20.91158255,76.52530432
243,Nandura,2.85048076436,BHISINGA,20.84344,76.490834,519.0,8.304,Bhuising,20.83674933,76.46435521
244,Nandura,2.76456071318,MATODA,20.8565,76.39902,7156.0,114.496,Burti Pr.Chandur,20.8656817,76.37429439
245,Nandura,1.91701197263,WADNER BHOLJI,20.83561,76.32638,958.0,15.328,Burti Pr.Wadner,20.83894742,76.30828233
246,Nandura,2.14816917541,CHANDUR BISWA,20.875549,76.309028,7156.0,114.496,Chandur Biswa,20.88412594,76.32755532
247,Nandura,4.35458193417,JAWALA BAZAR,20.75941,76.30418,32.0,0.512,Chinchkhed Pr.Malkapur,20.78438838,76.33643835
248,Nandura,2.77567069745,DADGAON,20.91488,76.50139,1220.0,19.52,Dadgaon,20.89986478,76.48004321
249,Nandura,1.92980918096,DAHIGAON,20.85864,76.40058,1828.0,29.248,Dahigaon,20.87432688,76.39263428
250,Nandura,4.63634994454,DAHIWADI,20.840945,76.397059,1150.0,18.4,Dahivadi,20.84379616,76.35254824
251,Nandura,2.42109821005,MAMULWADI,20.896664,76.388806,520.0,8.32,Dhadi,20.88023124,76.37351659
252,Nandura,2.2102321175,DHANORA V,20.86551,76.29213,3549.0,56.784,Dhanora Pr.Chandur,20.8572319,76.27279092
253,Nandura,1.3859111601,DIGHI,20.858734,76.314057,947.0,15.152,Dighi,20.86595772,76.3249266
254,Nandura,3.80665710678,TAKARKHED,20.73227,76.28233,231.0,3.696,Dolkhed,20.74993514,76.25097347
255,Nandura,3.51720898772,WADGAON DIGHI,20.91595,76.31573,362.0,5.792,Hingana,20.90410116,76.34712556
256,Nandura,1.53812838126,HINGANA BHOTA,20.92194,76.53512,958.0,15.328,Hingna Bhota,20.91158255,76.52530432
257,Nandura,1.56192522964,ISABPUR,20.8589,76.41438,727.0,11.632,Isabpur,20.86452475,76.40060559
258,Nandura,4.63454916777,HINGANA BHOTA,20.92194,76.53512,432.0,6.912,Isapur,20.88260139,76.52037834
259,Nandura,1.03303793386,ISARKHED,20.94906,76.33887,604.0,9.664,Isarkheda,20.94054695,76.33488683
260,Nandura,1.89464009244,JIGAON,20.93582,76.38552,2116.0,33.856,Jigaon,20.92057425,76.37737395
261,Nandura,3.24067028937,TARWADI,20.74627,76.34583,517.0,8.272,Kandari Bk.,20.72188346,76.3287664
262,Nandura,3.24067028937,TARWADI,20.74627,76.34583,517.0,8.272,Kandari Kh.,20.72188346,76.3287664
263,Nandura,1.29496931923,KATI,20.83015,76.27814,1909.0,30.544,Kati,20.82832869,76.26583303
264,Nandura,4.75554401901,DAHIWADI,20.840945,76.397059,388.0,6.208,Kedar,20.85307252,76.3531739
265,Nandura,2.92840802329,KHADATGAON,20.76941,76.41306,1432.0,22.912,Khadatgaon,20.770242,76.3849078
266,Nandura,1.5735283776,KHAIRA,20.73618,76.32234,1967.0,31.472,Khaira,20.73866672,76.30744406
267,Nandura,2.43135917323,TIKODI,20.80945,76.36536,579.0,9.264,Khandala,20.78807276,76.36044351
268,Nandura,4.21142541833,BELAD,20.92899,76.461479,302.0,4.832,Kharkundi,20.90535401,76.42979718
269,Nandura,5.90322773189,BHISINGA,20.84344,76.490834,756.0,12.096,Khatkhed,20.80830851,76.44824948
270,Nandura,3.5169933363,CHANDUR BISWA,20.875549,76.309028,1899.0,30.384,Kherda,20.90264873,76.32648502
271,Nandura,2.04617831082,KHUMGAON,20.871185,76.401011,2017.0,32.272,Khumgaon,20.87298063,76.3814109
272,Nandura,3.78569673464,PATONDA,20.917321,76.444504,214.0,3.424,Kodarkhed,20.91089269,76.40871275
273,Nandura,1.64630815271,KOKALWADI,20.7946,76.31477,606.0,9.696,Kokalwadi,20.79655166,76.29907084
274,Nandura,4.6706985374,DAHIWADI,20.840945,76.397059,686.0,10.976,Kolasar,20.82772633,76.35439913
275,Nandura,2.9081000351,LONWADI,20.79273,76.40746,3159.0,50.544,Lonwadi Pr.Nandura,20.7930252,76.37948658
276,Nandura,2.11593922533,MAHALUNGI,20.76644,76.37087,840.0,13.44,Mahalundi Pr.Wadner,20.76629658,76.35051934
277,Nandura,2.56534329914,MALEGAON,20.78668,76.42823,2062.0,32.992,Malegaon Pr.P.Raja,20.79297784,76.40448979
278,Nandura,1.2211616033,MAMULWADI,20.896664,76.388806,1460.0,23.36,Mamulwadi,20.89320799,76.377648
279,Nandura,1.73420158801,MATODA,20.8565,76.39902,899.0,14.384,Matoda,20.85048772,76.38362065
280,Nandura,1.82289200639,MENDHALI,20.7739,76.30922,1375.0,22.0,Mendhali,20.78095661,76.29339356
281,Nandura,0.283921480446,MOMINABAD,20.91664,76.31909,522.0,8.352,Mominabad,20.91418926,76.31832282
282,Nandura,1.33439075957,MURAMBA,20.72557,76.39582,767.0,12.272,Muramba,20.73163876,76.38475061
283,Nandura,2.97688702096,NAYGAON,20.82517,76.36773,1443.0,23.088,Naigaon,20.83054754,76.33967023
284,Nandura,1.13618516951,NARKHED,20.870152,76.516326,2264.0,36.224,Narakhed,20.86613548,76.50627098
285,Nandura,1.96262669486,AWADHA BK,20.853547,76.491606,303.0,4.848,Narayanpur,20.85057034,76.47298913
286,Nandura,2.09507937439,NIMGAON,20.86354,76.4784,9141.0,146.256,Nimgaon,20.87286104,76.46087609
287,Nandura,2.41750012416,PALSODA,20.932417,76.412067,1275.0,20.4,Palsoda,20.91505257,76.39806088
288,Nandura,3.55555580789,PATONDA,20.917321,76.444504,1291.0,20.656,Patonda,20.90270629,76.41405832
289,Nandura,2.36028448597,PIMPALKHUTA DHANDE,20.81479,76.40633,1279.0,20.464,Pimpalkhuta Dhande,20.81495354,76.38362201
290,Nandura,3.47725312506,PIMPALKHUTA KD,20.790761,76.362425,1279.0,20.464,Pimpalkhuta Kh.,20.81495354,76.38362201
291,Nandura,2.20710949116,ISARKHED,20.94906,76.33887,495.0,7.92,Pimprikoli,20.94379769,76.31837698
292,Nandura,4.16704625318,TARWADI,20.74627,76.34583,717.0,11.472,Pota,20.77520565,76.32036217
293,Nandura,2.92013995001,POTALI,20.80081,76.36392,2028.0,32.448,Potali,20.79998625,76.3358414
294,Nandura,1.74970686503,RAMPUR,20.86153,76.47678,907.0,14.512,Rampur,20.85748556,76.46050653
295,Nandura,4.81832844044,DHANORA V,20.86551,76.29213,2274.0,36.384,Rasulpur Pr.Wadner,20.82256551,76.28594079
296,Nandura,4.50611690065,HINGANA BHOTA,20.92194,76.53512,358.0,5.728,Roti,20.91613611,76.49218314
297,Nandura,3.55537306608,DAHIWADI,20.840945,76.397059,248.0,3.968,Sangawa,20.82698799,76.36627923
298,Nandura,1.29139869549,DIGHI,20.858734,76.314057,185.0,2.96,Sanpudi,20.85390803,76.32536137
299,Nandura,0.683064225398,SHEMBA BK,20.70802,76.27954,643.0,10.288,Shemba Bk.,20.714153,76.27916647
300,Nandura,0.637446410257,SHEMBA KD,20.71104,76.27402,290.0,4.64,Shemba Kh.,20.714153,76.27916647
301,Nandura,1.50208097471,SIRSODI,20.87689,76.30801,1306.0,20.896,Sirsodi,20.88244842,76.29483269
302,Nandura,3.33160540583,MAMULWADI,20.896664,76.388806,4.0,0.064,Taka,20.890742,76.35736798
303,Nandura,1.23667065976,TAKARKHED,20.73227,76.28233,3424.0,54.784,Takarkhed,20.73827123,76.27231792
304,Nandura,2.59438592877,TARWADI,20.74627,76.34583,894.0,14.304,Tarwadi,20.75476795,76.32259342
305,Nandura,2.63892952572,TIKODI,20.80945,76.36536,1076.0,17.216,Tikodi,20.81401655,76.34044542
306,Nandura,5.99224143806,RAMPUR,20.86153,76.47678,500.0,8.0,Udepur,20.86656443,76.41936109
307,Nandura,1.79536353311,VITALI,20.85357,76.28837,1112.0,17.792,Vitali,20.86787007,76.28034714
308,Nandura,3.28985885502,WADALI,20.81348,76.45097,1616.0,25.856,Wadali,20.81082818,76.41944572
309,Nandura,5.34249967072,DHANORA BK,20.79318,76.4524,1080.0,17.28,Wadgaon Pr.Raja,20.82301773,76.412114
310,Nandura,1.91701197263,WADNER BHOLJI,20.83561,76.32638,10445.0,167.12,Wadner,20.83894742,76.30828233
311,Nandura,0.108748513878,WALTI BK,20.7598,76.44435,643.0,10.288,Walti Bk.,20.76041042,76.44353283
312,Nandura,0.108748513878,WALTI BK,20.7598,76.44435,290.0,4.64,Walti Kh.,20.76041042,76.44353283
313,Nandura,0.853313182602,WASADI BK,20.7803,76.4522,643.0,10.288,Wasadi Bk.,20.77586475,76.44550183
314,Nandura,0.853313182602,WASADI KD,20.7803,76.4522,290.0,4.64,Wasadi  Kh.,20.77586475,76.44550183
315,Nandura,2.68731091802,YERALI,20.92728,76.47459,2138.0,34.208,Yerali,20.90876079,76.45796667
