,Block Name,Distance,GP Name,GP_lat,GP_long,TOT_P,Throughput,Village Name,Village_lat,Village_long
0,BHIVAPUR,0.462896274722,ADDYAL (PUNARVASIT),20.81604,79.53161,833.0,13.328,Adyal,20.81424817,79.53562994
1,BHIVAPUR,2.34208934745,MANORA,20.79559,79.40559,500.0,8.0,Akalabodi,20.77504839,79.40060869
2,BHIVAPUR,0.921143108575,AALESUR,20.61579,79.32062,496.0,7.936,Alesur,20.62309643,79.32479123
3,BHIVAPUR,5.14712089378,ZAMKOLI,20.63175,79.19534,153.0,2.448,Bellarpar,20.59554417,79.22615424
4,BHIVAPUR,1.65283823308,BESUR,20.69398,79.26561,2209.0,35.344,Besur,20.6832992,79.27666033
5,BHIVAPUR,1.35419776989,BHAGEBORI,20.75689,79.46837,847.0,13.552,Bhagebori,20.75061405,79.47953121
6,BHIVAPUR,1.28147174818,BHAGWANPUR,20.65512,79.33731,1356.0,21.696,Bhagwanpur,20.66050958,79.34819661
7,BHIVAPUR,0.736255976188,BHIVI,20.6339,79.1959,604.0,9.664,Bhivi,20.62830508,79.19211636
8,BHIVAPUR,2.4480301956,PULLAR,20.85761,79.50296,249.0,3.984,Bhowari,20.83560613,79.50218898
9,BHIVAPUR,3.64593487362,WAKESHAWAR,20.73173,79.41239,236.0,3.776,Bordkala,20.71310783,79.44124395
10,BHIVAPUR,2.72104245266,ZILBODI,20.68944,79.46234,500.0,8.0,Borgaon S.,20.66586521,79.46935345
11,BHIVAPUR,1.58082657175,BOTEZARI,20.73932,79.33341,651.0,10.416,Botezari,20.72510566,79.33313216
12,BHIVAPUR,4.07670899521,KAWADSHI (B),20.7737,79.28848,694.0,11.104,Chargaon (g),20.75247949,79.32045381
13,BHIVAPUR,4.4057647482,MANDVA(L),20.74364,79.2551,694.0,11.104,Chargaon Mo.,20.73214562,79.295645
14,BHIVAPUR,2.03491269444,CHICHALA,20.75623,79.3541,134.0,2.144,Chichala,20.74223544,79.36671015
15,BHIVAPUR,2.50939107347,MAHALGAON,20.67449,79.23197,609.0,9.744,Chikhalapar,20.66391456,79.25327769
16,BHIVAPUR,1.35732666956,SALEBHATTI(C),20.68415,79.36419,204.0,3.264,Chorvihira,20.69601343,79.36726278
17,BHIVAPUR,0.732317866927,DHAPARLA(D),20.6896,79.4013,435.0,6.96,Dhaparla D.,20.69097465,79.40818488
18,BHIVAPUR,0.983110503008,VIRKHANDI (D.),20.7827,79.45888,435.0,6.96,Dhaparla V.,20.77445381,79.46229079
19,BHIVAPUR,1.06591886319,PAHAMI,20.76121,79.35401,210.0,3.36,Gardapar,20.76778297,79.36147241
20,BHIVAPUR,1.13148199339,GONDBORI,20.7641,79.44476,596.0,9.536,Gondbori,20.76245357,79.45549905
21,BHIVAPUR,2.52386002444,DHAMANGAON(V),20.67212,79.43849,217.0,3.472,Hattibodi,20.680455,79.46105526
22,BHIVAPUR,2.453600393,INDAPUR,20.7325,79.23233,646.0,10.336,Indapur,20.71071119,79.23605607
23,BHIVAPUR,2.01681310345,NAGTAROLI,20.79489,79.52411,33.0,0.528,Jambhurda,20.79200801,79.54326483
24,BHIVAPUR,2.58355698784,JAWRABODI,20.77461,79.4607,184.0,2.944,Jawrabodi,20.77371708,79.48553174
25,BHIVAPUR,0.930252223998,KARGAON,20.78161,79.42321,1868.0,29.888,Kargaon,20.77982828,79.43195279
26,BHIVAPUR,5.92984577897,INDAPUR,20.7325,79.23233,4.0,0.064,Keslapar,20.70127792,79.27855178
27,BHIVAPUR,2.86372114692,MANORA,20.79559,79.40559,5058.0,80.928,Khairgaon,20.77085566,79.41326464
28,BHIVAPUR,1.63779379669,PIRAWA,20.68723,79.30385,297.0,4.752,Khandalzari,20.70173273,79.30110059
29,BHIVAPUR,3.11817594033,AALESUR,20.61579,79.32062,135.0,2.16,Khapari,20.63890225,79.3375887
30,BHIVAPUR,2.56011212315,BHAGWANPUR,20.65512,79.33731,500.0,8.0,Kharkada,20.64044813,79.31834875
31,BHIVAPUR,1.81419404199,SALEBHATTI(D),20.67998,79.21428,307.0,4.912,Khatkheda,20.66994161,79.20053293
32,BHIVAPUR,1.79640309524,AALESUR,20.61579,79.32062,333.0,5.328,Kholdoda,20.59971998,79.31884744
33,BHIVAPUR,1.80356467886,BHAGWANPUR,20.65512,79.33731,517.0,8.272,Khursapar Rithi,20.63890225,79.3375887
34,BHIVAPUR,1.2079059384,JAWRABODI,20.77461,79.4607,6.0,0.096,Kinhala,20.76992181,79.47118048
35,BHIVAPUR,1.95444766775,MOKHEBARDI,20.83965,79.52955,434.0,6.944,Kinhikala,20.82981436,79.54513638
36,BHIVAPUR,1.90431877504,ADDYAL (PUNARVASIT),20.81604,79.53161,376.0,6.016,Kinhikhurda,20.81952153,79.54954951
37,BHIVAPUR,1.85903755207,MOKHEBARDI,20.83965,79.52955,500.0,8.0,Kitadi,20.85621465,79.5319732
38,BHIVAPUR,3.01871096246,PULLAR,20.85761,79.50296,19.0,0.304,Kitadi Rithi,20.85621465,79.5319732
39,BHIVAPUR,4.39279984139,PULLAR,20.85761,79.50296,492.0,7.872,Kolari,20.86410803,79.4612591
40,BHIVAPUR,2.1404543987,DHAMANGAON(G),20.60076,79.2862,908.0,14.528,Lonara,20.61957332,79.28184645
41,BHIVAPUR,1.18131314979,JAWALI,20.70958,79.40579,500.0,8.0,Mahadapur,20.71980287,79.40888086
42,BHIVAPUR,1.27522848097,MAHALGAON,20.67449,79.23197,643.0,10.288,Mahalgaon,20.66306683,79.2308824
43,BHIVAPUR,0.948727127115,MALEWADA,20.72917,79.3785,1759.0,28.144,Malewada,20.72914091,79.38762262
44,BHIVAPUR,1.87694025134,MANDVA(L),20.74364,79.2551,1614.0,25.824,Mandwa,20.73190555,79.26807435
45,BHIVAPUR,0.715217908091,MANDVA(S),20.75066,79.40222,1614.0,25.824,Mandwa,20.74558772,79.40644955
46,BHIVAPUR,1.38924252458,NAKSHI,20.73583,79.48521,369.0,5.904,Mangli,20.7350663,79.47187589
47,BHIVAPUR,1.40450500489,MANGRUD,20.78253,79.32943,1761.0,28.176,Mangrud,20.77067779,79.33410037
48,BHIVAPUR,1.55231765732,NAND,20.6518,79.2893,10.0,0.16,Mankapur,20.6440992,79.27685644
49,BHIVAPUR,0.384006899452,MANORA,20.79559,79.40559,805.0,12.88,Manora,20.79368399,79.40867051
50,BHIVAPUR,1.1451443899,MARUPAR (PUNARVASIT),20.876366,79.536966,721.0,11.536,Marupar,20.87340525,79.54752269
51,BHIVAPUR,1.11710615828,MEDHA,20.71061,79.46201,803.0,12.848,Medha,20.71127525,79.47272689
52,BHIVAPUR,2.65077044826,TAS,20.78422,79.49168,412.0,6.592,Mokhala,20.76072617,79.49600272
53,BHIVAPUR,0.532903010891,MOKHEBARDI,20.83965,79.52955,792.0,12.672,Mokhebardi,20.84057666,79.53458123
54,BHIVAPUR,2.02763834611,SHIVANFAL,20.70773,79.2545,346.0,5.536,Nad,20.68966141,79.25187258
55,BHIVAPUR,2.48137047668,NAGTAROLI,20.79489,79.52411,545.0,8.72,Nagtaroli,20.80611085,79.5447441
56,BHIVAPUR,1.29216844438,NAKSHI,20.73583,79.48521,1311.0,20.976,Nakshi,20.73486329,79.49759254
57,BHIVAPUR,1.45415990205,NAND,20.6518,79.2893,4561.0,72.976,Nand,20.65463389,79.30294368
58,BHIVAPUR,2.54287766671,PANJAREPAR (PUNARVASIT),20.90444,79.57753,17.0,0.272,Nandikheda,20.88516541,79.59070345
59,BHIVAPUR,0.982555782812,NAVEGAON(D),20.80247,79.42967,555.0,8.88,Navegaon (D),20.79873721,79.43823761
60,BHIVAPUR,2.46373050123,PAHAMI,20.76121,79.35401,888.0,14.208,Pahami,20.75361778,79.37627043
61,BHIVAPUR,0.380655156722,PANDHARWANI,20.69489,79.43916,655.0,10.48,Pandharwani,20.69362117,79.44255878
62,BHIVAPUR,2.53309435411,NAND,20.6518,79.2893,211.0,3.376,Panjarepar,20.65081856,79.26497763
63,BHIVAPUR,1.28070322834,PANJAREPAR (PUNARVASIT),20.90444,79.57753,211.0,3.376,Panjarepar,20.89655937,79.58652111
64,BHIVAPUR,2.08664192129,PENDHARABODI,20.79916,79.37931,500.0,8.0,Pendharabodi,20.78173463,79.38675964
65,BHIVAPUR,0.839186646445,VIRKHANDI (D.),20.7827,79.45888,340.0,5.44,Pendhari,20.77921322,79.45172103
66,BHIVAPUR,1.02965748486,PIRAWA,20.68723,79.30385,1202.0,19.232,Pirawa,20.68681756,79.3137383
67,BHIVAPUR,3.51985118768,BHAGWANPUR,20.65512,79.33731,270.0,4.32,Polgaon,20.6862461,79.33115243
68,BHIVAPUR,0.560914954916,PULLAR,20.85761,79.50296,992.0,15.872,Pullar,20.85276987,79.50143931
69,BHIVAPUR,3.76110144188,NAVEGAON(D),20.80247,79.42967,564.0,9.024,Ranmangli,20.80997122,79.46495305
70,BHIVAPUR,2.3540190924,CHIKHLI,20.72768,79.51633,2045.0,32.72,Rohana,20.70906906,79.50554225
71,BHIVAPUR,4.42835993271,AALESUR,20.61579,79.32062,19.0,0.304,Sakara Rithi,20.65228065,79.33766588
72,BHIVAPUR,1.18869717572,SALEBHATTI(D),20.67998,79.21428,856.0,13.696,Salebhatti,20.67382149,79.22361964
73,BHIVAPUR,0.986135000979,SALEBHATTI(C),20.68415,79.36419,856.0,13.696,Salebhatti C.,20.68434984,79.37366716
74,BHIVAPUR,1.16547725486,SALESHAHARI,20.8636,79.55994,856.0,13.696,Salebhatti S.,20.87284784,79.56521958
75,BHIVAPUR,0.704301382362,SALESHAHARI,20.8636,79.55994,760.0,12.16,Saleshahari,20.85766083,79.55758446
76,BHIVAPUR,0.704301382362,SALESHAHARI-SALEBHATTI(PUNARVASIT),20.8636,79.55994,856.0,13.696,SALESHAHARI SALEBHATTI PU,20.85766083,79.55758446
77,BHIVAPUR,1.41555729791,SARANDI,20.77257,79.38457,671.0,10.736,Sarandi,20.76324061,79.39383366
78,BHIVAPUR,0.951259387688,SELOTI,20.73936,79.44363,500.0,8.0,Seloti,20.73916555,79.45277527
79,BHIVAPUR,1.86133117276,SHIVAPUR,20.80223,79.36019,1066.0,17.056,Shiwapur,20.78665586,79.36675369
80,BHIVAPUR,2.06632989731,MANDVA(S),20.75066,79.40222,273.0,4.368,Somanala,20.75827263,79.42034851
81,BHIVAPUR,3.20756822362,PULLAR,20.85761,79.50296,273.0,4.368,Somanala,20.83260317,79.51834664
82,BHIVAPUR,1.07999973928,TAKA,20.66938,79.39777,813.0,13.008,Taka,20.66962511,79.40814756
83,BHIVAPUR,0.312792748097,TAS,20.78422,79.49168,2593.0,41.488,Tas,20.78668653,79.49312666
84,BHIVAPUR,1.92456708609,SELOTI,20.73936,79.44363,443.0,7.088,Tatoli,20.72664985,79.45619171
85,BHIVAPUR,1.23514665529,THUTANBORI (PUNARVASIT),20.85722,79.57199,847.0,13.552,Thutanbori,20.8637284,79.58162294
86,BHIVAPUR,3.29756484308,BHAGWANPUR,20.65512,79.33731,27.0,0.432,Tidkepar,20.67803544,79.35742866
87,BHIVAPUR,1.48500199714,THUTANBORI (PUNARVASIT),20.85722,79.57199,506.0,8.096,Tukumbori Rithi,20.85371611,79.58578064
88,BHIVAPUR,0.861298391005,UKHALI,20.70396,79.37848,990.0,15.84,Ukhali,20.70889663,79.38486109
89,BHIVAPUR,2.81153525527,BHIVI,20.6339,79.1959,260.0,4.16,Urkudapar,20.6435944,79.22085396
90,BHIVAPUR,0.967706753247,VIRKHANDI (D.),20.7827,79.45888,763.0,12.208,Virkhandi,20.784743,79.46792841
91,BHIVAPUR,0.880861360043,WADADH,20.71921,79.48954,764.0,12.224,Wadadha,20.71961656,79.49799839
92,BHIVAPUR,0.283749554364,WAKESHAWAR,20.73173,79.41239,1237.0,19.792,Wakeshwar,20.73014057,79.41452458
93,BHIVAPUR,2.33929295214,AALESUR,20.61579,79.32062,652.0,10.432,Wani,20.62635955,79.3011849
94,BHIVAPUR,1.59461248784,WASI,20.741965,79.427288,839.0,13.424,Wasi,20.73221804,79.43853583
95,BHIVAPUR,1.46309731188,MANORA,20.79559,79.40559,17.0,0.272,Welwa,20.79394802,79.41955479
96,BHIVAPUR,1.81990791212,ZAMKOLI,20.63175,79.19534,703.0,11.248,Zamkoli,20.61554695,79.19780772
97,BHIVAPUR,0.953072586995,ZILBODI,20.68944,79.46234,630.0,10.08,Zilbodi,20.69200259,79.47108306
98,Hingna,0.916595106886,ADEGAON,21.02123,78.73911,1394.0,22.304,Adegaon,21.01511435,78.73318902
99,Hingna,0.652031794212,DABHA,21.058081,78.800911,652.0,10.432,Agargaon,21.05256266,78.79878599
100,Hingna,2.64163540423,GHODEGHAT,20.87402,78.89403,915.0,14.64,Ajangaon,20.88028485,78.86950391
101,Hingna,1.6678378944,SAWLIBIBI,20.91087,78.8305,496.0,7.936,Alesur,20.89740095,78.83756515
102,Hingna,1.80258586407,DEGMA(KH),21.027699,78.847169,410.0,6.56,Ambazari,21.04320429,78.85223797
103,Hingna,3.1252509546,AMGAON(D),21.00529,78.9391,491.0,7.856,Amgaon,20.98386207,78.95858101
104,Hingna,2.44631940947,SAWANGI(A),20.86586,78.89789,1082.0,17.312,Asola,20.85676622,78.91932824
105,Hingna,4.42695535795,KHADKI,20.93893,78.87423,466.0,7.456,Bhansoli,20.92785741,78.91517431
106,Hingna,2.25100906129,HALADGAON,20.845836,78.87423,398.0,6.368,Bhansuli,20.84738739,78.89582817
107,Hingna,1.61882261783,SAWLIBIBI,20.91087,78.8305,534.0,8.544,Bibi,20.90359745,78.8169993
108,Hingna,2.64163540423,GHODEGHAT,20.87402,78.89403,500.0,8.0,Bid-Ajangaon,20.88028485,78.86950391
109,Hingna,2.44252842253,SAWANGI(D),21.0059,78.93446,338.0,5.408,Bid-borgaon,20.99979258,78.91185834
110,Hingna,4.53107762614,TAKALGHAT,20.91415,78.94522,2399.0,38.384,Bid-ganeshpur,20.89252331,78.98218962
111,Hingna,3.56735492921,SAWLIBIBI,20.91087,78.8305,143.0,2.288,Chauki,20.89026597,78.80417673
112,Hingna,2.12505278529,CHICHOLI(P),21.10383,78.78619,237.0,3.792,Chicholi,21.08964627,78.79991854
113,Hingna,1.93492177412,DABHA,21.058081,78.800911,535.0,8.56,Dabha,21.05084709,78.81786944
114,Hingna,1.29957031785,WADGAON(G),20.97703,78.98105,208.0,3.328,Datala,20.96693271,78.97474705
115,Hingna,2.03117625631,DEGMA(BU),20.98649,78.85186,824.0,13.184,DEGMA(BU),20.97663134,78.86833004
116,Hingna,1.053176676,DEGMA(KH),21.027699,78.847169,517.0,8.272,Degma kh,21.02157984,78.85491401
117,Hingna,0.47810191128,DEWLI(P),20.93242,78.78589,754.0,12.064,Devali,20.93636643,78.78771734
118,Hingna,3.40490154985,KHAPRI(G),20.92612,78.88435,754.0,12.064,Devali,20.90833542,78.91103566
119,Hingna,2.3403766002,DEWLI(A),21.00668,78.94207,491.0,7.856,Devali (Amgaon),20.99384912,78.95994135
120,Hingna,1.47807066429,SHIRUL,20.95512,78.99651,35.0,0.56,Devalipeth,20.9420641,78.99383586
121,Hingna,2.90959063391,DHANOLI(G),21.00487,79.00511,1012.0,16.192,Dhanoli,20.97889858,79.0085266
122,Hingna,0.905456717495,DHANOLI(K),21.00178,78.78219,1012.0,16.192,Dhanoli,20.99833503,78.79009329
123,Hingna,1.45310851039,KINHI(D),21.07767,78.93019,1012.0,16.192,Dhanoli,21.06987617,78.94143146
124,Hingna,3.32758807827,SAWLIBIBI,20.91087,78.8305,752.0,12.032,Dhokarda,20.89040399,78.85387106
125,Hingna,1.74106288899,DIGDOH(P),21.08915,78.75697,775.0,12.4,Digdoh,21.07465107,78.7633056
126,Hingna,3.19729998816,DIGDOH(D),21.11499,79.00198,775.0,12.4,digdoh devi,21.09277559,79.0215494
127,Hingna,0.768479399232,TAKALGHAT,20.91415,78.94522,104.0,1.664,Gangapur,20.90762354,78.94765376
128,Hingna,0.688858235584,GAURALA,21.04416,78.72323,759.0,12.144,Gaurala,21.0401509,78.71816966
129,Hingna,0.586966489713,GHODEGHAT,20.87402,78.89403,556.0,8.896,Ghodeghat,20.87576725,78.89936109
130,Hingna,0.975973224622,GIDAMGADH,21.03451,78.72553,448.0,7.168,Gidamgad,21.03163126,78.7344135
131,Hingna,3.12945831238,METAUMRI,21.09117,78.89152,595.0,9.52,Girola,21.08461396,78.92085416
132,Hingna,2.03807240488,GIDAMGADH,21.03451,78.72553,279.0,4.464,Gothangaon,21.02566623,78.70833028
133,Hingna,2.62019254918,GUMGAON,21.01686,78.99869,365.0,5.84,Gumgaon,20.99415026,79.00542466
134,Hingna,0.370547077081,HALADGAON,20.845836,78.87423,495.0,7.92,Haladgaon,20.84590457,78.87779507
135,Hingna,3.60508376002,ESASANI,21.08999,79.00177,500.0,8.0,Isasani (CT),21.06066499,79.01658815
136,Hingna,4.94083680131,PENDHRI(D),20.95202,78.77962,107.0,1.712,Itewahi,20.9659587,78.82480045
137,Hingna,2.22274393174,JUNEWANI,21.05263,78.91633,111.0,1.776,Junewani,21.03686441,78.92949775
138,Hingna,3.49660985606,PENDHRI(D),20.95202,78.77962,729.0,11.664,Kajali,20.95513479,78.81312692
139,Hingna,5.43275610615,DHANOLI(G),21.00487,79.00511,209.0,3.344,Kanholi,20.95889921,79.02283152
140,Hingna,0.992199396472,KANHOLIBARA,20.93612,78.84319,6844.0,109.504,Kanholibara,20.92789909,78.84690469
141,Hingna,2.76532389224,SHIRUL,20.95512,78.99651,19.0,0.304,Kanholi (Rithi),20.95889921,79.02283152
142,Hingna,2.26029849513,PIPALDHARA,20.96368,78.895,614.0,9.824,Katangdhara,20.973572,78.91401749
143,Hingna,4.54080111482,SUKLI(G),21.05926,78.97741,371.0,5.936,Khadka,21.0235834,78.9986989
144,Hingna,1.6845875802,GAURALA,21.04416,78.72323,258.0,4.128,Khairi,21.05590254,78.71297312
145,Hingna,3.96408390735,JUNEWANI,21.05263,78.91633,517.0,8.272,Khairy kh,21.02324498,78.93795654
146,Hingna,3.46810708114,DHANOLI(K),21.00178,78.78219,517.0,8.272,Khapa Nipani,21.02949678,78.76686836
147,Hingna,1.48527241485,KHAPRI(G),20.92612,78.88435,517.0,8.272,Khapari (Gandhi),20.91933442,78.89666764
148,Hingna,1.67469793317,KHAPRI(M),20.90171,78.92326,101.0,1.616,Khapri (Moreshwar),20.88850202,78.93100692
149,Hingna,5.60828870596,KINHI(D),21.07767,78.93019,500.0,8.0,Kinhi,21.09383683,78.87898625
150,Hingna,4.09851152448,NERIMANKAR,21.11688,78.84815,500.0,8.0,Kinhi,21.09383683,78.87898625
151,Hingna,1.86149523249,GUMGAON,21.01686,78.99869,145.0,2.32,Kirmati,21.00644723,78.98464793
152,Hingna,1.92771136865,KIRMITI(BH),20.94088,78.97213,1572.0,25.152,Kirmiti,20.9279145,78.98445179
153,Hingna,0.461440800375,DEGMA(BU),20.98649,78.85186,135.0,2.16,Kokardi,20.98546894,78.84755198
154,Hingna,2.71195698905,KOTEWADA,21.01877,79.00091,1496.0,23.936,Kotewada,21.00260716,79.02047546
155,Hingna,3.68787055811,GUMGAON,21.01686,78.99869,1698.0,27.168,Ladgaon,20.99130709,78.97604232
156,Hingna,1.94484513666,KHADKI,20.93893,78.87423,223.0,3.568,Lakhamapur,20.94930998,78.8893032
157,Hingna,2.44388485913,MANDAVGHORAD,21.05924,78.89941,1143.0,18.288,Mandavghorad,21.04026059,78.91128539
158,Hingna,5.03817786256,KHADKI,20.93893,78.87423,400.0,6.4,Mandawa,20.98039077,78.89379909
159,Hingna,1.86233170074,PIPALDHARA,20.96368,78.895,966.0,15.456,Mandawa (Mahara),20.98039077,78.89379909
160,Hingna,2.1914108251,KINHI(D),21.07767,78.93019,369.0,5.904,Mangli,21.05818078,78.92705304
161,Hingna,2.3934672104,DEGMA(BU),20.98649,78.85186,3025.0,48.4,Mathani,20.96505981,78.84969908
162,Hingna,2.77648444067,DEWLI(P),20.93242,78.78589,500.0,8.0,Mauda,20.93467266,78.81251508
163,Hingna,2.21197608499,METAUMRI,21.09117,78.89152,1538.0,24.608,Metaumari,21.07459426,78.90330757
164,Hingna,2.20334801982,MOHGAON(Z),21.068522,78.888363,16.0,0.256,Mohgaon,21.05735995,78.90590745
165,Hingna,2.2342376688,DHANOLI(K),21.00178,78.78219,359.0,5.744,mohgaon dholya,21.02184699,78.78109554
166,Hingna,2.52409450289,MONDHA,21.04664,78.95852,1482.0,23.712,Mondha,21.03144569,78.97658903
167,Hingna,3.14227903395,NAGALWADI,21.12075,78.95926,666.0,10.656,Nagalwadi (CT),21.1026573,78.98252985
168,Hingna,3.29480091918,JUNEWANI,21.05263,78.91633,517.0,8.272,Nanda kh,21.04127303,78.94565432
169,Hingna,4.61390013981,SUKLIKALAR,21.07232,78.81187,151.0,2.416,Nandera,21.07609655,78.85615346
170,Hingna,4.30276456133,DHANOLI(K),21.00178,78.78219,517.0,8.272,Nawegaon Khurd,20.9805777,78.81686095
171,Hingna,2.52635140221,NERIMANKAR,21.11688,78.84815,1793.0,28.688,Neri,21.09795172,78.86162038
172,Hingna,3.42445680467,MANGRUR,21.11676,78.89149,426.0,6.816,Nildoh,21.08597951,78.89041318
173,Hingna,2.82684077909,NILDOH,21.11357,78.98651,10341.0,165.456,Nildoh (CT),21.09348766,79.00321903
174,Hingna,3.36906901721,MONDHA,21.04664,78.95852,1120.0,17.92,Panjari,21.01744126,78.96718747
175,Hingna,2.83617680628,WADDHAMNA,21.12966,78.95162,340.0,5.44,Pendhari,21.10730201,78.93846041
176,Hingna,1.03180847931,PENDHRI(D),20.95202,78.77962,340.0,5.44,Pendhari Devli,20.9596933,78.78520737
177,Hingna,1.86730941396,PIPALDHARA,20.96368,78.895,603.0,9.648,Pipardhara,20.95704234,78.91151871
178,Hingna,4.3642946893,KHAPRI(G),20.92612,78.88435,761.0,12.176,Pipri,20.91250953,78.92376146
179,Hingna,3.12975768737,AMGAON(D),21.00529,78.9391,500.0,8.0,Pitesur,20.9857678,78.91738217
180,Hingna,2.47141949538,SALAIDABHA,20.96069,78.96306,158.0,2.528,Pohi,20.93944939,78.95605211
181,Hingna,2.34990766267,RAIPUR,21.07826,78.96563,8653.0,138.448,Raipur,21.05833519,78.9731784
182,Hingna,1.48464019163,SALAIDABHA,20.96069,78.96306,1566.0,25.056,Salaidabha,20.9501772,78.97187392
183,Hingna,4.28968040521,MANDAVGHORAD,21.05924,78.89941,346.0,5.536,Salaimendha,21.02146371,78.90779296
184,Hingna,1.28003443767,WANADONGRI,21.095264,78.972442,668.0,10.688,Sangam,21.08594886,78.96519284
185,Hingna,0.351125315996,SAWLIBIBI,20.91087,78.8305,500.0,8.0,Sawali,20.91121438,78.83386023
186,Hingna,0.604595418094,SAWANGI(D),21.0059,78.93446,243.0,3.888,Sawangi (Devali),21.0030035,78.93938905
187,Hingna,1.45378129756,GUMGAON,21.01686,78.99869,154.0,2.464,Shivmadka,21.00455609,79.00342617
188,Hingna,1.53627450946,KHADKI,20.93893,78.87423,310.0,4.96,Singardip,20.95149966,78.86808955
189,Hingna,2.39227386503,SHIRUL,20.95512,78.99651,2078.0,33.248,Sirul,20.93601632,79.00710516
190,Hingna,2.29273257243,SUKLI(G),21.05926,78.97741,170.0,2.72,Sukali,21.04428821,78.99260101
191,Hingna,4.52251305227,DEWLI(A),21.00668,78.94207,170.0,2.72,Sukali (Gharpure),20.96834149,78.95661291
192,Hingna,2.11932463792,SUKLIKALAR,21.07232,78.81187,170.0,2.72,Sukali (kalar),21.07571839,78.83196837
193,Hingna,1.86230095724,KOTEWADA,21.01877,79.00091,201.0,3.216,Sumthana,21.0252953,79.01743443
194,Hingna,2.49643176292,TAKALGHAT,20.91415,78.94522,11363.0,181.808,Takalghat (CT),20.89190916,78.94850023
195,Hingna,2.7724358774,KIRMITI(BH),20.94088,78.97213,396.0,6.336,Tembhari,20.91595747,78.97135225
196,Hingna,1.46788443973,NERIMANKAR,21.11688,78.84815,376.0,6.016,Turagondi,21.10389741,78.84558656
197,Hingna,4.11273292654,KIRMITI(BH),20.94088,78.97213,759.0,12.144,Turkmari,20.91990666,79.00474757
198,Hingna,4.80413803311,JUNEWANI,21.05263,78.91633,990.0,15.84,Ukhali,21.03503939,78.95861145
199,Hingna,1.96179203637,WADDHAMNA,21.12966,78.95162,6148.0,98.368,Waddhamana (CT),21.1157603,78.96326854
200,Hingna,2.44452931965,ESASANI,21.08999,79.00177,9437.0,150.992,Wagdara,21.06803276,79.00293605
201,Hingna,2.79351324652,WAGDARA,21.0008,79.01311,9437.0,150.992,Wagdara,20.97831787,79.02511852
202,Hingna,4.47245001474,DIGDOH(P),21.08915,78.75697,9393.0,150.288,Walani,21.05717282,78.78311627
203,Hingna,2.26629082879,WANADONGRI,21.095264,78.972442,500.0,8.0,wanadongari,21.07779773,78.98369936
204,Hingna,0.893268632887,KHAPRI(G),20.92612,78.88435,500.0,8.0,Wanadongri,20.91938252,78.87966609
205,Hingna,3.64070181178,GHODEGHAT,20.87402,78.89403,887.0,14.192,Waranga,20.90267895,78.8770834
206,Hingna,2.99968398494,KIRMITI(BH),20.94088,78.97213,695.0,11.12,Wateghat,20.9208739,78.95275437
207,Hingna,3.37321408505,DABHA,21.058081,78.800911,482.0,7.712,Yerangaon,21.03899767,78.82617877
208,Hingna,1.78115237034,MOHGAON(Z),21.068522,78.888363,295.0,4.72,Zilpi,21.05441702,78.88022775
209,KALMESHWAR,2.12118508776,SONPUR(AA),21.33295,78.93969,736.0,11.776,Adasa,21.32595954,78.95874445
210,KALMESHWAR,2.08623217105,ASHTIKALA,21.18046,78.87556,752.0,12.032,Astikala,21.1658897,78.88823589
211,KALMESHWAR,1.48085854057,BRAMHNI,21.24392,78.90659,10341.0,165.456,Bamhni (CT),21.23725364,78.91895939
212,KALMESHWAR,4.36188829196,TONDAKHAIRI,21.28146,78.96185,1185.0,18.96,Belori bk.,21.27921128,79.00387858
213,KALMESHWAR,2.33325068195,BHADANGI,21.29749,78.93543,678.0,10.848,Bhandagi,21.28381303,78.95250932
214,KALMESHWAR,2.70280349782,KHAPRI,21.24314,78.84311,320.0,5.12,Bordoh,21.22463197,78.86001449
215,KALMESHWAR,0.195084946461,BUDHALA,21.32063,78.77502,708.0,11.328,Budhla,21.31931785,78.77627017
216,KALMESHWAR,0.934525593771,CHAKDOH,21.2838,78.76122,119.0,1.904,Chakdoh,21.27789821,78.75479861
217,KALMESHWAR,5.67004985098,NIMJI,21.16695,78.87171,1144.0,18.304,Chinchbhuwan,21.1200127,78.89307496
218,KALMESHWAR,2.16991849774,TIDANGI,21.3994,78.78117,254.0,4.064,Dadhera,21.380639,78.7754022
219,KALMESHWAR,2.23545664724,DAHEGAON,21.21099,78.94646,1123.0,17.968,Dahegaon,21.20159841,78.96552656
220,KALMESHWAR,1.57681956066,DHAPEWADA,21.30291,78.91566,6098.0,97.568,Dhapewada bk.,21.30952547,78.9291232
221,KALMESHWAR,1.57681956066,DHAPEWADA,21.30291,78.91566,6098.0,97.568,Dhapewada Kh.,21.30952547,78.9291232
222,KALMESHWAR,1.31852618143,BOREGAON(KH,21.2973,78.96147,621.0,9.936,Dhurkheda,21.29151394,78.97257873
223,KALMESHWAR,3.78614552982,KHAIRI(L),21.2546,78.95491,901.0,14.416,Dorli (bhodji),21.22356288,78.96993306
224,KALMESHWAR,3.40344375647,DAHEGAON,21.21099,78.94646,901.0,14.416,Dorli gangaji,21.18470004,78.96327177
225,KALMESHWAR,2.04623580527,BOREGAON(KH,21.2973,78.96147,901.0,14.416,Dorli (mani),21.27908959,78.96431425
226,KALMESHWAR,4.06568131322,SONOLI,21.35827,78.86696,6.0,0.096,Dudhabardi,21.35892731,78.90621361
227,KALMESHWAR,1.02657050757,SAWANGI(G),21.22035,78.8853,558.0,8.928,Ghogali,21.22721388,78.87867661
228,KALMESHWAR,2.91900571695,GHORAD,21.25065,78.87917,2592.0,41.472,Ghorad,21.22878634,78.89475845
229,KALMESHWAR,1.93947862857,GONDKHAIRI,21.13636,78.908,6035.0,96.56,Gondkhairi,21.12235442,78.91914508
230,KALMESHWAR,1.6481949585,KHAIRI(L),21.2546,78.95491,456.0,7.296,Gowari,21.25796764,78.97039867
231,KALMESHWAR,2.59538142872,SELU,21.2042,78.89861,564.0,9.024,Gumthala,21.18628066,78.88256854
232,KALMESHWAR,1.63865708705,BHADANGI,21.29749,78.93543,351.0,5.616,Hardoli,21.30253519,78.95029144
233,KALMESHWAR,2.11344357781,KALAMBI,21.18846,78.91705,1336.0,21.376,Kalambi,21.17553621,78.93199641
234,KALMESHWAR,2.00025550058,KANYADOL,21.32874,78.86672,922.0,14.752,Kanyadhol,21.3174811,78.88178065
235,KALMESHWAR,4.16872013464,SAHULI,21.18415,78.94331,52.0,0.832,Karli,21.14859575,78.93055809
236,KALMESHWAR,3.9460183487,ASHTIKALA,21.18046,78.87556,602.0,9.632,Ketapar,21.16978716,78.91185505
237,KALMESHWAR,4.02314667181,SONEGAON,21.23493,78.82932,517.0,8.272,Khairi (Harji),21.20806085,78.85531311
238,KALMESHWAR,1.77308444273,KHAIRI(L),21.2546,78.95491,517.0,8.272,Khairi (Lakhmaji),21.24405342,78.9677422
239,KALMESHWAR,3.24350104238,BHADANGI,21.29749,78.93543,1480.0,23.68,Khangaon,21.30110424,78.96649672
240,KALMESHWAR,4.74651740888,ASHTIKALA,21.18046,78.87556,517.0,8.272,Khapari (uma),21.14745461,78.90458776
241,KALMESHWAR,1.59518933525,KHUMARI,21.32313,78.83025,1206.0,19.296,Khumari,21.32056826,78.84540245
242,KALMESHWAR,3.74055647411,BUDHALA,21.32063,78.77502,134.0,2.144,Khursapar,21.30408119,78.80645749
243,KALMESHWAR,1.04568996689,KOHALI,21.26481,78.80983,2192.0,35.072,Kohali,21.25947411,78.81813936
244,KALMESHWAR,0.206750106962,KANYADOL,21.32874,78.86672,35.0,0.56,Kokarda,21.33036928,78.86768177
245,KALMESHWAR,5.12556469546,LINGA,21.21618,78.82121,500.0,8.0,Ladai (mal),21.17089991,78.81195308
246,KALMESHWAR,2.51979813973,LINGA,21.21618,78.82121,583.0,9.328,Linga,21.19357042,78.81957206
247,KALMESHWAR,2.61357456126,LOHAGAD,21.34242,78.72231,1048.0,16.768,Lohagad,21.32365091,78.73749924
248,KALMESHWAR,1.89163210259,LONARA,21.19379,78.85691,908.0,14.528,Lonara,21.17729711,78.86138212
249,KALMESHWAR,1.83284457864,MADHASAWANGI,21.30688,78.88841,243.0,3.888,Madha sawangi,21.29930625,78.90412382
250,KALMESHWAR,1.96732155691,MANDVI,21.34404,78.80632,1294.0,20.704,Mandvi,21.33266598,78.82086944
251,KALMESHWAR,1.04017065236,MHASEPATHAR,21.31106,78.82008,1220.0,19.52,Mhasepathar,21.30369799,78.82627467
252,KALMESHWAR,2.24369383166,MOHAGAON,21.2996,78.84356,528.0,8.448,Mohagaon,21.29220431,78.8637097
253,KALMESHWAR,1.04568996689,KOHALI,21.26481,78.80983,1215.0,19.44,Mohali,21.25947411,78.81813936
254,KALMESHWAR,1.98565191961,NILGAON,21.34907,78.90726,599.0,9.584,Nilgaon,21.34255713,78.925112
255,KALMESHWAR,1.52879372475,LONARA,21.19379,78.85691,194.0,3.104,Nimboli,21.18476901,78.84578219
256,KALMESHWAR,3.10789299998,NIMJI,21.16695,78.87171,1141.0,18.256,Nimji,21.14226572,78.8857679
257,KALMESHWAR,3.52394974681,SONOLI,21.35827,78.86696,500.0,8.0,Panjra,21.3467456,78.8986578
258,KALMESHWAR,1.84265164149,PANUBALI,21.34611,78.86409,899.0,14.384,PANUBALI,21.33924573,78.88028337
259,KALMESHWAR,1.03061631619,PARDI(DE),21.28112,78.77224,124.0,1.984,Pardi (Desh),21.27279591,78.7766144
260,KALMESHWAR,3.35275013416,ZUNKI,21.26745,78.93374,468.0,7.488,Parsodi,21.23898481,78.94440931
261,KALMESHWAR,4.37674873365,KHAPRI,21.24314,78.84311,1091.0,17.456,Peth ubali,21.25775046,78.88232541
262,KALMESHWAR,0.640139290325,PILKAPAR,21.33981,78.7921,589.0,9.424,Pilkapar,21.33828633,78.79806023
263,KALMESHWAR,1.69150722843,DAHEGAON,21.21099,78.94646,620.0,9.92,Pipla,21.19597536,78.9438396
264,KALMESHWAR,1.93717469563,PIPLA (KIN),21.31083,78.86988,517.0,8.272,Pipla (kinkheda),21.30063727,78.88504495
265,KALMESHWAR,1.66947086532,SONEGAON,21.23493,78.82932,517.0,8.272,Pohigond Khairi,21.22293706,78.81962989
266,KALMESHWAR,1.22904356971,CHAKDOH,21.2838,78.76122,314.0,5.024,Ramgiri,21.2946265,78.76360947
267,KALMESHWAR,2.80588877841,DAHEGAON,21.21099,78.94646,265.0,4.24,Sahajapur,21.19453409,78.92594102
268,KALMESHWAR,2.4258629123,SAHULI,21.18415,78.94331,845.0,13.52,Sahuli,21.16489668,78.95431252
269,KALMESHWAR,2.20613000853,SUSUNDRI,21.29174,78.81607,297.0,4.752,Sawandri,21.27403398,78.82567675
270,KALMESHWAR,1.83938390291,SELU,21.2042,78.89861,1371.0,21.936,Selu,21.18919756,78.90608446
271,KALMESHWAR,2.4819097801,KANYADOL,21.32874,78.86672,8.0,0.128,Sindi,21.30642313,78.86714313
272,KALMESHWAR,2.27213719657,ZUNKI,21.26745,78.93374,8.0,0.128,Sindi,21.26670476,78.95565247
273,KALMESHWAR,1.21022185053,BHADANGI,21.29749,78.93543,135.0,2.16,Sonapar,21.28697257,78.93843522
274,KALMESHWAR,1.07474668647,SONOLI,21.35827,78.86696,1572.0,25.152,Sonoli,21.35417448,78.87636032
275,KALMESHWAR,3.43024898519,SONPUR(AA),21.33295,78.93969,500.0,8.0,Sonpur,21.31549303,78.96699377
276,KALMESHWAR,1.38910075656,SUSUNDRI,21.29174,78.81607,1881.0,30.096,Susundri,21.28511134,78.82743426
277,KALMESHWAR,0.786716317843,TELGAON,21.37449,78.80889,1706.0,27.296,Telgaon,21.36877251,78.81336516
278,KALMESHWAR,1.04017245653,TELKAMTHEE,21.3767,78.85358,3370.0,53.92,Telkamthi,21.36742728,78.85490534
279,KALMESHWAR,1.79031663903,TIDANGI,21.3994,78.78117,1085.0,17.36,Tidangi,21.38925419,78.79459704
280,KALMESHWAR,1.51191813004,TISHTI(BU),21.3725,78.75276,1185.0,18.96,Tishti bk.,21.35926728,78.75611701
281,KALMESHWAR,2.14914379119,NANDIKHEDA,21.36076,78.80338,517.0,8.272,Tishti kh.,21.3548829,78.78360976
282,KALMESHWAR,0.910740064695,KHAPRI,21.24314,78.84311,500.0,8.0,Ubagi,21.25001913,78.84787959
283,KALMESHWAR,1.76736856606,UBALI,21.26605,78.86778,2722.0,43.552,Ubali,21.25775046,78.88232541
284,KALMESHWAR,2.15277148917,UPARWAHI,21.21697,78.85731,500.0,8.0,UPARWAHI,21.20384621,78.87257763
285,KALMESHWAR,0.73788550527,WADHONA(BU),21.29223,78.88268,948.0,15.168,Wadhona Bk.,21.28567956,78.88154027
286,KALMESHWAR,0.968964976895,SAWLI(KH),21.28683,78.87227,948.0,15.168,Wadhona kh.,21.28567956,78.88154027
287,KALMESHWAR,1.66064009407,WARODA,21.26424,78.90487,1694.0,27.104,Waroda,21.25986334,78.92019172
288,KALMESHWAR,3.67715003801,MOHAGAON,21.2996,78.84356,405.0,6.48,Wathoda,21.26828771,78.85497463
289,KALMESHWAR,4.51411911326,CHAKDOH,21.2838,78.76122,8.0,0.128,Yelkapar,21.27027368,78.80229668
290,KALMESHWAR,0.908100419,LOHAGAD,21.34242,78.72231,295.0,4.72,Zilpi,21.34449734,78.7307897
291,KALMESHWAR,2.05087083288,ZUNKI,21.26745,78.93374,511.0,8.176,Zunki,21.25254193,78.94539247
292,Kamptee,2.47516577962,AADKA,21.08329,79.23938,19.0,0.304,Aadka,21.06445724,79.25209739
293,Kamptee,3.00034133676,AAJNI,21.20783,79.21813,1507.0,24.112,Ajani,21.18834941,79.23815511
294,Kamptee,2.38499500028,KESURI,21.11107,79.34134,521.0,8.336,Ambadi,21.0896215,79.34145649
295,Kamptee,3.59843420308,BHAMEWADA,21.12286,79.38353,359.0,5.744,Asalwada,21.09494351,79.36598386
296,Kamptee,2.63922309932,MAHALGAON,21.14168,79.21942,677.0,10.832,Asoli.,21.11794915,79.21990172
297,Kamptee,2.08210458326,BABHULKHEDA,21.30459,79.03008,31.0,0.496,Babulkheda,21.29197957,79.04493648
298,Kamptee,3.46578506672,BHAMEWADA,21.12286,79.38353,773.0,12.368,Bhamewada,21.09664098,79.4015959
299,Kamptee,2.43717894015,BHILGAON,21.19505,79.14496,5030.0,80.48,Bhilgaon,21.18581626,79.16627968
300,Kamptee,2.8408206308,BHOWRI,21.15551,79.2748,249.0,3.984,Bhowari,21.13510374,79.29128147
301,Kamptee,2.8810400138,BHUGAON,21.09133,79.33976,4045.0,64.72,Bhugaon,21.06735007,79.35027601
302,Kamptee,2.63101599967,WAREGAON,21.2468,79.15631,122.0,1.952,Bidbina,21.25066618,79.18135603
303,Kamptee,2.38408683056,BIDGAON,21.13179,79.16787,4812.0,76.992,Bidgaon.,21.11525332,79.18249995
304,Kamptee,2.3574113991,BINA,21.264,79.16367,3209.0,51.344,Bina,21.25066618,79.18135603
305,Kamptee,3.98232303063,BABHULKHEDA,21.30459,79.03008,237.0,3.792,Chicholi,21.28931642,79.064848
306,Kamptee,3.38254723115,CHIKNA,21.10652,79.40571,657.0,10.512,Chikna,21.08213993,79.42520975
307,Kamptee,5.01927683119,PAWANGAON,21.16828,79.18275,508.0,8.128,Dhargaon,21.1425744,79.22253656
308,Kamptee,2.05502008931,DIGHORI,21.11884,79.22922,1298.0,20.768,Dighori,21.1015178,79.23612528
309,Kamptee,2.92055439527,GADA,21.19556,79.23685,1765.0,28.24,Gada,21.17660753,79.25635228
310,Kamptee,3.61151053244,GARLA,21.12861,79.25976,566.0,9.056,Garla,21.09614794,79.26088746
311,Kamptee,2.81140504565,GHORPAD,21.18875,79.19842,19.0,0.304,Ghorpad,21.17500138,79.22117618
312,Kamptee,3.31713808307,GUMTHALA,21.14975,79.29122,564.0,9.024,Gumthala,21.12355722,79.30652823
313,Kamptee,1.63448729553,GUMTHI,21.2679,79.04222,778.0,12.448,Gumthi,21.27117093,79.05759825
314,Kamptee,2.62112843831,JAKHEGAON,21.09968,79.37598,988.0,15.808,Jakhegaon,21.07967482,79.38934302
315,Kamptee,2.55616004569,KADHOLI,21.1435,79.24878,2016.0,32.256,Kadholi,21.12512258,79.26358615
316,Kamptee,1.90892375684,KAPSI(BU),21.1462,79.19134,1185.0,18.96,Kapsi bk,21.1290537,79.19042851
317,Kamptee,2.20471195838,KAWTHA,21.22375,79.13897,622.0,9.952,Kawtha,21.21277606,79.15668454
318,Kamptee,2.58723005127,KEM,21.09229,79.26431,700.0,11.2,Kem,21.07080536,79.27388313
319,Kamptee,3.6387158919,KESURI,21.11107,79.34134,817.0,13.072,Kesori,21.08438702,79.36164475
320,Kamptee,2.43205908565,KHAIRY,21.21721,79.15348,1679.0,26.864,Khairy,21.20304391,79.17135545
321,Kamptee,2.88183833086,KHAPA,21.30046,79.06184,1900.0,30.4,Khapa,21.28424981,79.08354325
322,Kamptee,0.825885335044,KHASALA,21.20072,79.13363,1505.0,24.08,Khasala,21.2076144,79.13066658
323,Kamptee,2.47183749681,KHEDI,21.10708,79.19753,517.0,8.272,Khedi,21.08530533,79.20232656
324,Kamptee,3.25543789689,TEMSANA,21.08627,79.22514,48.0,0.768,Kusumbi,21.05708193,79.22269838
325,Kamptee,2.56767331305,LIHIGAON,21.16107,79.22985,1106.0,17.696,Lihigaon,21.14491882,79.24754577
326,Kamptee,2.17870300725,LONKHAIRI,21.2776,79.06109,1722.0,27.552,Lonkhairi,21.27083816,79.08082462
327,Kamptee,2.96446955088,MAHALGAON,21.14168,79.21942,643.0,10.288,Mahalgaon,21.12449755,79.24127423
328,Kamptee,2.73957874453,NANHA,21.0831,79.35938,491.0,7.856,Mangali,21.06492045,79.37720069
329,Kamptee,3.03429316137,KAWTHA,21.22375,79.13897,723.0,11.568,Mhasala,21.19794148,79.14847738
330,Kamptee,4.63377263977,LONKHAIRI,21.2776,79.06109,480.0,7.68,Nanda,21.26187441,79.1025024
331,Kamptee,3.75540604534,NANHA,21.0831,79.35938,645.0,10.32,Nanha,21.05311804,79.37604072
332,Kamptee,2.89344739628,WARAMBHA,21.05288,79.33449,50.0,0.8,Nerala,21.04627682,79.36145931
333,Kamptee,2.29054661535,NERI,21.18661,79.27525,1793.0,28.688,Neri,21.17150681,79.29027285
334,Kamptee,1.44049638509,CHIKHALI,21.08619,79.30347,738.0,11.808,Nimba,21.07326601,79.30251466
335,Kamptee,2.3211919262,PALSAD,21.10852,79.27284,1479.0,23.664,Palsad,21.08962613,79.282354
336,Kamptee,5.27118539666,KHEDI,21.10708,79.19753,491.0,7.856,Pandherkawada,21.0599891,79.20336807
337,Kamptee,2.04636115168,KHEDI,21.10708,79.19753,626.0,10.016,Pandhurna,21.09075904,79.18841542
338,Kamptee,4.0592210995,KORADI,21.256102,79.083834,500.0,8.0,Panjara,21.2291383,79.11023705
339,Kamptee,0.879423987694,TEMSANA,21.08627,79.22514,468.0,7.488,Parsodi,21.08137063,79.218486
340,Kamptee,2.10724666006,PAWANGAON,21.16828,79.18275,1117.0,17.872,Pawangaon,21.16064067,79.20134739
341,Kamptee,0.969819071061,KAPSI(BU),21.1462,79.19134,487.0,7.792,Powari,21.14536158,79.20064816
342,Kamptee,2.85901750765,RANALA,21.20669,79.1789,207.0,3.312,Ranala,21.1847862,79.19334247
343,Kamptee,2.73957874453,NANHA,21.0831,79.35938,345.0,5.52,Ranmangali,21.06492045,79.37720069
344,Kamptee,2.40144440383,GARLA,21.12861,79.25976,500.0,8.0,Sawali,21.11084679,79.27292808
345,Kamptee,5.61685071163,UMRI,21.12485,79.29817,1371.0,21.936,Selu,21.08090515,79.32486983
346,Kamptee,4.64811923084,GHORPAD,21.18875,79.19842,655.0,10.48,Shirpur,21.15829907,79.22913082
347,Kamptee,5.32683286264,SHIWNI,21.09229,79.26432,1767.0,28.272,Shivani,21.05509403,79.29667293
348,Kamptee,3.00501957752,SURADEVI,21.24729,79.12282,1777.0,28.432,Suradevi,21.22919565,79.14435588
349,Kamptee,3.09291737689,BABHULKHEDA,21.30459,79.03008,418.0,6.688,Tandulwani,21.30423351,79.05993305
350,Kamptee,3.35351851806,BIDGAON,21.13179,79.16787,1185.0,18.96,Tarodi bk.,21.10216491,79.17392595
351,Kamptee,1.85127108614,TARODI(BU),21.11811,79.17906,549.0,8.784,TARODI(BU),21.10216491,79.17392595
352,Kamptee,1.72069619612,TEMSANA,21.08627,79.22514,822.0,13.152,Temsana,21.07414426,79.23544356
353,Kamptee,2.73484740513,UMRI,21.12485,79.29817,774.0,12.384,Umari,21.1017227,79.30714159
354,Kamptee,4.59521339626,NERI,21.18661,79.27525,841.0,13.456,Ungaon,21.16489919,79.31295958
355,Kamptee,3.30492171522,WADODA,21.13172,79.32252,5708.0,91.328,Wadoda,21.11387011,79.34799669
356,Kamptee,2.81490147374,WARAMBHA,21.05288,79.33449,950.0,15.2,Warambha,21.03240663,79.35044316
357,Kamptee,2.29418068578,WAREGAON,21.2468,79.15631,1707.0,27.312,Waregaon,21.22966376,79.16863776
358,Kamptee,4.22620526412,UMRI,21.12485,79.29817,429.0,6.864,Yekardi,21.09301761,79.32043014
359,Kamptee,1.8329619452,YERKHEDA,21.21306,79.18729,15727.0,251.632,YERKHEDA,21.20093898,79.19927338
360,Kamptee,0.776044438321,WARAMBHA,21.05288,79.33449,507.0,8.112,Zharap,21.04777278,79.32939334
361,Katol,2.58202790496,JUNAPANI,21.15234,78.56744,202.0,3.232,Ahmednagar,21.17484866,78.57355909
362,Katol,1.40017485677,ANJANGAON,21.26405,78.68704,915.0,14.64,Ajangaon,21.25146974,78.68645483
363,Katol,1.20213518338,RINGANABODI,21.12926,78.71519,9.0,0.144,Akewada,21.11847527,78.71599841
364,Katol,2.30789136932,MARAGSUR,21.20658,78.70788,109.0,1.744,Alagondi,21.18974012,78.69486671
365,Katol,1.39308086568,AMBALA(SO),21.2715,78.55138,1513.0,24.208,Ambada (sonak),21.26046756,78.55775036
366,Katol,3.02097295965,MASLI,21.36638,78.53434,31.0,0.496,Babulkheda,21.34377692,78.51815511
367,Katol,3.61788258062,GANGALDOH,21.30481,78.6645,208.0,3.328,Bhajipani,21.29241204,78.63221312
368,Katol,1.41920158178,BHORGAD,21.23816,78.47651,803.0,12.848,Bhorgad,21.23273212,78.48890298
369,Katol,2.01341964288,GONDI(MOH),21.36422,78.70798,500.0,8.0,Bid Jatamzari,21.37312603,78.69105072
370,Katol,0.860785206395,BIHALGONDI,21.14939,78.67098,400.0,6.4,Bihalgondi,21.1457967,78.67833185
371,Katol,3.05808579987,SABKUND,21.19986,78.5963,108.0,1.728,Bilavargondi,21.17246297,78.59372509
372,Katol,1.86263305628,KAMPTEE,21.07233,78.62764,73.0,1.168,Bopapur,21.08294345,78.64152891
373,Katol,3.65135161105,GANGALDOH,21.30481,78.6645,320.0,5.12,Bordoh,21.27865405,78.64319212
374,Katol,2.18431560078,PARDI(GOT),21.26054,78.63457,138.0,2.208,Borgondi,21.24703866,78.61925976
375,Katol,3.65984260885,RIDHORA,21.23291,78.62513,5.0,0.08,Borkhedi,21.20053524,78.63149346
376,Katol,2.73163671386,KOHLA,21.28257,78.67144,500.0,8.0,Bramhapuri,21.25815868,78.66848447
377,Katol,2.77931402236,RINGANABODI,21.12926,78.71519,119.0,1.904,Chakdoh,21.13012553,78.74197052
378,Katol,0.70265365591,CHANDANPARDI,21.16328,78.5379,1234.0,19.744,Chandanpardi,21.16910357,78.54053047
379,Katol,1.20996625195,CHARGAON,21.26514,78.75054,694.0,11.104,Chargaon,21.25525459,78.75542026
380,Katol,2.80628298067,MARAGSUR,21.20658,78.70788,500.0,8.0,Chaukigad,21.18136033,78.70686243
381,Katol,5.44239544482,PANDHARDHAKNI,21.27881,78.45954,200.0,3.2,Chaurepathar,21.25430951,78.5050072
382,Katol,1.40230744703,MALEGAON,21.30649,78.72112,342.0,5.472,Chendkapur,21.30176882,78.73367193
383,Katol,2.43405244333,SIRSAWADI,21.29467,78.58766,134.0,2.144,Chichala,21.28476296,78.56671058
384,Katol,1.60341050493,JUNAPANI,21.15234,78.56744,237.0,3.792,Chicholi,21.16675476,78.56784947
385,Katol,0.738976762511,CHIKHALAGAD,21.20492,78.49609,322.0,5.152,Chikhlagad,21.20692387,78.5028867
386,Katol,2.92089885028,PANWADI,21.31668,78.56445,7.0,0.112,Delwadi,21.29294222,78.57652414
387,Katol,3.51150040116,KATALABODI,21.17659,78.75776,88.0,1.408,Dhankundav,21.14501174,78.75743867
388,Katol,0.834101737666,DHAWALAPUR,21.26584,78.65522,1687.0,26.992,Dhawalapur,21.25835315,78.65571863
389,Katol,2.19144385828,FETRI,21.28389,78.54765,76.0,1.216,Dhiwarwadi,21.27426087,78.56610375
390,Katol,0.695051447594,DHOTIWADA,21.04748,78.65892,1069.0,17.104,Dhotiwada,21.04627275,78.66549146
391,Katol,1.02340833072,DHURKHEDA,21.11995,78.63561,621.0,9.936,Dhurkheda,21.11315944,78.64226986
392,Katol,1.90189265549,DIGRAS(BU),21.33216,78.54421,1185.0,18.96,Digras (Bk),21.3164287,78.55141742
393,Katol,2.13103938489,DODKI,21.10555,78.64885,532.0,8.512,Dodki,21.1030348,78.66921509
394,Katol,2.40059743318,DORLI(BHA),21.38212,78.57814,901.0,14.416,Dorli (Bhandwalkar),21.36362887,78.59010594
395,Katol,0.778104927956,DORLI(BHI),21.25322,78.77997,1185.0,18.96,Dorli (Bk),21.24796388,78.78492661
396,Katol,0.778104927956,DORLI(BHI),21.25322,78.77997,517.0,8.272,Dorli (Kh),21.24796388,78.78492661
397,Katol,1.20887613755,DUDHALA,21.13635,78.64514,2002.0,32.032,Dudhala,21.14122813,78.65555678
398,Katol,1.31383977531,FETRI,21.28389,78.54765,728.0,11.648,Fetri,21.27394577,78.55449824
399,Katol,1.87237547244,GANGALDOH,21.30481,78.6645,244.0,3.904,Gangaldoh,21.28797425,78.66416303
400,Katol,1.10971284456,GARAMSUR,21.16625,78.73795,775.0,12.4,Garamsur,21.15628605,78.73734545
401,Katol,1.91805081483,GHARATWADA,21.22974,78.6059,1205.0,19.28,Gharatwada,21.21646679,78.61771812
402,Katol,2.64866994598,KATALABODI,21.17659,78.75776,19.0,0.304,Ghorpad,21.17779665,78.78327239
403,Katol,0.81573662482,GHUBDI,21.08802,78.69924,435.0,6.96,Ghubadi,21.08514896,78.70647546
404,Katol,2.81679341424,TAPNI,21.38249,78.64731,266.0,4.256,Gollarkhapa,21.35861592,78.65640532
405,Katol,2.08941851148,GONDIDIGRAS,21.36562,78.59536,1278.0,20.448,Gondidigras,21.35345856,78.61074076
406,Katol,1.48910993819,MALEGAON,21.30649,78.72112,408.0,6.528,Gondikhapa,21.3174731,78.71289502
407,Katol,1.30138649893,GONDI(MOH),21.36422,78.70798,1359.0,21.744,Gondimohgaon,21.35277327,78.70536134
408,Katol,2.87551250427,GONHI,21.33501,78.61811,906.0,14.496,Gonhi,21.3102025,78.62594958
409,Katol,0.637769782603,GHARATWADA,21.22974,78.6059,86.0,1.376,Gujarkhedi,21.22401087,78.60619221
410,Katol,0.728830104885,PANWADI,21.31668,78.56445,325.0,5.2,Harankhuri,21.31140549,78.56862688
411,Katol,2.5754161622,RINGANABODI,21.12926,78.71519,351.0,5.616,Hardoli,21.12961696,78.69036227
412,Katol,2.7124110342,HATLA,21.26098,78.65952,911.0,14.576,Hatla,21.2377256,78.66742391
413,Katol,1.47329793063,ESAPUR(BU),21.33043,78.64984,616.0,9.856,Isapur(Bk),21.31877896,78.64306697
414,Katol,0.977663332354,ESAPUR(KH),21.32632,78.64792,517.0,8.272,Isapur (Kh),21.31877896,78.64306697
415,Katol,2.60762870113,JUNAPANI,21.15234,78.56744,1050.0,16.8,Jamgad,21.13936428,78.58838432
416,Katol,2.01341964288,GONDI(MOH),21.36422,78.70798,500.0,8.0,Jatamzari,21.37312603,78.69105072
417,Katol,3.34247107287,KAMPTEE,21.07233,78.62764,152.0,2.432,Jatlapur,21.09839035,78.64369621
418,Katol,0.253189080491,JUNAPANI,21.15234,78.56744,702.0,11.232,Junapani,21.15215503,78.56987341
419,Katol,2.48032305805,FETRI,21.28389,78.54765,111.0,1.776,Junewani,21.26503777,78.53485521
420,Katol,1.81150734738,KACHARI(SA),21.19444,78.65655,3174.0,50.784,Kachari Savanga,21.17816582,78.65574974
421,Katol,1.89175529287,KALAMBHA,21.36257,78.56796,1238.0,19.808,Kalambha,21.34624379,78.57309768
422,Katol,1.67421438357,KACHARI(SA),21.19444,78.65655,146.0,2.336,Kalkuhi,21.18577747,78.64334188
423,Katol,4.86259913391,GANESHPUR,21.17177,78.67078,122.0,1.952,Kalmunda,21.17300279,78.71765734
424,Katol,1.27571178151,KAMPTEE,21.07233,78.62764,276.0,4.416,Kamthi,21.06869336,78.63930078
425,Katol,1.94771460757,WADHONA,21.31795,78.5774,447.0,7.152,Karla,21.30833573,78.59311675
426,Katol,1.11216693126,KATALABODI,21.17659,78.75776,443.0,7.088,Katlabodi,21.16702779,78.75461455
427,Katol,3.23789626084,MINIWADA,21.10503,78.70287,99.0,1.584,Kawdimet,21.08280833,78.68270041
428,Katol,2.63314336905,LADGAON,21.22616,78.56649,288.0,4.608,Kedarpur,21.20338647,78.55952747
429,Katol,3.4857337403,BORI,21.35514,78.6718,517.0,8.272,Khairi (Navghare),21.32452466,78.66456645
430,Katol,1.91573518163,KHAMLI,21.38085,78.60285,601.0,9.616,Khamli,21.36976831,78.61701617
431,Katol,1.16595503691,KHANGAON,21.29745,78.54637,1480.0,23.68,Khangaon,21.29368865,78.55687514
432,Katol,2.38221666448,NANDORA,21.1663,78.61376,1900.0,30.4,Khapa,21.15802971,78.63495228
433,Katol,2.8475343509,DHOTIWADA,21.04748,78.65892,517.0,8.272,Khapa (Bk),21.04685941,78.68635103
434,Katol,1.93557057834,KHAPRI(BARO),21.13581,78.55406,517.0,8.272,Khapari (Barokar),21.14990323,78.54310572
435,Katol,3.0876520389,RIDHORA,21.23291,78.62513,517.0,8.272,Khapari (Kh),21.22493826,78.65366542
436,Katol,1.47648547924,KHURSAPAR,21.16077,78.58225,1325.0,21.2,Khursapur,21.15775028,78.59611521
437,Katol,1.62740932479,KHUTAMBA,21.22131,78.59282,734.0,11.744,Khutamba,21.20706219,78.59641023
438,Katol,1.9540932259,PUSAGONDI,21.09557,78.65915,74.0,1.184,Kinki Dhoda,21.0793019,78.66627385
439,Katol,1.65233455438,KOHLA,21.28257,78.67144,602.0,9.632,Kohala,21.26822372,78.67559596
440,Katol,3.87130799023,RIDHORA,21.23291,78.62513,35.0,0.56,Kokarda,21.19945643,78.6147864
441,Katol,1.62307906603,KHANGAON,21.29745,78.54637,553.0,8.848,Kolambi,21.28299204,78.54421519
442,Katol,1.81247948337,BHORGAD,21.23816,78.47651,319.0,5.104,Kolhu,21.22205055,78.47917615
443,Katol,1.42128475056,KONDHALI,21.13906,78.64252,11817.0,189.072,Kondhali,21.12965979,78.65180561
444,Katol,1.31076524405,KONDHASAOLI,21.22778,78.66576,1153.0,18.448,Kondhasaoli,21.21687156,78.67055302
445,Katol,1.78921383458,KOTWALBARDI,21.22308,78.78103,582.0,9.312,Kotwalbardi,21.20699015,78.78121623
446,Katol,2.93986145343,BIHALGONDI,21.14939,78.67098,184.0,2.944,Kundi,21.14404068,78.69874146
447,Katol,0.980546449051,LADGAON,21.22616,78.56649,1698.0,27.168,Ladgaon,21.22993949,78.57503722
448,Katol,4.38967690173,MALEGAON,21.30649,78.72112,218.0,3.488,Lakholi,21.27400177,78.69705025
449,Katol,1.8425672425,LINGA,21.25711,78.63155,583.0,9.328,Linga,21.24259941,78.64013547
450,Katol,3.79430131782,KATALABODI,21.17659,78.75776,11.0,0.176,Mandala,21.14494019,78.77143626
451,Katol,0.849381691404,MARAGSUR,21.20658,78.70788,455.0,7.28,Maragsur,21.19894861,78.7075223
452,Katol,1.29400071746,MASLI,21.36638,78.53434,1497.0,23.952,Masli,21.3596513,78.54453522
453,Katol,0.692550704687,MASOD,21.07634,78.62218,745.0,11.92,Masod,21.08256806,78.62212676
454,Katol,1.2523157005,MENDHEPATHAR,21.24571,78.68479,970.0,15.52,Mendhepathar,21.23498618,78.68848173
455,Katol,1.94088682126,NANDORA,21.1663,78.61376,970.0,15.52,Mendhepathar (Jangli),21.18036405,78.62484636
456,Katol,2.47955292822,MENDHAKI,21.35389,78.62937,1476.0,23.616,Mendki,21.33610493,78.64381218
457,Katol,1.90380373691,METPANJRA,21.25941,78.70053,1011.0,16.176,Metpanjara,21.24233382,78.70186307
458,Katol,1.14519315986,MINIWADA,21.10503,78.70287,723.0,11.568,Mhasala,21.10886953,78.69262624
459,Katol,3.53270089015,MALEGAON,21.30649,78.72112,262.0,4.192,Mhaskhapra,21.30199111,78.687363
460,Katol,1.00742983481,MINIWADA,21.10503,78.70287,378.0,6.048,Miniwada,21.10395702,78.71251308
461,Katol,4.16594693454,PANDHARDHAKNI,21.27881,78.45954,16.0,0.256,Mohgaon (Dhole),21.25280682,78.48848261
462,Katol,4.16594693454,PANDHARDHAKNI,21.27881,78.45954,16.0,0.256,Mohgaon (Jangli),21.25280682,78.48848261
463,Katol,3.43660277636,KALAMBHA,21.36257,78.56796,347.0,5.552,Mohkhedi,21.34068565,78.59139172
464,Katol,1.6198271252,DORLI(BHA),21.38212,78.57814,229.0,3.664,Mukani,21.38672657,78.5929817
465,Katol,1.2730713933,KATALABODI,21.17659,78.75776,186.0,2.976,Murli,21.18797312,78.75907538
466,Katol,1.49467078982,MURTI,21.18789,78.50926,1923.0,30.768,Murti,21.19014793,78.52347171
467,Katol,0.196315489493,NANDORA,21.1663,78.61376,457.0,7.312,Nandora,21.16456273,78.61409725
468,Katol,1.72555845324,PANCHADHAR,21.20091,78.63316,472.0,7.552,Panchdhar,21.20295284,78.64966014
469,Katol,2.28620972257,PANDHARDHAKNI,21.27881,78.45954,154.0,2.464,Pandhardhakani,21.26682435,78.47746697
470,Katol,3.06314001513,PARDI(GOT),21.26054,78.63457,1185.0,18.96,Panjra (Bk),21.23729737,78.65043521
471,Katol,1.52926132516,PANJRAKATE,21.12014,78.65418,500.0,8.0,Panjra (Kate),21.12188055,78.66880487
472,Katol,2.19603147674,PANWADI,21.31668,78.56445,256.0,4.096,Panwadi,21.29730083,78.56853529
473,Katol,2.16450324675,PARADSINGA,21.31803,78.51966,5088.0,81.408,Paradsinga,21.30138417,78.53049194
474,Katol,1.01139186682,PARDI(GOT),21.26054,78.63457,124.0,1.984,Pardi (Gotmare),21.25422892,78.6415981
475,Katol,1.15388247361,LADGAON,21.22616,78.56649,468.0,7.488,Parsodi,21.2197235,78.55775801
476,Katol,3.94504356465,DONGARGAON,21.30591,78.60309,247.0,3.952,Pathar,21.27666243,78.62464377
477,Katol,0.53030991811,PUSAGONDI,21.09557,78.65915,1738.0,27.808,Pusagondi,21.09095086,78.66042214
478,Katol,2.49222158851,RAJNI,21.39848,78.59109,532.0,8.512,Rajni,21.38518299,78.61046758
479,Katol,1.51462686202,RAULGAON,21.23096,78.77937,939.0,15.024,Raulgaon,21.22558777,78.7927984
480,Katol,1.6404482008,RIDHORA,21.23291,78.62513,3595.0,57.52,Ridhora,21.22028454,78.63331737
481,Katol,0.282305744951,RINGANABODI,21.12926,78.71519,496.0,7.936,Ringanabodi,21.12854722,78.71780235
482,Katol,1.95183058665,SABKUND,21.19986,78.5963,574.0,9.184,Sabkund,21.18418367,78.60477019
483,Katol,1.75814815792,BIHALGONDI,21.14939,78.67098,1185.0,18.96,Salai (Bk),21.15521855,78.65522027
484,Katol,3.77085905062,YENWA,21.34063,78.59615,1185.0,18.96,Salai (Bk),21.30807422,78.60634284
485,Katol,4.15435940811,KHURSAPAR,21.16077,78.58225,517.0,8.272,Salai (Kh),21.14935294,78.62039452
486,Katol,2.96839905441,BHORGAD,21.23816,78.47651,513.0,8.208,Saoli,21.21631927,78.49297753
487,Katol,2.44542268623,LINGA,21.25711,78.63155,1185.0,18.96,Saoli (Bk),21.23587899,78.63770431
488,Katol,0.162685446552,RIDHORA,21.23291,78.62513,517.0,8.272,Saoli (Kh),21.23410142,78.62604101
489,Katol,4.75097727466,GANESHPUR,21.17177,78.67078,372.0,5.952,Shekapur,21.1549151,78.71288109
490,Katol,1.41340326575,KONDHALI,21.13906,78.64252,1979.0,31.664,Shirmi,21.12817218,78.6354876
491,Katol,1.45259262717,SIRSAWADI,21.29467,78.58766,802.0,12.832,Sirsawadi,21.28292428,78.59379648
492,Katol,1.13955199792,SONKHAMB,21.27106,78.72647,974.0,15.584,Sonkhamb,21.26089762,78.72504949
493,Katol,0.41014188317,CHIKHALI(MALO),21.22302,78.6872,73.0,1.168,Sonmoh,21.21937844,78.68782921
494,Katol,2.07711152468,SONOLI,21.36605,78.62694,1572.0,25.152,Sonoli,21.35164283,78.63970688
495,Katol,3.03543855201,KACHARI(SA),21.19444,78.65655,500.0,8.0,Sonpur,21.18063134,78.68180548
496,Katol,4.0713146066,CHIKHALAGAD,21.20492,78.49609,418.0,6.688,Tandulwani,21.2035521,78.5353357
497,Katol,1.5152868346,TAPNI,21.38249,78.64731,620.0,9.92,Tapani,21.37300668,78.65781928
498,Katol,2.85484420653,METPANJRA,21.25941,78.70053,317.0,5.072,Tarabodi,21.23729023,78.71451457
499,Katol,3.40815862798,KHARI(KH),21.11177,78.58651,482.0,7.712,Taroda,21.13228001,78.61092723
500,Katol,3.89783020924,METPANJRA,21.25941,78.70053,500.0,8.0,Ubagi,21.23851273,78.73072704
501,Katol,0.627488144198,DODKI,21.10555,78.64885,568.0,9.088,Vasantnagar,21.10674456,78.65476185
502,Katol,2.33794054965,WADHONA,21.31795,78.5774,948.0,15.168,Wadhona (Lodhi),21.29899148,78.58715834
503,Katol,2.05053131645,PARADSINGA,21.31803,78.51966,1025.0,16.4,Wadvihara,21.32190209,78.53901429
504,Katol,0.537456726168,KHUTAMBA,21.22131,78.59282,566.0,9.056,Waghoda,21.22539651,78.59005095
505,Katol,1.07474945116,WAI(KU),21.2042,78.67949,1185.0,18.96,Wai (Bk),21.20042133,78.66994787
506,Katol,0.573739854472,WAI(KU),21.2042,78.67949,517.0,8.272,Wai (Kh),21.20064075,78.68349686
507,Katol,1.3504436584,WAJBODI,21.22832,78.71259,478.0,7.648,Wajbodi,21.21669243,78.71635176
508,Katol,3.46259945449,CHIKHALAGAD,21.20492,78.49609,582.0,9.312,Walni,21.21165322,78.52870201
509,Katol,1.95166875367,WANDLIWAGH,21.25304,78.60284,726.0,11.616,Wandli (bu),21.23733362,78.61124544
510,Katol,2.06256145834,WANDALI(KH),21.36011,78.54558,517.0,8.272,Wandli (kh),21.34543543,78.5577619
511,Katol,2.91093553284,KOTWALBARDI,21.22308,78.78103,72.0,1.152,Yenvihira,21.22220934,78.75296228
512,Katol,1.619471466,YENWA,21.34063,78.59615,2138.0,34.208,Yenwa,21.32993391,78.60676218
513,Katol,1.68505021893,YERLA(DHOTE),21.33308,78.56177,619.0,9.904,Yerla (Dhote),21.32437605,78.57508717
514,Katol,1.10178302518,ZILPA,21.34227,78.68551,2038.0,32.608,Zilpa,21.3324487,78.68691877
515,Kuhi,2.52907858765,ADAM,21.00017,79.45043,1540.0,24.64,Adam,20.97774596,79.45450526
516,Kuhi,3.8370498233,RAJOLA,21.07424,79.52443,652.0,10.432,Agargaon,21.06339432,79.48932446
517,Kuhi,3.50326368924,ESAPUR(NAVE),20.97604,79.3295,280.0,4.48,Ajni,20.9532377,79.35278194
518,Kuhi,1.23036426371,WADEGAON(K),21.03808,79.19245,280.0,4.48,Ajni,21.02707546,79.19121312
519,Kuhi,2.4742794761,AKOLI,21.0179,79.34412,1394.0,22.304,Akoli,20.99595502,79.34806417
520,Kuhi,3.13408142671,AMBADI,21.05719,79.3652,521.0,8.336,Ambadi,21.0338525,79.38213407
521,Kuhi,4.9242014437,MAHASLI,21.04423,79.57698,59.0,0.944,Ambhorakala,21.00751876,79.60351342
522,Kuhi,4.00351113464,BORI(N),21.05622,79.53038,263.0,4.208,Amti,21.02333436,79.51467506
523,Kuhi,2.97464816819,BORI(N),21.05622,79.53038,984.0,15.744,Awarmara,21.06581641,79.55713871
524,Kuhi,4.40935814985,SATARA,20.972921,79.40341,500.0,8.0,Bamhani,20.94828641,79.43668612
525,Kuhi,2.65529112772,BANOR,20.94231,79.3827,411.0,6.576,Banor,20.91951263,79.39030957
526,Kuhi,5.56351415352,CHITAPUR,21.05942,79.28211,773.0,12.368,Bhamewada,21.02708345,79.32301853
527,Kuhi,2.74904568893,BHATRA,21.01072,79.40891,592.0,9.472,Bhatara,20.98679848,79.41559717
528,Kuhi,2.50957453564,BHIVAPUR-FEGAD(PUNARVASIT),20.93389,79.57873,385.0,6.16,Bhiwapur,20.93600642,79.60278783
529,Kuhi,1.64918102029,DEVADIKALA,21.03976,79.4617,300.0,4.8,Bhiwkund,21.02508183,79.46397853
530,Kuhi,2.83413889577,SILLI,20.99274,79.3613,3.0,0.048,Bhojapur,20.97117203,79.34675381
531,Kuhi,3.91124836812,AMBADI,21.05719,79.3652,282.0,4.512,Bhowardeo,21.04367026,79.39999474
532,Kuhi,2.45441155423,BHATRA,21.01072,79.40891,78.0,1.248,Bidbothli,21.00245225,79.4308332
533,Kuhi,5.05943324928,KHOBNA,21.06177,79.40647,212.0,3.392,Bodkhipeth,21.01631871,79.40420154
534,Kuhi,3.0488204738,BORI(N),21.05622,79.53038,506.0,8.096,Bori (naik),21.0299264,79.53870926
535,Kuhi,2.69175273048,PARSODI(R),20.93646,79.50261,506.0,8.096,Bori (sadachar),20.91701114,79.48717874
536,Kuhi,3.22191181594,WELTUR,20.99726,79.56922,533.0,8.528,Bothli,20.9685187,79.56528357
537,Kuhi,3.04925057218,SAWANGI,20.93498,79.5697,179.0,2.864,Bramhani,20.911371,79.58463518
538,Kuhi,4.35866613362,BANOR,20.94231,79.3827,552.0,8.832,Chada,20.90575184,79.39784125
539,Kuhi,2.44028077165,CHANNA,20.99369,79.52319,703.0,11.248,Channa,20.97179054,79.52471948
540,Kuhi,3.41244626034,MALNI,21.02367,79.31106,1348.0,21.568,Chanoda,21.0147503,79.34251717
541,Kuhi,2.946926373,CHAPEGADI,21.07376,79.43591,2069.0,33.104,Chapegadi,21.04875327,79.44531543
542,Kuhi,2.946926373,CHAPEGADI,21.07376,79.43591,500.0,8.0,Chapeghat,21.04875327,79.44531543
543,Kuhi,3.03555538048,MAZRI,20.9938,79.47974,307.0,4.912,Chichal,20.97767764,79.50333522
544,Kuhi,2.67891245973,CHAPEGADI,21.07376,79.43591,15.0,0.24,Chichghat,21.07626544,79.46158907
545,Kuhi,1.00142827701,MAHASLI,21.04423,79.57698,15.0,0.24,Chichghat,21.05314785,79.57832731
546,Kuhi,1.28345276303,ADAM,21.00017,79.45043,417.0,6.672,Chikhalabodi,20.99491261,79.43942362
547,Kuhi,2.09310537904,CHIKNA,20.90219,79.45433,657.0,10.512,Chikna tukum,20.88349402,79.45667358
548,Kuhi,2.2560840407,MUSALGAON,20.96804,79.3821,758.0,12.128,Chipdi,20.96478824,79.40354719
549,Kuhi,3.50347793512,CHITAPUR,21.05942,79.28211,545.0,8.72,Chitapur,21.03065846,79.29589404
550,Kuhi,1.56750003646,WELGAON,20.9122,79.49748,1123.0,17.968,Dahegaon,20.90766753,79.51176941
551,Kuhi,3.11543673497,DEVADIKALA,21.03976,79.4617,751.0,12.016,Deolikala,21.01232678,79.46779957
552,Kuhi,2.42827007314,DWALIKHURD,21.03944,79.47279,517.0,8.272,Deoli kh.,21.01826619,79.47851609
553,Kuhi,3.56956115703,THANA,20.90307,79.4937,500.0,8.0,Dhamna,20.87257465,79.48296657
554,Kuhi,3.40495092962,MAHASLI,21.04423,79.57698,289.0,4.624,Dhamni,21.0284966,79.60512627
555,Kuhi,1.60595745266,KHOKARLA,20.96902,79.59329,4214.0,67.424,Dhanla,20.95479318,79.59595426
556,Kuhi,5.7683742239,TITUR,21.06672,79.26081,1012.0,16.192,Dhanoli,21.016002,79.27248962
557,Kuhi,5.31520286724,TITUR,21.06672,79.26081,232.0,3.712,Dipala,21.01893035,79.25970544
558,Kuhi,2.94910885628,DODMA,21.01146,79.25614,574.0,9.184,Dodma,20.98626773,79.26502234
559,Kuhi,1.40613487635,DONGERMOUDA,20.91367,79.4788,1237.0,19.792,Dongarmauda,20.90300419,79.48607252
560,Kuhi,0.705878687197,BHIVAPUR-FEGAD(PUNARVASIT),20.93389,79.57873,1638.0,26.208,Fegad,20.93281759,79.58542904
561,Kuhi,2.62068933649,MAHASLI,21.04423,79.57698,260.0,4.16,Gondpipri,21.06241419,79.59304599
562,Kuhi,1.71787244376,GONHA,20.97745,79.61734,1336.0,21.376,Gonha,20.96689072,79.62941746
563,Kuhi,1.13078200459,GOTHANGAON,20.89846,79.54526,279.0,4.464,Gothangaon,20.89708167,79.55604498
564,Kuhi,2.17903390405,HARDOLI?,20.92053,79.46398,351.0,5.616,Hardoli,20.90142118,79.45932893
565,Kuhi,1.27605948975,HARDOLI(N),21.03462,79.56059,351.0,5.616,Hardoli,21.02318689,79.56165047
566,Kuhi,1.28287895829,ADAM,21.00017,79.45043,296.0,4.736,Hudpa,20.99410648,79.46094345
567,Kuhi,3.03314655434,ESAPUR(NAVE),20.97604,79.3295,1132.0,18.112,Isapur (navegaon),20.9491021,79.33409664
568,Kuhi,0.520004936681,JIWANAPUR (PUNARVASIT),20.91233,79.61209,1692.0,27.072,Jiwanapur,20.9169939,79.6124575
569,Kuhi,3.7958099951,RAJOLA,21.07424,79.52443,500.0,8.0,Kanheri dongarmoh,21.04493266,79.50567339
570,Kuhi,3.7958099951,RAJOLA,21.07424,79.52443,500.0,8.0,Kanheri kh.,21.04493266,79.50567339
571,Kuhi,0.989735946305,KARAHNDLA,20.9272,79.54001,1008.0,16.128,Karhandla,20.92078442,79.5466154
572,Kuhi,3.89881857649,MUSALGAON,20.96804,79.3821,500.0,8.0,Katara,20.94946119,79.41394289
573,Kuhi,3.2279748486,KINHI,20.96558,79.49422,817.0,13.072,Kesori,20.95550916,79.52337641
574,Kuhi,3.54345026881,PACHKHEDI(G),20.94753,79.50746,575.0,9.2,Khairlanji,20.94784409,79.54158059
575,Kuhi,1.13277591544,WADEGAON(K),21.03808,79.19245,727.0,11.632,Khalasana,21.04317943,79.20189913
576,Kuhi,1.38383408799,KHARADA,20.92451,79.62689,1379.0,22.064,Kharada,20.92526087,79.64018956
577,Kuhi,1.1619782069,SALVA,21.04918,79.44186,755.0,12.08,Kharbi,21.04371643,79.4323154
578,Kuhi,4.02639385523,KUJBA,21.01636,79.51048,805.0,12.88,Khenda,20.99054495,79.48328064
579,Kuhi,2.84988860747,SASEGAON,21.00669,79.28617,368.0,5.888,Khetapur,21.03065846,79.29589404
580,Kuhi,3.62970212544,KHOBNA,21.06177,79.40647,422.0,6.752,Khobna,21.03056016,79.4167188
581,Kuhi,2.65573802912,KHOKARLA,20.96902,79.59329,744.0,11.904,Khokarla,20.95143026,79.61059122
582,Kuhi,4.32501301942,DEVADIKALA,21.03976,79.4617,134.0,2.144,Khursapar,21.01862311,79.49668122
583,Kuhi,3.1975529009,KUCHADI,21.06215,79.2291,733.0,11.728,Kuchadi,21.03938722,79.24792871
584,Kuhi,2.22543545739,KUJBA,21.01636,79.51048,1508.0,24.128,Kujba,20.99659172,79.50713209
585,Kuhi,3.80350176568,BHATRA,21.01072,79.40891,555.0,8.88,Lohara,20.98318216,79.43064346
586,Kuhi,1.42594694313,PACHKHEDI(G),20.94753,79.50746,512.0,8.192,Madnapur,20.94443351,79.52078493
587,Kuhi,2.54641903912,MAZRI,20.9938,79.47974,22.0,0.352,Majri,20.97111387,79.48308807
588,Kuhi,3.76515160422,BANOR,20.94231,79.3827,338.0,5.408,Malchi,20.9085457,79.37996474
589,Kuhi,3.10018621044,MALNI,21.02367,79.31106,757.0,12.112,Malni,20.99998885,79.32682323
590,Kuhi,2.36297023582,GONHA,20.97745,79.61734,256.0,4.096,Maloda,20.98625248,79.63805545
591,Kuhi,0.353271257394,MANDHAL,20.95291,79.45942,637.0,10.192,Mandhal,20.95011771,79.45779721
592,Kuhi,2.38035128274,MALNI,21.02367,79.31106,369.0,5.904,Mangli,21.00251838,79.30752829
593,Kuhi,5.82427222733,AKOLI,21.0179,79.34412,489.0,7.824,Mendhegaon,20.97723581,79.30875694
594,Kuhi,1.67309953547,MAHASLI,21.04423,79.57698,766.0,12.256,Mhasli,21.02919177,79.57644411
595,Kuhi,4.97274524466,ESAPUR(NAVE),20.97604,79.3295,432.0,6.912,Mohadara,20.93830632,79.35520312
596,Kuhi,3.11522920341,KUCHADI,21.06215,79.2291,1484.0,23.744,Mohadi,21.03413424,79.22899564
597,Kuhi,0.609427525178,CHAPEGADI,21.07376,79.43591,16.0,0.256,Mohgaon,21.06891044,79.4331736
598,Kuhi,2.01122443543,BANOR,20.94231,79.3827,424.0,6.784,Murbi,20.93434128,79.40008542
599,Kuhi,3.10450168125,MUSALGAON,20.96804,79.3821,812.0,12.992,Musalgaon,20.94030492,79.37866983
600,Kuhi,3.54955189881,BORI(N),21.05622,79.53038,555.0,8.88,Navegaon,21.04877029,79.56364052
601,Kuhi,1.28179886356,SIRSI(NAVE),20.95198,79.63532,555.0,8.88,Navegaon,20.94046378,79.63477423
602,Kuhi,2.99351047505,DODMA,21.01146,79.25614,1274.0,20.384,Nawargaon,20.99854502,79.28144253
603,Kuhi,4.50382823406,SALVA,21.04918,79.44186,788.0,12.608,Newri,21.00881741,79.43823837
604,Kuhi,4.33006650135,PARDI,20.92567,79.41439,2932.0,46.912,Pachkhedi,20.89025299,79.39706087
605,Kuhi,2.32446475254,PACHKHEDI(G),20.94753,79.50746,517.0,8.272,Pachkhedi (gandli),20.93218517,79.52266002
606,Kuhi,1.01429915247,BHATRA,21.01072,79.40891,630.0,10.08,Pandegaon,21.00757116,79.41808073
607,Kuhi,1.84585980643,SAWANGI,20.93498,79.5697,388.0,6.208,Pandhargota,20.91841777,79.56849837
608,Kuhi,3.69106648481,KUJBA,21.01636,79.51048,235.0,3.76,Paoni,20.98721067,79.49346931
609,Kuhi,2.64764124879,MAHASLI,21.04423,79.57698,235.0,3.76,Paoni,21.04494667,79.6024809
610,Kuhi,1.27175308338,WADEGAON(K),21.03808,79.19245,1195.0,19.12,Pipari,21.03431493,79.18087919
611,Kuhi,3.30024154918,GONHA,20.97745,79.61734,761.0,12.176,Pipri,20.97158593,79.64849934
612,Kuhi,2.1262346905,RAJOLA,21.07424,79.52443,2610.0,41.76,Rajola,21.05560441,79.52902092
613,Kuhi,1.32874672772,RAJOLI,20.9113,79.55488,1086.0,17.376,Rajoli,20.90765414,79.5670622
614,Kuhi,2.22029500201,SHIKARPUR,20.96909,79.56278,180.0,2.88,Ratnapur,20.95943467,79.58149696
615,Kuhi,3.7293468662,PARSODI(R),20.93646,79.50261,666.0,10.656,Rengatur,20.91273736,79.52799235
616,Kuhi,3.97374361064,BANOR,20.94231,79.3827,3595.0,57.52,Ridhora,20.91023338,79.36583295
617,Kuhi,3.52852895343,HARDOLI(N),21.03462,79.56059,1559.0,24.944,Ruyad,21.00670617,79.54442127
618,Kuhi,2.20916279281,RUYAD,20.95638,79.42374,1559.0,24.944,Ruyad,20.93652941,79.42286304
619,Kuhi,3.21579725428,SALVA,21.04918,79.44186,466.0,7.456,Salwa,21.02145452,79.45067449
620,Kuhi,4.02586145632,SASEGAON,21.00669,79.28617,785.0,12.56,Sasegaon,20.97111418,79.29337048
621,Kuhi,2.82860904672,SATARA,20.972921,79.40341,458.0,7.328,Satara,20.94946119,79.41394289
622,Kuhi,5.22334884064,RAJOLA,21.07424,79.52443,139.0,2.224,Sawarkheda,21.03731807,79.49331097
623,Kuhi,4.63525303174,AMBADI,21.05719,79.3652,597.0,9.552,Sawli,21.01592761,79.37154973
624,Kuhi,1.52257934709,SHIKARPUR,20.96909,79.56278,483.0,7.728,Shikarpur,20.95542341,79.5636883
625,Kuhi,4.68902979809,DODMA,21.01146,79.25614,1767.0,28.272,Shivani,20.97278872,79.23812802
626,Kuhi,0.95325062667,KINHI,20.96558,79.49422,307.0,4.912,Shiwani,20.96192685,79.50252521
627,Kuhi,3.95366047786,SILLI,20.99274,79.3613,2154.0,34.464,Silli,20.95806735,79.36973589
628,Kuhi,0.935136324272,SIRSI(NAVE),20.95198,79.63532,555.0,8.88,Sirsi (navegaon),20.94890189,79.64370035
629,Kuhi,2.46580407672,SIRSI(NAVE),20.95198,79.63532,63.0,1.008,Sonarwahi,20.93832203,79.61661359
630,Kuhi,1.91408223915,SHIKARPUR,20.96909,79.56278,491.0,7.856,Sonpuri,20.96828651,79.54436553
631,Kuhi,2.97706789523,TARNA,20.90144,79.40165,2803.0,44.848,Tarna,20.87579902,79.40989626
632,Kuhi,4.78738229948,CHITAPUR,21.05942,79.28211,253.0,4.048,Tarni,21.02119011,79.30332655
633,Kuhi,1.36997045539,TAROLI,20.95369,79.55498,745.0,11.92,Taroli,20.9415855,79.55743912
634,Kuhi,4.12570289873,HARDOLI(N),21.03462,79.56059,585.0,9.36,Tekepar,21.01154037,79.52946684
635,Kuhi,4.03350548294,AKOLI,21.0179,79.34412,396.0,6.336,Tembhari,20.98162731,79.34447291
636,Kuhi,1.58779575469,THANA,20.90307,79.4937,711.0,11.376,Thana,20.88880723,79.49296276
637,Kuhi,3.04009313682,TITUR,21.06672,79.26081,1362.0,21.792,Titur,21.04220536,79.27378045
638,Kuhi,1.66840222261,TUDKA (PUNARVASIT),20.96798,79.62963,1037.0,16.592,Tudka,20.96038307,79.64348614
639,Kuhi,3.1511552426,VIRKHANDI,20.9201,79.43653,763.0,12.208,Virkhandi,20.89176808,79.43720902
640,Kuhi,2.71451089441,WADEGAON(K),21.03808,79.19245,149.0,2.384,Wadegaon (Kale),21.01677364,79.20521623
641,Kuhi,1.34169400731,WADEGON(MA),20.96215,79.45683,149.0,2.384,Wadegaon (mandhal),20.95011771,79.45779721
642,Kuhi,2.60546652184,WAG,20.93681,79.43746,1522.0,24.352,Wag,20.913403,79.43631258
643,Kuhi,2.78751430066,WELGAON,20.9122,79.49748,834.0,13.344,Welgaon,20.89710626,79.51890583
644,Kuhi,1.94238538258,WELTUR,20.99726,79.56922,5060.0,80.96,Weltur,20.982762,79.57965674
645,MOUDA,0.621223692639,AADASA,21.22331,79.55491,736.0,11.776,Adasa,21.21772565,79.55508743
646,MOUDA,1.90676394015,AADEGAON,21.35164,79.48975,1394.0,22.304,Adegaon,21.35025691,79.50810158
647,MOUDA,0.514053131504,ANJANGAON,21.19441,79.42281,915.0,14.64,Ajangaon,21.19638649,79.4272924
648,MOUDA,1.99366007319,AROLI,21.32149,79.44181,4522.0,72.352,Aroli,21.30476763,79.44875211
649,MOUDA,0.999604890829,AASHTI(NAV),21.26741,79.36873,44.0,0.704,Ashti,21.26045269,79.37483886
650,MOUDA,2.53533379438,GHOTMUNDRI,21.23508,79.51911,44.0,0.704,Ashti,21.21458094,79.50840028
651,MOUDA,1.45242260934,BABDEO,21.20528,79.37728,1416.0,22.656,Babadeo,21.19348211,79.38329263
652,MOUDA,0.995661459233,BANOR,21.24901,79.39614,411.0,6.576,BANOR,21.24499709,79.40472842
653,MOUDA,2.91929023269,DHUDHALA,21.29883,79.37406,823.0,13.168,Barshi,21.27657995,79.38901594
654,MOUDA,2.05598968248,BERDEPAR,21.34422,79.44176,595.0,9.52,Berdipar,21.33362488,79.45802859
655,MOUDA,5.29327669061,DAHEGAON,21.19753,79.50688,773.0,12.368,Bhamewada,21.1675948,79.46718463
656,MOUDA,1.84024118783,BHANDEWADI,21.32262,79.45282,633.0,10.128,Bhandewadi,21.31435818,79.46821326
657,MOUDA,1.00462739968,BHENDALA,21.23066,79.42714,1186.0,18.976,Bhendala,21.22326508,79.4327085
658,MOUDA,2.64652934787,DAHEGAON,21.19753,79.50688,249.0,3.984,Bhowari,21.18120993,79.52546059
659,MOUDA,1.47797277863,CHACHER,21.28182,79.33662,4469.0,71.504,Chacher,21.27397809,79.34813704
660,MOUDA,0.863204385952,PIPRI,21.22155,79.47654,336.0,5.376,Charbha,21.22079773,79.46825151
661,MOUDA,4.79766295833,ZULLAR,21.16331,79.33695,516.0,8.256,Chehadi,21.14160465,79.37693322
662,MOUDA,0.220633260469,CHICHOLI,21.16767,79.48384,237.0,3.792,Chicholi,21.16937295,79.48493203
663,MOUDA,2.12808465006,NIHARWANI,21.16612,79.54277,417.0,6.672,Chikhalabodi,21.18497358,79.53924276
664,MOUDA,0.407685074296,CHIRVA,21.13069,79.44964,2797.0,44.752,Chirwha,21.1273893,79.45135125
665,MOUDA,4.91091940803,NANADEVI,21.18302,79.36476,729.0,11.664,Dahali,21.14671933,79.39173522
666,MOUDA,1.18966370154,DAHEGAON,21.19753,79.50688,1123.0,17.968,Dahegaon,21.19534688,79.51811381
667,MOUDA,3.834732343,MORGAON,21.27496,79.52721,689.0,11.024,Deomundhari,21.24556558,79.54656296
668,MOUDA,1.56699003574,DHANI,21.25474,79.42401,1181.0,18.896,Dhani,21.24132004,79.42862451
669,MOUDA,0.775572066842,DHANLA,21.18726,79.47103,4214.0,67.424,Dhanla,21.18959482,79.47807903
670,MOUDA,1.49547340872,DHANOLI,21.33516,79.53075,1012.0,16.192,Dhanoli,21.32603499,79.5413565
671,MOUDA,2.54505353283,DHARMAPURI,21.27234,79.50568,1612.0,25.792,Dharmapuri,21.25471765,79.52135254
672,MOUDA,0.816894690201,GHOTMUNDRI,21.23508,79.51911,563.0,9.008,Dholmara,21.23027719,79.51314599
673,MOUDA,1.01983893417,DHUDHALA,21.29883,79.37406,2002.0,32.032,Dudhala,21.29457284,79.38277917
674,MOUDA,0.987138490657,DHARMAPURI,21.27234,79.50568,742.0,11.872,Ejani,21.26662919,79.51297369
675,MOUDA,1.34057365,GANGNER,21.23119,79.32436,903.0,14.448,Gangner,21.22536676,79.3356849
676,MOUDA,1.5485043676,GHOTMUNDRI,21.23508,79.51911,1053.0,16.848,Ghotmundhari,21.2261627,79.53058538
677,MOUDA,0.482664051176,GOWRI,21.11821,79.50659,456.0,7.296,Gowari,21.11447816,79.50896658
678,MOUDA,0.79979042585,BANOR,21.24901,79.39614,553.0,8.848,Hingana,21.25557742,79.39299275
679,MOUDA,3.85548012414,AADASA,21.22331,79.55491,801.0,12.816,Hiwara,21.18869108,79.55283042
680,MOUDA,3.24711722288,GANGNER,21.23119,79.32436,801.0,12.816,Hiwara,21.22142421,79.35388363
681,MOUDA,2.0150965812,INDORA,21.30644,79.49843,88.0,1.408,Indora,21.28927733,79.50467518
682,MOUDA,1.96274477824,ANJANGAON,21.19441,79.42281,1132.0,18.112,Isapur,21.19637186,79.40399521
683,MOUDA,4.06271796208,AADEGAON,21.35164,79.48975,204.0,3.264,Kathalabodi,21.34900368,79.52887687
684,MOUDA,4.35628145264,BHANDEWADI,21.32262,79.45282,580.0,9.28,Khaparkheda,21.3472957,79.48548812
685,MOUDA,2.17199233097,PARDIKALA,21.27129,79.42987,1900.0,30.4,Khaparkheda (Gadi Patil Teli),21.2683292,79.40915119
686,MOUDA,2.32702685161,TUMAN,21.28921,79.41065,1900.0,30.4,Khaparkheda (Kirad),21.2683292,79.40915119
687,MOUDA,1.96284060741,KHARDA,21.28741,79.48128,1229.0,19.664,Kharda,21.27140557,79.48927204
688,MOUDA,0.613663746803,KHAT,21.24202,79.54949,4280.0,68.48,Khat,21.24222719,79.55540693
689,MOUDA,2.65031804904,TONDLI,21.31019,79.53137,427.0,6.832,Khidki,21.32074279,79.55431079
690,MOUDA,1.3375749781,SALVA,21.23392,79.29824,654.0,10.464,Khopadi,21.23562699,79.31101472
691,MOUDA,2.77180845245,NANADEVI,21.18302,79.36476,243.0,3.888,Kirnapur,21.1588449,79.35824197
692,MOUDA,2.60619161835,KODAMENDHI,21.32411,79.47639,3819.0,61.104,Kodamendhi,21.31322424,79.49867139
693,MOUDA,2.1636905808,LAPKA,21.15708,79.41372,552.0,8.832,Korad,21.15933834,79.43444411
694,MOUDA,4.83696632498,PANMARA,21.10699,79.46801,942.0,15.072,Kotgaon,21.09375721,79.51242637
695,MOUDA,2.78912218075,DHAMANGAON,21.18567,79.42791,2218.0,35.488,Kumbhari,21.1781781,79.4022373
696,MOUDA,1.47151409009,LAPKA,21.15708,79.41372,751.0,12.016,Lapaka,21.1488302,79.42481505
697,MOUDA,1.41191176121,BORGAON,21.15702,79.48335,461.0,7.376,Mahadula,21.15580661,79.49690301
698,MOUDA,0.756418165694,MAHALGAON,21.27217,79.56281,643.0,10.288,Mahalgaon,21.26651921,79.56687423
699,MOUDA,3.34407989953,BABDEO,21.20528,79.37728,369.0,5.904,Mangli (Chande),21.18305085,79.35555432
700,MOUDA,1.72983022171,BHENDALA,21.23066,79.42714,427.0,6.832,Mangli(Gosai),21.2183343,79.4169578
701,MOUDA,1.2310073502,MANGLITELI,21.21037,79.44451,1275.0,20.4,Mangli(Teli),21.20455817,79.45461697
702,MOUDA,0.62065053259,MARODI,21.16063,79.45012,2477.0,39.632,Marodi,21.15538354,79.45216281
703,MOUDA,2.69770827095,MATHANI,21.14238,79.38634,3025.0,48.4,Mathani,21.11839672,79.39026476
704,MOUDA,0.996654689526,MOHALI,21.13717,79.48959,1484.0,23.744,Mohadi,21.12942824,79.48474735
705,MOUDA,2.88323772759,MORGAON,21.27496,79.52721,1137.0,18.192,Morgaon,21.24942961,79.53207341
706,MOUDA,1.93013682643,PIMPALGAON,21.281175,79.553162,412.0,6.592,Murmadi,21.29552707,79.56364034
707,MOUDA,1.19199008047,NANADEVI,21.18302,79.36476,498.0,7.968,Nanadevi,21.17471248,79.37202568
708,MOUDA,1.90960635944,NANDAPURI,21.33318,79.33074,1433.0,22.928,Nandapuri,21.32157532,79.34433009
709,MOUDA,3.9032299319,NARSALA,21.23392,79.33175,876.0,14.016,Narsala,21.20155049,79.34631712
710,MOUDA,3.24378940859,DHARMAPURI,21.27234,79.50568,1274.0,20.384,Nawargaon,21.24320298,79.5072146
711,MOUDA,4.13950090333,AASHTI(NAV),21.26741,79.36873,500.0,8.0,Nawegaon,21.23044566,79.36398972
712,MOUDA,3.6870000467,LAPKA,21.15708,79.41372,500.0,8.0,Nawegaon,21.17281797,79.44501616
713,MOUDA,1.16082719872,NERLA,21.30361,79.34498,1615.0,25.84,Nerla,21.3028496,79.35615545
714,MOUDA,0.266863039121,NIHARWANI,21.16612,79.54277,2459.0,39.344,Niharwani,21.16559069,79.5452802
715,MOUDA,0.175743897572,NIMKHEDA,21.25744,79.41393,1422.0,22.752,Nimkheda,21.25609389,79.4148187
716,MOUDA,1.85078079677,NISATKHEDA,21.25648,79.30983,866.0,13.856,Nisatkheda,21.26011438,79.32725877
717,MOUDA,2.23211652571,AADASA,21.22331,79.55491,500.0,8.0,Panjara,21.20704862,79.5422845
718,MOUDA,1.26282698654,PANMARA,21.10699,79.46801,929.0,14.864,Panmara,21.10024437,79.4778033
719,MOUDA,1.20474718028,PARDIKALA,21.27129,79.42987,648.0,10.368,Pardikala,21.26178135,79.43544307
720,MOUDA,2.08415415575,PAWADDOUDA,21.13261,79.41432,676.0,10.816,Pawaddauna,21.11974354,79.42893157
721,MOUDA,1.25929837774,PIPRI,21.22155,79.47654,1195.0,19.12,Pipari,21.21359664,79.48518871
722,MOUDA,3.2707534902,NANADEVI,21.18302,79.36476,1001.0,16.016,Rahadi,21.16447958,79.38924901
723,MOUDA,1.07115890058,RAJOLI,21.27471,79.45854,1086.0,17.376,Rajoli,21.26576147,79.46236747
724,MOUDA,2.29323238707,REWRAL,21.26447,79.46632,3243.0,51.888,Rewaral,21.24706171,79.47818528
725,MOUDA,2.21279946564,BHANDEWADI,21.32262,79.45282,570.0,9.12,Shivadouli,21.32836321,79.47327391
726,MOUDA,3.01338908087,AADASA,21.22331,79.55491,307.0,4.912,Shiwani,21.21470081,79.52734499
727,MOUDA,1.32778355374,TANDA,21.27712,79.53863,261.0,4.176,Shrikhanda,21.26814461,79.53017816
728,MOUDA,3.75293011105,NARSALA,21.23392,79.33175,370.0,5.92,Sigori,21.20034029,79.32810797
729,MOUDA,2.42976920841,MARODI,21.16063,79.45012,585.0,9.36,Singori,21.14960382,79.47034883
730,MOUDA,1.10163123105,SIRSOLI,21.28548,79.53803,1014.0,16.224,Sirsoli,21.27984686,79.54677637
731,MOUDA,3.49652379856,ZULLAR,21.16331,79.33695,170.0,2.72,Sukali,21.15528826,79.36955265
732,MOUDA,2.1552403002,TONDLI,21.31019,79.53137,571.0,9.136,Sukli,21.29653509,79.54613484
733,MOUDA,1.75263404737,TUMAN,21.28921,79.41065,549.0,8.784,Tarodi,21.29026858,79.42752805
734,MOUDA,0.924132565106,TARSA,21.22495,79.37991,4678.0,74.848,Tarsa,21.22435068,79.38880248
735,MOUDA,0.905003744476,TONDLI,21.31019,79.53137,584.0,9.344,Tondli (Burj),21.30410373,79.53717006
736,MOUDA,0.905003744476,TONDLI,21.31019,79.53137,19.0,0.304,Tondli Rithi,21.30410373,79.53717006
737,MOUDA,1.06066585366,TUMAN,21.28921,79.41065,1245.0,19.92,Tuman,21.28136673,79.41647623
738,MOUDA,5.6671326092,MOHALI,21.13717,79.48959,314.0,5.024,Wadhana,21.09669261,79.45639147
739,MOUDA,2.00376609164,BORIDHIVARI,21.32831,79.50771,520.0,8.32,Wagbodi,21.33277596,79.52645201
740,MOUDA,0.586219984952,DHARMAPURI,21.27234,79.50568,19.0,0.304,Wagholi  (Rithi),21.27554854,79.51016912
741,MOUDA,2.31927331848,WAKESHAWAR,21.293412,79.508098,1237.0,19.792,Wakeshwar,21.28262681,79.52725821
742,MOUDA,4.30036482371,PAWADDOUDA,21.13261,79.41432,663.0,10.608,Wanjra,21.09868638,79.43422749
743,MOUDA,2.37014453368,SIRSOLI,21.28548,79.53803,602.0,9.632,Waygaon,21.29856379,79.55608989
744,MOUDA,3.47919750193,ZULLAR,21.16331,79.33695,812.0,12.992,Zullar,21.13718651,79.35541524
745,NAGPUR,3.54747322896,VIHIRGAON,21.08747,79.16217,383.0,6.128,Adyali,21.05556859,79.16180852
746,NAGPUR,2.16483920097,ALAGONDI,20.8381,78.98373,109.0,1.744,Alagondi,20.81958943,78.99018471
747,NAGPUR,0.692157127901,ASTHA,20.76946,78.97316,868.0,13.888,Ashta,20.76650868,78.96729856
748,NAGPUR,1.3234878938,BORGAON,21.22181,78.97877,44.0,0.704,Ashti,21.21077061,78.98354316
749,NAGPUR,1.75621393947,BAHADURA,21.09864,79.16392,3172.0,50.752,Bahadura,21.08576109,79.17371896
750,NAGPUR,1.4436767948,BAILWADA,21.2628,79.03866,869.0,13.904,Bailwada,21.25028868,79.04238207
751,NAGPUR,1.41448530604,BAJARGAON,21.1393,78.77089,3233.0,51.728,Bajargaon,21.12683471,78.77360955
752,NAGPUR,1.65342002471,BRAMAHNI,20.84058,78.96239,500.0,8.0,Bamhani,20.82821802,78.97123163
753,NAGPUR,5.08082391162,SHIRPUR,21.15719,78.83819,14.0,0.224,Bandhara,21.1609168,78.78935707
754,NAGPUR,5.43516996264,RUI,21.02043,79.07195,714.0,11.424,Banwadi,20.97926759,79.10018591
755,NAGPUR,3.38343491425,BESA,21.08537,79.09385,3599.0,57.584,Beltarodi,21.0549441,79.09422954
756,NAGPUR,2.12151356099,BESA,21.08537,79.09385,4554.0,72.864,Besa,21.06922586,79.10474682
757,NAGPUR,2.36549908703,BHARATWADA,21.23702,79.02161,788.0,12.608,Bhartwada,21.22663984,79.04153131
758,NAGPUR,2.92290750317,BHOKARA,21.22725,79.06741,10341.0,165.456,Bhokara (CT),21.21351279,79.09145129
759,NAGPUR,1.52683561284,SHIRPUR,21.15719,78.83819,213.0,3.408,Bhuyari,21.14404823,78.83392275
760,NAGPUR,5.11699310383,CHICHOLI,21.1949,78.97914,368.0,5.888,Bodhala,21.17553382,79.02391052
761,NAGPUR,2.06211840254,BORKHEDI,20.86096,78.9736,5.0,0.08,Borkhedi,20.8427013,78.97707403
762,NAGPUR,2.25075544287,BORI,20.91223,79.00471,517.0,8.272,Borkhedi (CT),20.91701988,79.0257638
763,NAGPUR,2.98576769393,BOTHALI,20.96733,79.02706,484.0,7.744,Bothali,20.94360162,79.04051902
764,NAGPUR,2.05061146582,BRAMHANWADA,21.25489,79.00933,725.0,11.6,Brahmanwada,21.24121634,79.02260686
765,NAGPUR,1.14845543088,LONARA,21.23886,79.05727,441.0,7.056,Chakkikhapa,21.22862095,79.0558164
766,NAGPUR,3.04472759763,PETHKALDONGRI,21.13587,78.86942,113.0,1.808,Chandrapur,21.11000938,78.87906806
767,NAGPUR,1.96492454279,SONEGAON(LO),20.7933,78.95745,105.0,1.68,Chichkotha,20.794998,78.97626478
768,NAGPUR,2.54273695691,CHICHOLI,21.1949,78.97914,237.0,3.792,Chicholi,21.177359,78.99487419
769,NAGPUR,2.13328885557,CHIKNA,21.02441,79.13655,1131.0,18.096,Chikana,21.00995647,79.15006517
770,NAGPUR,3.50232086092,ALAGONDI,20.8381,78.98373,255.0,4.08,Chimanzari,20.81335153,78.96288526
771,NAGPUR,3.35936732534,KHAPRI,21.050568,79.046314,1123.0,17.968,Dahegaon,21.02170908,79.03673715
772,NAGPUR,1.89961550368,DAHELI,20.78544,78.99808,728.0,11.648,Daheli,20.77065586,79.00723588
773,NAGPUR,3.14741174479,DEVDI(GUJAR),20.92208,79.06003,2130.0,34.08,Deoli (Gujar),20.89568323,79.07096809
774,NAGPUR,2.04098876261,SATNAVRI,21.13164,78.80395,10.0,0.16,Dhaga,21.13913492,78.78598649
775,NAGPUR,3.34858280007,HUDKESHWAR(K),21.05667,79.13198,331.0,5.296,Dhamana,21.0317199,79.1500486
776,NAGPUR,2.25240088738,DHAMNA(LI),21.13695,78.84337,500.0,8.0,Dhamna,21.12511239,78.86099241
777,NAGPUR,1.78654002767,DUDHA,20.844949,78.932077,461.0,7.376,Dhawalpeth,20.85782998,78.94235317
778,NAGPUR,1.89818732996,DURGDHAMNA,21.15921,78.96134,1862.0,29.792,Drugdhamna,21.14536833,78.97205281
779,NAGPUR,1.48001974336,DUDHA,20.844949,78.932077,708.0,11.328,Dudha,20.83598232,78.9426022
780,NAGPUR,2.5683922074,FETRI,21.20555,78.98818,2559.0,40.944,Fetari,21.19104954,79.00746429
781,NAGPUR,2.78887375736,RUI,21.02043,79.07195,928.0,14.848,Gawasi Manapur,20.99552993,79.06872921
782,NAGPUR,3.22010482064,PIMPLA,21.08168,79.11934,558.0,8.928,Ghogali,21.05339526,79.11268183
783,NAGPUR,2.51847778637,GHOGALI,21.26847,79.07078,578.0,9.248,Ghoghali,21.25279517,79.08832286
784,NAGPUR,5.8102429242,KOLAR,20.91084,79.03615,824.0,13.184,Ghoti,20.86714625,79.06682276
785,NAGPUR,3.72956844951,DONGARGAON,20.98663,79.03069,660.0,10.56,Ghuti,20.96271066,79.05587134
786,NAGPUR,1.72243891471,GODHANI,21.22103,79.06156,1181.0,18.896,Godhani (Railway),21.20793613,79.07043805
787,NAGPUR,1.18505458198,BAHADURA,21.09864,79.16392,906.0,14.496,Gonhi,21.08850663,79.16038201
788,NAGPUR,3.71220286301,YERLA,21.20901,78.96355,906.0,14.496,Gonhi,21.19560897,78.99634695
789,NAGPUR,1.19850036181,WELAHARI,21.05006,79.09295,22.0,0.352,Gotal pajri,21.04067978,79.09863837
790,NAGPUR,2.18236051847,GUMTHALA,21.25749,79.04682,564.0,9.024,Gumthala,21.24917174,79.06589376
791,NAGPUR,1.64787246343,HUDKESHWAR(K),21.05667,79.13198,581.0,9.296,Hudkeshwar  kh.,21.04640139,79.1434296
792,NAGPUR,3.24155469985,KINHALMAKADI,20.84958,79.01487,313.0,5.008,Jaipur,20.85340951,79.04579476
793,NAGPUR,3.2533369068,JAMTHA,21.01776,79.03006,1267.0,20.272,Jamtha,20.99168772,79.04428147
794,NAGPUR,1.10340354969,BORKHEDI,20.86096,78.9736,373.0,5.968,Jangeshwar,20.85673204,78.98320701
795,NAGPUR,2.53372903502,ASTHA,20.76946,78.97316,351.0,5.616,Jasapur,20.77504454,78.94953273
796,NAGPUR,1.48250693777,KALMNA,21.05924,79.16369,804.0,12.864,Kalamana,21.04842678,79.17204726
797,NAGPUR,4.23593655368,SALAI(G),21.01478,79.12661,508.0,8.128,Kaldongri,20.9773885,79.11880617
798,NAGPUR,3.68581003195,KALKUHI,21.07135,79.02945,146.0,2.336,Kalkuhi,21.04641684,79.05285537
799,NAGPUR,2.5491661943,HUDKESHWAR(K),21.05667,79.13198,103.0,1.648,Kanhalgaon,21.0341807,79.1272127
800,NAGPUR,3.70675598766,KINHALMAKADI,20.84958,79.01487,103.0,1.648,Kanhalgaon,20.84119099,79.04939254
801,NAGPUR,1.90387335158,KAPSI(KU),21.1414,79.17771,517.0,8.272,Kapsi kh,21.1290537,79.19042851
802,NAGPUR,2.12638713055,MANGLI,20.82608,78.92519,622.0,9.952,Kawtha,20.80772454,78.93092821
803,NAGPUR,3.01206531694,KHADGAON,21.18363,78.95367,1879.0,30.064,Khadgaon,21.16435182,78.97407718
804,NAGPUR,2.9709516869,SHIRPUR,21.15719,78.83819,258.0,4.128,Khairi,21.13549516,78.82146893
805,NAGPUR,2.87846415051,KHAPRI,21.050568,79.046314,135.0,2.16,Khapari,21.02941154,79.06229677
806,NAGPUR,1.34610360781,KINHALMAKADI,20.84958,79.01487,517.0,8.272,Khapari Subhedar,20.85059376,79.0277786
807,NAGPUR,0.81060279921,BAHADURA,21.09864,79.16392,10145.0,162.32,Kharabi,21.10320807,79.15783051
808,NAGPUR,0.81339047294,DAHELI,20.78544,78.99808,1229.0,19.664,Kharda,20.78365288,78.99049291
809,NAGPUR,2.82362564071,KHARSOLI,21.03973,79.11026,2380.0,38.08,Kharsoli,21.01668757,79.12169259
810,NAGPUR,3.741775257,DONGARGAON,20.98663,79.03069,328.0,5.248,Khasarmari,20.9753541,79.06464649
811,NAGPUR,0.597399436028,PANJRI(LO),20.97951,79.061,110.0,1.76,Khatmari,20.9753541,79.06464649
812,NAGPUR,2.82448781904,KINHALMAKADI,20.84958,79.01487,601.0,9.616,Kinhalmakadi,20.82687986,79.02706629
813,NAGPUR,2.35464216262,HUDKESHWAR(K),21.05667,79.13198,243.0,3.888,Kirnapur,21.03558386,79.13406579
814,NAGPUR,3.77795752744,KOLAR,20.91084,79.03615,1198.0,19.168,Kolar,20.88373306,79.05807595
815,NAGPUR,2.50507684452,LAWHA,21.16831,78.97885,6113.0,97.808,Lava,21.15535486,78.99861392
816,NAGPUR,3.44897062452,DHAMNA(LI),21.13695,78.84337,583.0,9.328,Linga,21.11411601,78.86587497
817,NAGPUR,2.18577541821,LONARA,21.23886,79.05727,904.0,14.464,Lonare,21.2327985,79.07733147
818,NAGPUR,1.81170165603,MAHURZARI,21.22481,79.00728,1716.0,27.456,Mahurzari,21.21439871,79.02072418
819,NAGPUR,0.111691013344,MANGLI,20.82608,78.92519,369.0,5.904,Mangli,20.82528828,78.92452863
820,NAGPUR,3.36557507581,BOTHALI,20.96733,79.02706,16.0,0.256,Mohgaon,20.93706386,79.02677094
821,NAGPUR,1.07194948718,SONEGAON(LO),20.7933,78.95745,16.0,0.256,Mohgaon,20.80140991,78.9518748
822,NAGPUR,1.45965094253,MANGRUR,20.95487,79.07772,405.0,6.48,Nawarmari,20.96629936,79.08463405
823,NAGPUR,3.5567921099,CHIKNA,21.02441,79.13655,500.0,8.0,Nawegaon,21.00416773,79.1630819
824,NAGPUR,2.95169654248,CHIKNA,21.02441,79.13655,738.0,11.808,Nimbha,21.02412559,79.1649868
825,NAGPUR,1.2413414804,SATNAVRI,21.13164,78.80395,72.0,1.152,Pachanvari,21.12075946,78.8012718
826,NAGPUR,2.5000084301,PANJRI(BU),21.03558,79.06501,22.0,0.352,Panjari farm,21.01816695,79.08024698
827,NAGPUR,2.80609998744,PANJRI(LO),20.97951,79.061,861.0,13.776,Panjari lodhi,20.95591668,79.07059075
828,NAGPUR,2.65532095486,PANJRI(BU),21.03558,79.06501,468.0,7.488,Parsodi,21.01181758,79.06247575
829,NAGPUR,1.72652310413,PETHKALDONGRI,21.13587,78.86942,1567.0,25.072,Pethkaldongari,21.12150201,78.87573053
830,NAGPUR,4.61909930606,KHARSOLI,21.03973,79.11026,308.0,4.928,Pewatha,20.99833657,79.11400212
831,NAGPUR,3.60402298206,KHARSOLI,21.03973,79.11026,589.0,9.424,Pilkapar,21.01885538,79.13682383
832,NAGPUR,2.60531181349,PIMPLA,21.08168,79.11934,620.0,9.92,Pipla,21.05922856,79.12652118
833,NAGPUR,3.4856598857,GODHANI,21.22103,79.06156,745.0,11.92,Pithesur,21.19955989,79.03705986
834,NAGPUR,1.65782487937,DAHELI,20.78544,78.99808,158.0,2.528,Pohi,20.78668451,79.01397149
835,NAGPUR,2.97885162486,RAMA,20.83631,79.00561,1336.0,21.376,Rama,20.81004301,79.01124293
836,NAGPUR,0.667820186405,BORI,20.91223,79.00471,8976.0,143.616,Rengapar,20.90659933,79.00694675
837,NAGPUR,2.80443848826,RUI,21.02043,79.07195,1011.0,16.176,Rui,21.00020821,79.08809573
838,NAGPUR,2.96624864291,SALAI(G),21.01478,79.12661,500.0,8.0,Salai gadhani,20.99160384,79.14075918
839,NAGPUR,1.83916120858,SATNAVRI,21.13164,78.80395,1678.0,26.848,Satnavari,21.12436675,78.81987554
840,NAGPUR,1.73046904881,SAWANGA,21.11076,78.75382,3235.0,51.76,Sawanga,21.09611492,78.75946271
841,NAGPUR,2.31640171387,WELAHARI,21.05006,79.09295,665.0,10.64,Shankarpur,21.0295681,79.0889339
842,NAGPUR,1.20553268266,SHIVA,21.12003,78.74362,2830.0,45.28,Shiwa,21.11032587,78.74880225
843,NAGPUR,5.69929493695,MANGRUR,20.95487,79.07772,500.0,8.0,Sindivihiri,20.90542476,79.0921734
844,NAGPUR,2.48211277231,SHIRPUR,21.15719,78.83819,364.0,5.824,Sirpur,21.13811955,78.85062936
845,NAGPUR,2.61158916794,SONURLI,20.89642,79.0066,459.0,7.344,Sonurli,20.87377999,79.01328842
846,NAGPUR,4.16542988578,PANJRI(LO),20.97951,79.061,571.0,9.136,Sukli,20.94522292,79.07715899
847,NAGPUR,1.44717889164,SURABARDI,21.14231,78.94941,1866.0,29.856,Surabardi,21.13232969,78.9583659
848,NAGPUR,2.28393850362,DAHELI,20.78544,78.99808,2400.0,38.4,Tamaswadi,20.77012826,78.98343677
849,NAGPUR,2.93172594233,DUDHA,20.844949,78.932077,453.0,7.248,Tarsi,20.849706,78.95982667
850,NAGPUR,3.23330083773,KALKUHI,21.07135,79.02945,563.0,9.008,Telhara,21.04228306,79.03030044
851,NAGPUR,3.63948269484,ALAGONDI,20.8381,78.98373,396.0,6.336,Tembhari,20.80541277,78.98553321
852,NAGPUR,3.81396459644,MANGRUR,20.95487,79.07772,200.0,3.2,Tumdi,20.92057117,79.07799728
853,NAGPUR,1.98619588616,UMARGAON,21.07295,79.17231,570.0,9.12,Umergaon,21.05942012,79.18480731
854,NAGPUR,4.017999775,SONURLI,20.89642,79.0066,188.0,3.008,Vathoda,20.86028555,79.00644503
855,NAGPUR,2.31039089383,VIHIRGAON,21.08747,79.16217,1342.0,21.472,Vihirgaon,21.07049577,79.17501243
856,NAGPUR,3.08935049358,VYAHAD,21.12805,78.87907,1600.0,25.6,Vyahad,21.10270829,78.89127847
857,NAGPUR,4.55346778797,BOTHALI,20.96733,79.02706,1237.0,19.792,Wakeshwar,20.93946056,79.05918831
858,NAGPUR,2.43627453287,WALNI,21.26078,78.97717,9393.0,150.288,Walani,21.25256364,78.99896373
859,NAGPUR,4.32034106755,PANJRI(BU),21.03558,79.06501,1350.0,21.6,Warada,21.01284607,79.09876561
860,NAGPUR,3.1082302712,WARANGA,20.94712,79.0435,887.0,14.192,Waranga,20.92020227,79.05156956
861,NAGPUR,2.82368758109,WELAHARI,21.05006,79.09295,464.0,7.424,Wela harichandra,21.03168798,79.11173308
862,NAGPUR,2.87608008846,YERLA,21.20901,78.96355,619.0,9.904,Yerla,21.19068233,78.98312599
863,NAGPUR,4.02217160651,RUI,21.02043,79.07195,59.0,0.944,Zari,20.98484101,79.07888003
864,Narkhed,0.92987167068,AGRA,21.42695,78.71626,1254.0,20.064,Agra,21.43504058,78.71853243
865,Narkhed,0.46988493428,AMABADA(SAI),21.33576,78.28232,1513.0,24.208,Ambada,21.33841437,78.28585005
866,Narkhed,0.671108455759,AMBALA(DE),21.45446,78.6094,1513.0,24.208,Ambada (Deshmukh),21.45754852,78.61497141
867,Narkhed,5.66835586869,SAWARGAON,21.40013,78.63301,555.0,8.88,Ambola,21.41031047,78.57935948
868,Narkhed,0.241502098511,AARAMBHI,21.26828,78.3492,1010.0,16.16,Arambhi,21.26893687,78.35142147
869,Narkhed,0.607730298313,THATURWADA,21.34891,78.51614,31.0,0.496,Babulkheda,21.34377692,78.51815511
870,Narkhed,0.436556875209,BANORCHANDRA,21.32801,78.33301,411.0,6.576,Banor,21.32604768,78.33666045
871,Narkhed,3.69078073979,BANOR(P),21.47604,78.60771,411.0,6.576,Banor,21.45378087,78.58125307
872,Narkhed,0.905025030077,THADIPAWNI,21.34481,78.30918,532.0,8.512,Baradpavni,21.33851241,78.31471567
873,Narkhed,1.43262578194,BELONA,21.48464,78.48114,5970.0,95.52,Belona,21.49124557,78.493028
874,Narkhed,3.27036101066,MANIKWADA,21.49706,78.49553,196.0,3.136,Bhaiwadi,21.47753154,78.51916468
875,Narkhed,1.04235139488,BHARSINGI,21.36141,78.45364,1026.0,16.416,Bharsingi,21.35670657,78.46234673
876,Narkhed,1.64518880966,BHISHNUR,21.356787,78.508756,3224.0,51.584,Bhidhnur,21.36368944,78.52280805
877,Narkhed,3.54084460007,MADNA,21.39887,78.44266,73.0,1.168,Bopapur,21.39033146,78.4756079
878,Narkhed,4.22567591832,AGRA,21.42695,78.71626,500.0,8.0,Borkhedi(Mal),21.39649613,78.69184271
879,Narkhed,3.12479442244,MALAPUR,21.39774,78.66169,517.0,8.272,Borkhedi (Theke),21.39649613,78.69184271
880,Narkhed,3.15416190495,SHEMDA,21.45293,78.70454,258.0,4.128,Chorkhairi,21.46575616,78.6773548
881,Narkhed,2.04197071988,DATEWADI,21.34923,78.40056,890.0,14.24,Datewadi,21.35004601,78.42025746
882,Narkhed,0.816694639843,DAWSA,21.34484,78.33578,1292.0,20.672,Dawasa,21.34507705,78.34366151
883,Narkhed,1.31036081628,DEWDI,21.43586,78.44709,487.0,7.792,Dewali,21.43700671,78.45969006
884,Narkhed,1.80269227354,MOHANDIDHOTRA,21.42151,78.53331,110.0,1.76,Dhotra,21.41690886,78.55000869
885,Narkhed,0.578007993161,DINDARGAON,21.40778,78.48349,810.0,12.96,Dindargaon,21.40712483,78.48902883
886,Narkhed,0.978131361211,GODHANI(G),21.48861,78.46032,495.0,7.92,Gaimukh,21.49601328,78.46542589
887,Narkhed,1.89413519028,YERLA,21.45898,78.48423,244.0,3.904,Gangaldoh,21.47525615,78.48963022
888,Narkhed,1.06146033224,GHOGRA,21.28459,78.41357,932.0,14.912,Ghogra,21.28295396,78.42366311
889,Narkhed,3.55228790786,MANIKWADA,21.49706,78.49553,341.0,5.456,Gondegaon,21.50339363,78.52918414
890,Narkhed,0.573887641929,GODHANI(G),21.48861,78.46032,296.0,4.736,Gondhani,21.48548711,78.46473598
891,Narkhed,1.13641555219,KHARASI,21.24508,78.41744,365.0,5.84,Gumgaon,21.23509767,78.41979108
892,Narkhed,1.16948566034,HIWARMATH,21.28098,78.36521,801.0,12.816,Hiwara,21.27752537,78.3758707
893,Narkhed,0.852481294731,ROHNA,21.34735,78.48007,553.0,8.848,Indarwada,21.34191452,78.47426522
894,Narkhed,2.73609556602,YERLA,21.45898,78.48423,88.0,1.408,Indora,21.47354457,78.50554117
895,Narkhed,2.4016762912,JALALKHEDA,21.38433,78.41891,3423.0,54.768,Jalalkheda,21.38224132,78.44199681
896,Narkhed,1.32162590335,JAMGAON(B),21.32779,78.43387,832.0,13.312,Jamgaon Bk,21.32199291,78.4450087
897,Narkhed,1.90034262804,JAMGAON(KU),21.33892,78.44248,832.0,13.312,Jamgaon Kh,21.32199291,78.4450087
898,Narkhed,3.15747034298,KHARASI,21.24508,78.41744,152.0,2.432,Jatlapur,21.24770287,78.38710364
899,Narkhed,2.35140933812,JAMGAON(KU),21.33892,78.44248,612.0,9.792,Jolwadi,21.34676991,78.46356155
900,Narkhed,3.56486425627,GHOGRA,21.28459,78.41357,111.0,1.776,Junewani,21.27525344,78.44648409
901,Narkhed,0.685081188967,JUNONA(FUKE),21.41743,78.64433,264.0,4.224,Junona (Fuke),21.41159066,78.64644067
902,Narkhed,3.80196416268,DEWDI,21.43586,78.44709,264.0,4.224,Junona (Gharad),21.43072099,78.48340489
903,Narkhed,0.993948891597,JAMGAON(KU),21.33892,78.44248,392.0,6.272,Karanjoli,21.34785384,78.44279957
904,Narkhed,3.02222290921,JALALKHEDA,21.38433,78.41891,1366.0,21.856,Karimabad,21.37307473,78.44547761
905,Narkhed,1.79205088507,KHAIRGAON,21.44257,78.44892,5058.0,80.928,Khairgaon,21.45444704,78.46062418
906,Narkhed,4.29420082378,SAIWADA(A),21.33327,78.27968,237.0,3.792,Khalangondri,21.30071621,78.30198209
907,Narkhed,0.958530868067,KHANDALA(BU),21.38939,78.56243,1249.0,19.984,Khandala[Bk],21.38584291,78.57086774
908,Narkhed,1.18724389705,KHAPA(GU),21.30531,78.42576,1900.0,30.4,Khapa,21.30106969,78.4362777
909,Narkhed,2.63976396776,SHEMDA,21.45293,78.70454,101.0,1.616,Khapri,21.43485875,78.68799969
910,Narkhed,3.6764458937,KHAPRIKENE,21.32434,78.50597,1575.0,25.2,Khaprikene,21.29136116,78.50343837
911,Narkhed,0.382593251692,KHARADA,21.25361,78.3689,648.0,10.368,Kharala,21.25700686,78.36948776
912,Narkhed,0.764553625524,KHARASI,21.24508,78.41744,219.0,3.504,Kharashi,21.24789887,78.42416876
913,Narkhed,0.616365410963,KHARBADI,21.37734,78.35632,733.0,11.728,Kharbadi,21.37191709,78.35755288
914,Narkhed,2.16315976933,SAIWADA(A),21.33327,78.27968,366.0,5.856,Khargad,21.33347328,78.25879634
915,Narkhed,2.28448382188,KHARSOLI,21.44138,78.49782,2380.0,38.08,Kharsoli,21.44008713,78.5198486
916,Narkhed,0.95758277261,KHEDI(GOGO),21.45866,78.64436,517.0,8.272,Khedi Gowargondi,21.46726061,78.64388951
917,Narkhed,1.49588690807,KHEDIKARYAT,21.43019,78.51526,717.0,11.472,Khedikaryat,21.42686723,78.52926407
918,Narkhed,2.8004125821,KHARBADI,21.37734,78.35632,517.0,8.272,Khedi Kh,21.36390746,78.33344364
919,Narkhed,3.00512778701,VIVRA,21.35629,78.47846,122.0,1.952,Khushalpur,21.35925716,78.50730321
920,Narkhed,2.21379131666,PIPLA(KE),21.39816,78.74232,33.0,0.528,Khutkheri,21.40398217,78.72187127
921,Narkhed,1.32191399783,YENIKONI,21.43965,78.58261,918.0,14.688,Koni,21.42882419,78.58788749
922,Narkhed,1.26620962814,GHOGRA,21.28459,78.41357,555.0,8.88,Lohara,21.27375907,78.40979687
923,Narkhed,3.4786363967,MALAPUR,21.39774,78.66169,2.0,0.032,Lohgad(Mal],21.41812898,78.68717571
924,Narkhed,3.12479442244,MALAPUR,21.39774,78.66169,5.0,0.08,Lohgad (Theke),21.39649613,78.69184271
925,Narkhed,0.662380711363,MADNA,21.39887,78.44266,906.0,14.496,Madna,21.39661095,78.44858003
926,Narkhed,2.56563501792,KHARBADI,21.37734,78.35632,263.0,4.208,Mahajanpur,21.35553153,78.34822946
927,Narkhed,1.56926564739,MAHENDRI,21.37129,78.36561,1029.0,16.464,Mahendri,21.37999002,78.37754298
928,Narkhed,1.27303656023,MAYWADI,21.33743,78.45014,1179.0,18.864,Maiwadi,21.33168815,78.46077342
929,Narkhed,0.824638110207,MALAPUR,21.39774,78.66169,897.0,14.352,Malapur,21.39334822,78.66810823
930,Narkhed,0.627666296,DAWSA,21.34484,78.33578,500.0,8.0,Mamdapur,21.34747493,78.3304203
931,Narkhed,2.91103262417,MANIKWADA,21.49706,78.49553,898.0,14.368,Manikwada,21.51378802,78.51717493
932,Narkhed,0.878000403985,KHEDI(GOGO),21.45866,78.64436,753.0,12.048,Mannath,21.45360556,78.65087803
933,Narkhed,2.03402393983,HIWARMATH,21.28098,78.36521,500.0,8.0,Math,21.29233961,78.38059758
934,Narkhed,0.674217487099,MENDHALA,21.32944,78.37768,2216.0,35.456,Mendhala,21.33213418,78.38351142
935,Narkhed,0.242065755196,MASORA,21.42984,78.62663,1732.0,27.712,Mhasora,21.42766335,78.6265912
936,Narkhed,0.698130254927,MOGRA,21.44099,78.57386,612.0,9.792,Mogra,21.43530385,78.57100009
937,Narkhed,1.00689978394,MOHDIDALVI,21.50069,78.55493,1484.0,23.744,Mohadi (Dalvi),21.50467497,78.56366956
938,Narkhed,1.80269227354,MOHANDIDHOTRA,21.42151,78.53331,1484.0,23.744,Mohadi (Dhotra),21.41690886,78.55000869
939,Narkhed,1.21756588984,MOHAGAON(B),21.39791,78.72735,16.0,0.256,Mohgaon,21.38804928,78.73246307
940,Narkhed,1.21756588984,MOHAGAON(B),21.39791,78.72735,16.0,0.256,Mohgaon (Bhadade),21.38804928,78.73246307
941,Narkhed,0.645154684708,NARSINGI,21.37132,78.45424,245.0,3.92,Naigaon (Thakre),21.37670449,78.45656079
942,Narkhed,4.37825180244,JUNONA(FUKE),21.41743,78.64433,480.0,7.68,Nanda (shinde),21.43584371,78.60694238
943,Narkhed,1.87441057134,PETHISMAILPUR,21.37922,78.40644,330.0,5.28,Nandni,21.37548442,78.38878766
944,Narkhed,3.62798874969,KHARSOLI,21.44138,78.49782,28.0,0.448,Nandori,21.45633036,78.52897835
945,Narkhed,1.03775565162,KHAPRIKENE,21.32434,78.50597,2.0,0.032,Narayanpur,21.32833797,78.51502298
946,Narkhed,1.3043169083,NARSINGI,21.37132,78.45424,1203.0,19.248,Narsingi,21.37185703,78.46682295
947,Narkhed,3.8858784331,DEWDI,21.43586,78.44709,500.0,8.0,Nasirpur,21.44621139,78.48295
948,Narkhed,5.0517230715,MANIKWADA,21.49706,78.49553,500.0,8.0,Nawegaon,21.50354403,78.5438591
949,Narkhed,3.13410580145,JAMGAON(KU),21.33892,78.44248,256.0,4.096,Panwadi,21.32575449,78.46923502
950,Narkhed,3.0052805945,YERLA,21.45898,78.48423,468.0,7.488,Parsodi,21.46050186,78.51322429
951,Narkhed,2.17985681161,PETHISMAILPUR,21.37922,78.40644,1091.0,17.456,Peth Ismailpur (Muktapur),21.36949464,78.42471872
952,Narkhed,1.1521463873,MANIKWADA,21.49706,78.49553,482.0,7.712,Pilapur,21.50709375,78.49830885
953,Narkhed,1.23023576953,WADHONA,21.32145,78.36669,428.0,6.848,Pimpaldhara,21.32545258,78.35561763
954,Narkhed,0.978307132303,PIPLA(KE),21.39816,78.74232,620.0,9.92,Pipla (kewalram),21.3955466,78.75134292
955,Narkhed,1.33922569237,SHEMDA,21.45293,78.70454,517.0,8.272,Pipla (kh),21.45877853,78.69322744
956,Narkhed,0.536512567742,BANOR(P),21.47604,78.60771,947.0,15.152,Pithori,21.47139046,78.60632459
957,Narkhed,2.82066288403,JALALKHEDA,21.38433,78.41891,500.0,8.0,Ramgaon,21.38881449,78.44572364
958,Narkhed,5.32050161673,BANORCHANDRA,21.32801,78.33301,359.0,5.744,Rampuri(Mal),21.28354821,78.31403185
959,Narkhed,2.83727367996,BANORCHANDRA,21.32801,78.33301,500.0,8.0,Rampuri (Rayyatwari),21.30286361,78.33765639
960,Narkhed,1.15253482363,RAMTHI,21.29124,78.35191,1130.0,18.08,Ramthi,21.29728053,78.36095008
961,Narkhed,4.26399236233,JAMGAON(KU),21.33892,78.44248,434.0,6.944,Ranwadi,21.30909556,78.4683553
962,Narkhed,2.29743585109,ROHNA,21.34735,78.48007,2045.0,32.72,Rohana,21.32853247,78.48922968
963,Narkhed,2.36087578757,BHARSINGI,21.36141,78.45364,265.0,4.24,Sahajapur,21.35940553,78.47633608
964,Narkhed,1.78159815869,SAIWADA(A),21.33327,78.27968,557.0,8.912,Saiwada,21.34820266,78.28591526
965,Narkhed,1.68862786508,SAKHARKHEDA,21.34874,78.3453,730.0,11.68,Sakharkheda,21.3464349,78.36141596
966,Narkhed,4.67549256567,MOHDIDALVI,21.50069,78.55493,297.0,4.752,Sardi,21.47446978,78.59025641
967,Narkhed,0.549671156938,LOHARISAWANGA,21.2573,78.39948,3235.0,51.76,Sawanga (Lohari),21.26224101,78.39931816
968,Narkhed,0.199972055305,SHEMDA,21.45293,78.70454,776.0,12.416,Shemda,21.45156962,78.70580381
969,Narkhed,0.813922137463,SINDI,21.43149,78.65757,774.0,12.384,Shindi (Umari),21.42434574,78.65928164
970,Narkhed,0.644483113013,SINGARKHEDA,21.37645,78.54747,1105.0,17.68,Singarkheda,21.37923534,78.55292839
971,Narkhed,1.09809178626,SINJAR,21.35606,78.37492,1218.0,19.488,Sinjar,21.35683895,78.38549045
972,Narkhed,0.713642748294,SAIWADA(A),21.33327,78.27968,207.0,3.312,Tara,21.32948231,78.27411789
973,Narkhed,5.45698578296,DATEWADI,21.34923,78.40056,1.0,0.016,Telegaon,21.30020864,78.40304197
974,Narkhed,0.905025030077,THADIPAWNI,21.34481,78.30918,2204.0,35.264,Thadipavni,21.33851241,78.31471567
975,Narkhed,2.14015411931,THATURWADA,21.34891,78.51614,935.0,14.96,Thaturwada,21.3402684,78.53460431
976,Narkhed,1.26796264353,THUGAONDEV,21.41106,78.45317,2130.0,34.08,Thugaon (Deo),21.40908021,78.46523228
977,Narkhed,0.938529987303,THUGAONNIPANI,21.42301,78.48964,2130.0,34.08,Thugaon (Nipani),21.42361467,78.49868356
978,Narkhed,2.71191203756,KINKHEDA,21.40426,78.49139,1748.0,27.968,Tinkheda,21.39943429,78.51706722
979,Narkhed,1.85273491977,MOGRA,21.44099,78.57386,507.0,8.112,Toyapar,21.42723501,78.56375792
980,Narkhed,2.83727367996,BANORCHANDRA,21.32801,78.33301,201.0,3.216,Udapur (Rayyatwari),21.30286361,78.33765639
981,Narkhed,0.545958290536,UMRI,21.43623,78.66362,774.0,12.384,Umari,21.44102702,78.66249532
982,Narkhed,1.95367189881,UMTHA,21.34065,78.40771,812.0,12.992,Umatha,21.32693408,78.41949826
983,Narkhed,0.713642748294,SAIWADA(A),21.33327,78.27968,219.0,3.504,Utara,21.32948231,78.27411789
984,Narkhed,0.932362750118,WADHONA,21.32145,78.36669,948.0,15.168,Wadhona,21.31946762,78.37543578
985,Narkhed,0.876757465053,WADWIHIRA,21.34746,78.39859,1025.0,16.4,Wadvihara,21.34088769,78.40326692
986,Narkhed,2.01308645863,THATURWADA,21.34891,78.51614,12.0,0.192,Warjali,21.33265538,78.52469844
987,Narkhed,1.66014510483,VIVRA,21.35629,78.47846,635.0,10.16,Wiwara,21.35667527,78.4944855
988,Narkhed,0.355957317587,YENIKONI,21.43965,78.58261,415.0,6.64,Yeni,21.44221158,78.58467264
989,Narkhed,1.1835750289,YERLA,21.45898,78.48423,619.0,9.904,Yerla,21.45385335,78.49425282
990,Parseoni,2.39542393379,AAMDI,21.37231,79.25025,824.0,13.184,Aamdi,21.357805,79.2673529
991,Parseoni,4.33849238617,SUWARDARA,21.48018,79.12605,410.0,6.56,Ambazari,21.51518289,79.1075239
992,Parseoni,3.06405957703,AAMGAON,21.41838,79.15523,491.0,7.856,Amgaon,21.40946383,79.18323677
993,Parseoni,1.04053059753,CHARGAON,21.46573,79.13891,548.0,8.768,Aoleghat,21.4564177,79.13792057
994,Parseoni,3.44475742369,AAMGAON,21.41838,79.15523,898.0,14.368,Baburwada,21.39405535,79.17583577
995,Parseoni,4.49228072905,CHARGAON,21.46573,79.13891,1444.0,23.104,Bachhera,21.45222391,79.17982158
996,Parseoni,3.37344839139,BAKHARI,21.32494,79.18775,792.0,12.672,Bakhari,21.30783568,79.21464694
997,Parseoni,4.34023062375,DHAWLAPUR,21.54972,79.11473,392.0,6.272,Banera,21.53026243,79.15110766
998,Parseoni,2.08768041415,BANPURI,21.32339,79.28931,1683.0,26.928,Banpuri,21.31015292,79.30360243
999,Parseoni,0.827411422245,PARSIONI,21.3717,79.15124,870.0,13.92,Bansingi,21.36749523,79.15783243
1000,Parseoni,2.10156306144,BANPURI,21.32339,79.28931,591.0,9.456,Beldongari,21.33538231,79.30499192
1001,Parseoni,2.10650849894,BHAGIMAHARI,21.41155,79.13202,983.0,15.728,Bhagimahari,21.40247515,79.14988153
1002,Parseoni,5.30132641342,CHARGAON,21.46573,79.13891,37.0,0.592,Bhivagad,21.47249585,79.18962211
1003,Parseoni,1.4082523816,BITOLI,21.43614,79.16699,292.0,4.672,Bhulewadi,21.4347633,79.18051521
1004,Parseoni,2.72429981828,BITOLI,21.43614,79.16699,501.0,8.016,Bitoli,21.42779907,79.19173797
1005,Parseoni,2.84301698168,BORDA,21.27735,79.25914,1252.0,20.032,Borada (G),21.26076142,79.28001803
1006,Parseoni,5.04004296259,NAVEGAON(K),21.45949,79.17426,500.0,8.0,Borban,21.49388547,79.20598234
1007,Parseoni,0.541405563923,KHEDI,21.26327,79.29154,506.0,8.096,Bori (Rani),21.25980013,79.29520516
1008,Parseoni,2.58671944606,BORI(SINGAR),21.20634,79.304,506.0,8.096,Bori  (singori),21.20034029,79.32810797
1009,Parseoni,5.03456971996,WARADA,21.28045,79.21871,829.0,13.264,Champa (Ri),21.27658949,79.2671225
1010,Parseoni,3.05649150273,CHARGAON,21.46573,79.13891,694.0,11.104,Chargaon,21.46042182,79.16788994
1011,Parseoni,3.07296005751,SAWLI,21.41446,79.07248,237.0,3.792,Chicholi,21.3868243,79.07240269
1012,Parseoni,1.19296811266,DHAWLAPUR,21.54972,79.11473,1687.0,26.992,Dhawalapur,21.54849505,79.12618944
1013,Parseoni,3.87647727089,ITGAON,21.33546,79.12101,500.0,8.0,Digalwadi,21.33992066,79.15812994
1014,Parseoni,2.05387337056,DORLI,21.28054,79.16364,901.0,14.416,Dorli,21.27137464,79.1808495
1015,Parseoni,1.57462030804,DUMRI(KALA),21.33828,79.24614,774.0,12.384,Dumari Kala,21.3282657,79.25688874
1016,Parseoni,1.23980654759,KERDI,21.30671,79.24676,517.0,8.272,Dumari Kh.,21.31637776,79.24079769
1017,Parseoni,5.29701520167,AAMGAON,21.41838,79.15523,500.0,8.0,Dundakhairi,21.38139924,79.18748235
1018,Parseoni,3.59819300698,GAWNA,21.32384,79.17848,490.0,7.84,Garanda,21.29815633,79.19960917
1019,Parseoni,4.22979911803,SUWARDARA,21.48018,79.12605,19.0,0.304,Gargoti,21.51737485,79.1174823
1020,Parseoni,1.81777586154,GAWNA,21.32384,79.17848,345.0,5.52,Gawana,21.31478967,79.19309391
1021,Parseoni,3.99122530272,NAVEGAON(K),21.45949,79.17426,517.0,8.272,Ghat Khairi,21.449355,79.21125694
1022,Parseoni,3.4219350164,GHATROHNA,21.27298,79.17624,2045.0,32.72,Ghat Rohana,21.26383566,79.20777181
1023,Parseoni,5.24131429599,UMRIPALI,21.43147,79.18161,966.0,15.456,Ghukashi,21.41162449,79.22753768
