,Block Name,Distance,GP Name,GP_lat,GP_long,TOT_P,Throughput,Village Name,Village_lat,Village_long
0,BABHULGAON,0.800960365107,ALEGAON,20.54275,78.026383,1074.0,17.184,Alegaon,20.54437853,78.03387623
1,BABHULGAON,0.619589493903,KHOTA,20.665333,78.0943,500.0,8.0,Alipur,20.65986242,78.0931684
2,BABHULGAON,1.99222651606,VENI,20.532767,78.256683,500.0,8.0,Amravati,20.54500652,78.27065535
3,BABHULGAON,0.381189414565,CHIMNAPUR,20.517683,78.1292,22.0,0.352,Anjangaon,20.52110011,78.12949311
4,BABHULGAON,1.24493278726,GIMONA,20.5511,78.143617,624.0,9.984,Antargaon,20.54033225,78.14034195
5,BABHULGAON,1.51060541701,ASEGAONDIVI,20.521767,78.024533,2190.0,35.04,Asegaondevi,20.51913906,78.03876464
6,BABHULGAON,0.736216524042,ASHTRAMPUR,20.66885,78.265783,470.0,7.52,Ashtarampur,20.67313729,78.26039043
7,BABHULGAON,1.05173913364,CHIMNAPUR,20.517683,78.1292,365.0,5.84,Bagapur,20.51201142,78.13728201
8,BABHULGAON,2.00480826523,MAHAMADAPUR,20.655917,78.161667,93.0,1.488,Bagwadi,20.6513403,78.14303008
9,BABHULGAON,2.67922424698,BORGAON,20.520533,78.07865,235.0,3.76,Bhiluksa,20.50909639,78.1012937
10,BABHULGAON,2.39042265938,BORGAON,20.520533,78.07865,190.0,3.04,Chendkapur,20.5382719,78.09161758
11,BABHULGAON,1.70406006357,CHIMNAPUR,20.517683,78.1292,478.0,7.648,Chimnapur,20.52765294,78.14162724
12,BABHULGAON,1.15573402526,CHONDHI,20.496017,78.131817,491.0,7.856,Chondhi,20.49658178,78.14289682
13,BABHULGAON,1.29442495343,DHABA,20.59735,78.01985,3401.0,54.416,Dabha,20.60811648,78.0151207
14,BABHULGAON,0.970592107121,DEHANI,20.570467,78.0314,1168.0,18.688,Dehani,20.56693805,78.03992717
15,BABHULGAON,1.94385347198,NAYAGAON,20.537483,78.209617,444.0,7.104,Deogaon,20.53149789,78.19207755
16,BABHULGAON,0.268415735763,FALEGAON,20.631317,78.127317,2177.0,34.832,Falegaon,20.63365662,78.12668197
17,BABHULGAON,3.33742566664,KHOTA,20.665333,78.0943,500.0,8.0,Fattepur (Resettle),20.63967522,78.0776571
18,BABHULGAON,1.67407492715,GAWHALA,20.4994,78.1094,2110.0,33.76,Galwha,20.49065037,78.12247971
19,BABHULGAON,4.10187537051,MAHULI,20.561583,78.059317,384.0,6.144,Galwhi,20.5828666,78.02713485
20,BABHULGAON,0.976369061614,GANORI,20.530867,78.166167,2072.0,33.152,Ganori,20.53812348,78.17144656
21,BABHULGAON,0.660693953768,GAWANDI,20.608167,78.1814,1295.0,20.72,Gawandi,20.6042935,78.18621358
22,BABHULGAON,0.864496140629,GHARPHAL,20.6571,78.208167,2238.0,35.808,Gharfal,20.65831895,78.19996094
23,BABHULGAON,0.622836271011,GIMONA,20.5511,78.143617,707.0,11.312,Gimona,20.55523561,78.14765155
24,BABHULGAON,0.977011269432,GONDHALI,20.604467,78.23185,1014.0,16.224,Gondhali,20.60872912,78.22364128
25,BABHULGAON,2.43421268863,MITNAPUR,20.545383,78.190117,297.0,4.752,Hastapur,20.56458875,78.20133716
26,BABHULGAON,1.75825292254,MUBARAKPUR,20.59165,78.247317,1.0,0.016,Hatgaon,20.60729724,78.24488224
27,BABHULGAON,2.56421537614,KARALGAON,20.481783,78.129883,1147.0,18.352,Karalgaon,20.46425161,78.14587435
28,BABHULGAON,2.6414795222,KHADAKSAWANGA,20.6009,78.151,305.0,4.88,Khadak Sawanga,20.58602739,78.13121192
29,BABHULGAON,0.533221191418,KHARADA,20.620933,78.169517,1805.0,28.88,Kharda,20.61876803,78.16494528
30,BABHULGAON,2.52321944177,GONDHALI,20.604467,78.23185,449.0,7.184,Kinhi,20.60549455,78.20763218
31,BABHULGAON,0.350967171938,KOLHI,20.6233,78.096567,916.0,14.656,Kolhi,20.62415324,78.09981389
32,BABHULGAON,0.443460173803,KHONDA,20.549017,78.219667,1119.0,17.904,Kondha,20.54964749,78.22387258
33,BABHULGAON,1.75971509585,NANDURA BK,20.579867,78.1548,353.0,5.648,Kopara 2,20.57131986,78.1405736
34,BABHULGAON,5.08509369492,KHOTA,20.665333,78.0943,1358.0,21.728,Kopra (Ja),20.63065164,78.06244507
35,BABHULGAON,0.844878053219,KAOTAMBA,20.507183,78.20315,1620.0,25.92,Kotamba,20.50525281,78.21099609
36,BABHULGAON,3.04920285529,KHOTA,20.665333,78.0943,500.0,8.0,Kotha (F),20.65058245,78.06959453
37,BABHULGAON,4.25695183946,PANCHGWHAN,20.491367,78.164317,474.0,7.584,Krishnapur,20.50049749,78.20400855
38,BABHULGAON,0.230847931868,LONI,20.520133,78.251767,756.0,12.096,Loni,20.51876562,78.25343498
39,BABHULGAON,1.14220409107,MADHNI,20.48125,78.200067,1983.0,31.728,Madani,20.48032216,78.21098738
40,BABHULGAON,1.08049749571,MAHAMADAPUR,20.655917,78.161667,435.0,6.96,Mahamadpur,20.66033779,78.17091492
41,BABHULGAON,1.06510613937,MAHULI,20.561583,78.059317,502.0,8.032,Mahuli,20.56315241,78.06940926
42,BABHULGAON,0.943828409782,TAKLGAON,20.55975,78.122917,560.0,8.96,Mangarul,20.55581193,78.13094762
43,BABHULGAON,3.49010132497,MANKAPUR,20.528533,78.18725,104.0,1.664,Maralpur,20.51289785,78.21630979
44,BABHULGAON,1.03432190762,MITNAPUR,20.545383,78.190117,387.0,6.192,Mitanapur,20.55467696,78.19052686
45,BABHULGAON,1.76759730981,THALEGAON,20.631317,78.127317,387.0,6.192,Mitanapur,20.6163991,78.13318402
46,BABHULGAON,1.76759730981,THALEGAON,20.631317,78.127317,551.0,8.816,Mitanapur (Resettle),20.6163991,78.13318402
47,BABHULGAON,0.523531093658,MUBARAKPUR,20.59165,78.247317,466.0,7.456,Mubarakpur,20.59542654,78.25032054
48,BABHULGAON,1.59618753601,SAWANGI MANG,20.572533,78.176967,32.0,0.512,Muradabad,20.58356109,78.18678259
49,BABHULGAON,0.652167952796,WATKHED KD,20.56905,78.2284,523.0,8.368,Mustabad,20.56446108,78.22449881
50,BABHULGAON,1.49265179481,NANDESAWANGI,20.56215,78.25525,657.0,10.512,Nade Sawangi,20.56345734,78.26951904
51,BABHULGAON,2.27709447319,NAGARGAON,20.55,78.0748,513.0,8.208,Nagargaon,20.56874586,78.08360441
52,BABHULGAON,0.394704517347,NAYAGAON,20.537483,78.209617,1692.0,27.072,Naigaon,20.53450958,78.21168735
53,BABHULGAON,0.364106663393,NANDURA BK,20.579867,78.1548,1119.0,17.904,Nandura Bk.,20.57659545,78.15465182
54,BABHULGAON,1.0205783588,NANDURA KH,20.503833,78.246717,1119.0,17.904,Nandura Kh,20.49956213,78.25539043
55,BABHULGAON,1.33225976474,PACHKHED,20.656083,78.249783,1065.0,17.04,Pachkhed,20.64612065,78.24266989
56,BABHULGAON,1.99191825642,PAHUR,20.59825,78.040217,2448.0,39.168,Pahur,20.60211335,78.05890408
57,BABHULGAON,1.77659493465,NANDURA BK,20.579867,78.1548,443.0,7.088,Paloti,20.58982746,78.16814455
58,BABHULGAON,1.13742703087,TAKLGAON,20.55975,78.122917,213.0,3.408,Panas,20.56345771,78.11273483
59,BABHULGAON,1.38999080674,PANCHGWHAN,20.491367,78.164317,805.0,12.88,Panchgavhan,20.49363425,78.17744065
60,BABHULGAON,0.101532017612,PARSODI,20.6478,78.18145,619.0,9.904,Parsodi,20.64814488,78.1823535
61,BABHULGAON,1.5175415481,PIMPALKHUTA,20.658817,78.051667,1105.0,17.68,Pimpalkhuta,20.64767756,78.04324071
62,BABHULGAON,5.66367259521,KHOTA,20.665333,78.0943,551.0,8.816,Pimpalkhuta (Resettle),20.64767756,78.04324071
63,BABHULGAON,1.24528869907,PIMPRI (I),20.511733,78.224867,1269.0,20.304,Pimpri (Ijara),20.51887497,78.23407745
64,BABHULGAON,4.55249932225,THALEGAON,20.631317,78.127317,266.0,4.256,Pratappur,20.59580157,78.14907861
65,BABHULGAON,0.747809602128,RANIAMRAVATI,20.538483,78.102017,500.0,8.0,Rani Amravati,20.54130267,78.10853706
66,BABHULGAON,1.22605658892,WARUD,20.675433,78.230217,309.0,4.944,Renakapur,20.6824435,78.22112037
67,BABHULGAON,0.448780547293,SARFALI,20.623917,78.19465,765.0,12.24,Sarfali,20.62792585,78.19514918
68,BABHULGAON,1.41702208855,SARUL,20.6467,78.147567,1378.0,22.048,Sarul,20.63637918,78.15555507
69,BABHULGAON,2.50063082003,ASHTRAMPUR,20.66885,78.265783,617.0,9.872,Saujana,20.69112094,78.26912011
70,BABHULGAON,4.99382998858,SAWANGI MANG,20.572533,78.176967,657.0,10.512,Sawangi Mang,20.58602739,78.13121192
71,BABHULGAON,3.89478013789,MUBARAKPUR,20.59165,78.247317,657.0,10.512,Sawangi Raut,20.56345734,78.26951904
72,BABHULGAON,2.91445129266,SAWAR,20.497583,78.06875,3502.0,56.032,Sawar,20.48662422,78.09416776
73,BABHULGAON,0.774468765855,SINDHI,20.668683,78.227383,475.0,7.6,Shindi,20.66514684,78.22096977
74,BABHULGAON,1.88793518958,SUKALI,20.483883,78.154083,1097.0,17.552,Sukali,20.47739218,78.17083053
75,BABHULGAON,1.13304153661,TAKLGAON,20.55975,78.122917,627.0,10.032,Takalgaon,20.56992426,78.12231835
76,BABHULGAON,1.20956286548,TAMBHA,20.556017,78.285183,654.0,10.464,Tambha,20.54682436,78.29139406
77,BABHULGAON,1.00097611261,SUKALI,20.483883,78.154083,461.0,7.376,Taroda,20.47641733,78.15945225
78,BABHULGAON,3.01288621299,THALEGAON,20.631317,78.127317,126.0,2.016,Thalegaon,20.60441527,78.12386065
79,BABHULGAON,0.667576803627,VENI,20.532767,78.256683,12.0,0.192,Tukapur,20.52753515,78.25353851
80,BABHULGAON,3.47391595377,UMARI,20.5109,78.142717,325.0,5.2,Umarda,20.50909685,78.17601748
81,BABHULGAON,1.28247034535,UMARI,20.5109,78.142717,708.0,11.328,Umari,20.51191867,78.1549831
82,BABHULGAON,1.7666912641,RANIAMRAVATI,20.538483,78.102017,261.0,4.176,Vaijapur,20.55380281,78.10651494
83,BABHULGAON,1.01300626933,VENI,20.532767,78.256683,1982.0,31.712,Veni,20.54158423,78.25913024
84,BABHULGAON,0.72320958582,VIRKHED,20.58525,78.199733,1091.0,17.456,Virkhed,20.57965723,78.20327942
85,BABHULGAON,1.60163465242,KHONDA,20.549017,78.219667,500.0,8.0,Waghapur,20.53618197,78.22664794
86,BABHULGAON,3.88886281706,SUKALI,20.483883,78.154083,1269.0,20.304,Wai,20.46727684,78.18693817
87,BABHULGAON,0.438625462409,WARUD,20.675433,78.230217,520.0,8.32,Walidadpur,20.67878696,78.23243631
88,BABHULGAON,1.52953526537,WARUD,20.675433,78.230217,341.0,5.456,Warud,20.67807923,78.24464484
89,BABHULGAON,0.786293258889,WATKHED BK,20.5807,78.22085,1287.0,20.592,Watkhed Bk.,20.58539439,78.2264989
90,BABHULGAON,1.40741290162,WATKHED KD,20.56905,78.2284,1287.0,20.592,Watkhed Kh,20.56526467,78.24130012
91,BABHULGAON,0.870360910262,YAWALI,20.539583,78.0608,893.0,14.288,Yawali,20.53977978,78.06915607
92,BABHULGAON,0.877255510587,YERANGAON,20.633433,78.229767,936.0,14.976,Yerangaon,20.63290472,78.22135583
93,BABHULGAON,3.2209846385,PANCHGWHAN,20.491367,78.164317,174.0,2.784,Zapatkhed,20.49820792,78.19436666
94,BABHULGAON,4.09783391577,SUKALI,20.483883,78.154083,46.0,0.736,Zola,20.45374041,78.17671439
95,Kalamb,0.709215090553,ALODA,20.51965,78.3361,264.0,4.224,Aloda,20.51499082,78.34075076
96,Kalamb,2.26372216439,PATHRAD,20.457633,78.400633,456.0,7.296,Amala,20.44591807,78.41840285
97,Kalamb,1.89541874968,MHASOLA,20.433553,78.375986,281.0,4.496,Andhbori,20.43029534,78.39384103
98,Kalamb,1.51014751401,ANTARGAON,20.276517,78.43375,624.0,9.984,Antargaon,20.2880194,78.44144816
99,Kalamb,1.30872050571,ASHTI,20.48727,78.2654,1719.0,27.504,Ashti,20.49076323,78.27739828
100,Kalamb,1.19578731422,HUSNAPUR,20.547517,78.31695,319.0,5.104,Barhanpur,20.54531706,78.30570835
101,Kalamb,1.07994140316,CHAPARDA,20.42035,78.269917,281.0,4.496,Belona,20.41190278,78.26480303
102,Kalamb,1.67697511295,BELORI,20.290867,78.3743,564.0,9.024,Belori,20.30331123,78.38338402
103,Kalamb,1.62176987267,NARSAPUR,20.4596,78.28745,400.0,6.4,Bhavanpur,20.47351197,78.29212423
104,Kalamb,0.409133603823,BORIMAHAL,20.4381,78.360817,1117.0,17.872,Borimahal,20.43481782,78.36259167
105,Kalamb,1.85380696071,UMARI,20.452083,78.45085,433.0,6.928,Borjai,20.44934783,78.46840204
106,Kalamb,1.21614609233,CHAPARDA,20.42035,78.269917,823.0,13.168,Chaparda,20.42280252,78.28129035
107,Kalamb,0.976395533969,UMARI,20.452083,78.45085,287.0,4.592,Dahegaon,20.46029132,78.45417895
108,Kalamb,1.1947728027,DATTAPUR,20.3949,78.317067,506.0,8.096,Dattapur,20.40047489,78.32686694
109,Kalamb,1.86383887388,DEVNALA,20.337067,78.32025,1087.0,17.392,Deonala,20.34480293,78.33610895
110,Kalamb,2.99052285341,NARSAPUR,20.4596,78.28745,156.0,2.496,Dhanodi,20.47473861,78.3111769
111,Kalamb,1.32172700485,DHOTRA,20.431133,78.435683,1071.0,17.136,Dhotra,20.41929844,78.43686833
112,Kalamb,2.72056639913,DONGARKHARDA,20.300167,78.448183,4363.0,69.808,Dongarkharda,20.3221813,78.45956734
113,Kalamb,1.0468629127,DONODA,20.5057,78.331083,1108.0,17.728,Donoda,20.50151371,78.34008607
114,Kalamb,4.84675237539,DATTAPUR,20.3949,78.317067,393.0,6.288,Drug,20.39001536,78.36327637
115,Kalamb,4.03936276375,NILAJ,20.484033,78.338583,500.0,8.0,Eklaspur,20.5188192,78.34975793
116,Kalamb,3.23679460311,SATEFAL,20.5258,78.360017,383.0,6.128,Ganamgaon,20.50718165,78.3839088
117,Kalamb,3.82261264105,KHAIRY,20.377583,78.267417,226.0,3.616,Gandha,20.38114473,78.30389268
118,Kalamb,1.66770286386,BELORI,20.290867,78.3743,876.0,14.016,Gandhinagar,20.28431888,78.38868547
119,Kalamb,1.33339279478,GANESHWADI,20.328933,78.362667,803.0,12.848,Ganeshwadi,20.33479045,78.3738258
120,Kalamb,0.420249437624,GANGAPUR,20.493233,78.4318,207.0,3.312,Gangapur,20.49003305,78.42965315
121,Kalamb,3.39766586512,CHAPARDA,20.42035,78.269917,714.0,11.424,Ghoti,20.41613565,78.30220985
122,Kalamb,5.20779147171,KHAIRY,20.377583,78.267417,439.0,7.024,Hiradi,20.37992184,78.31731651
123,Kalamb,1.77491420516,SATEFAL,20.5258,78.360017,1.0,0.016,Hirapur,20.51418865,78.37171204
124,Kalamb,1.19817531135,HIEWARA (DAR),20.54375,78.326233,776.0,12.416,Hiwara,20.55382977,78.32216517
125,Kalamb,4.79998813648,SHELI,20.321,78.266333,139.0,2.224,Hiwari,20.34729211,78.30284493
126,Kalamb,0.455650604518,HUSNAPUR,20.547517,78.31695,470.0,7.52,Husnapur,20.54346985,78.31763568
127,Kalamb,2.52296657536,NARSAPUR,20.4596,78.28745,586.0,9.376,Ichora,20.48035407,78.29723788
128,Kalamb,1.92602085531,JODMOHA,20.315583,78.2975,3413.0,54.608,Jodmoha,20.3199859,78.31536364
129,Kalamb,1.0468224314,RASA,20.420433,78.34635,17.0,0.272,Jondhalni,20.41882296,78.33645246
130,Kalamb,1.45720149423,PAHUR (I),20.234767,78.401417,341.0,5.456,Kailaspuri,20.22718786,78.41281085
131,Kalamb,1.42533532584,ALODA,20.51965,78.3361,272.0,4.352,Kalaspur,20.5188192,78.34975793
132,Kalamb,0.332319982672,KAMATWADA,20.479583,78.35315,940.0,15.04,Kamathwada,20.48078775,78.35606958
133,Kalamb,3.31561798443,RASA,20.420433,78.34635,658.0,10.528,Kanholi,20.41770376,78.37803372
134,Kalamb,1.52962198036,RASA,20.420433,78.34635,77.0,1.232,Karak,20.4212101,78.36100526
135,Kalamb,0.377828304808,KATRI,20.452733,78.3835,1375.0,22.0,Katri,20.44971288,78.38516184
136,Kalamb,2.03838071387,POTGAVHAN,20.368367,78.412467,245.0,3.92,Khadki,20.3804705,78.39778035
137,Kalamb,1.83703069001,KHAIRY,20.377583,78.267417,523.0,8.368,Khairi,20.3870684,78.2818469
138,Kalamb,1.87451368795,JODMOHA,20.315583,78.2975,675.0,10.8,Khateshwar,20.33172061,78.30269874
139,Kalamb,2.83671048872,MUSAL,20.318,78.4163,2319.0,37.104,Khorad Bk.,20.34351084,78.41643419
140,Kalamb,3.06136552805,SHELI,20.321,78.266333,932.0,14.912,Khorad Kh,20.31157375,78.29391652
141,Kalamb,0.522480893798,ALODA,20.51965,78.3361,166.0,2.656,Khudawantpur,20.51679293,78.33211694
142,Kalamb,2.67827969456,NILAJ,20.484033,78.338583,230.0,3.68,Khutala,20.49247974,78.3626629
143,Kalamb,2.47441350985,KINHALA,20.237967,78.440267,1232.0,19.712,Kinhala,20.25024029,78.46005146
144,Kalamb,3.38612725688,ZADKHINI,20.283683,78.472167,906.0,14.496,Kinwat,20.27143315,78.50188868
145,Kalamb,2.03566361336,UMARI,20.452083,78.45085,500.0,8.0,Kodori,20.46658241,78.43892078
146,Kalamb,3.42840090611,KOLEZARI,20.193533,78.421117,385.0,6.16,Kolezari,20.21874577,78.44002767
147,Kalamb,1.03144985301,KOTHA,20.523217,78.274333,438.0,7.008,Kotha,20.52663451,78.28354109
148,Kalamb,2.18031335254,RUDA,20.316967,78.397617,310.0,4.96,Kusal,20.31993334,78.4182854
149,Kalamb,3.69084571519,MAWALNI,20.482633,78.374517,142.0,2.272,Mahitapur,20.50596145,78.39972454
150,Kalamb,2.02666263261,NIBHORA,20.478083,78.412667,509.0,8.144,Manjarwaghal,20.46657801,78.39757786
151,Kalamb,4.31215369964,PALOTI,20.25795,78.435633,142.0,2.272,Maregaon,20.26046196,78.47688363
152,Kalamb,5.50901349849,KOLEZARI,20.193533,78.421117,447.0,7.152,Markanda,20.23295916,78.45308872
153,Kalamb,1.1182270534,MATEGAON,20.4942,78.444317,678.0,10.848,Mategaon,20.48463845,78.44764338
154,Kalamb,0.824213539769,MAWALNI,20.482633,78.374517,793.0,12.688,Mawalni,20.47532604,78.3758464
155,Kalamb,1.56194791815,MENDHLA,20.465033,78.234517,1749.0,27.984,Mendhala,20.45702668,78.2468361
156,Kalamb,1.89787262992,METIKHEDA,20.249083,78.421,1753.0,28.048,Metikheda,20.26532413,78.42659401
157,Kalamb,0.324185484419,MHASOLA,20.433553,78.375986,137.0,2.192,Mhasola,20.43386624,78.37907923
158,Kalamb,2.27260619998,SHARAD,20.353233,78.26035,264.0,4.224,Mohdari,20.36996396,78.27287068
159,Kalamb,0.298456658818,MUSAL,20.318,78.4163,536.0,8.576,Musal,20.31993334,78.4182854
160,Kalamb,2.39891292213,NANZA,20.34315,78.36785,2607.0,41.712,Nanza,20.36095346,78.38084621
161,Kalamb,1.12903024827,NARSAPUR,20.4596,78.28745,750.0,12.0,Narsapur,20.45376408,78.29631816
162,Kalamb,0.276202413312,NILAJ,20.484033,78.338583,330.0,5.28,Nilaj,20.48236866,78.34055135
163,Kalamb,1.82238531842,NIBHORA,20.478083,78.412667,618.0,9.888,Nimbhora,20.46222088,78.41706748
164,Kalamb,5.44519610341,MUSAL,20.318,78.4163,418.0,6.688,Nimgavhan,20.35030609,78.45554746
165,Kalamb,2.85884000847,PAHUR (I),20.234767,78.401417,1012.0,16.192,Pahur (E),20.2441811,78.42691606
166,Kalamb,2.52797697057,PALOTI,20.25795,78.435633,443.0,7.088,Paloti,20.26960022,78.45644373
167,Kalamb,1.9525130405,KOLEZARI,20.193533,78.421117,202.0,3.232,Pangadi,20.2110028,78.42300445
168,Kalamb,0.68755292224,PATHRAD,20.457633,78.400633,1861.0,29.776,Pathrad,20.45177255,78.39852838
169,Kalamb,3.19270811848,SHIVNI (KD),20.363883,78.3194,349.0,5.584,Pidha,20.35412928,78.34820467
170,Kalamb,1.98520579746,METIKHEDA,20.249083,78.421,165.0,2.64,Pilkhana,20.25055096,78.43996512
171,Kalamb,3.31821947817,CHINCHOLI,20.526283,78.47445,282.0,4.512,Pimpalkhuti,20.51217768,78.50252887
172,Kalamb,3.71335005715,SHIVNI (KD),20.363883,78.3194,282.0,4.512,Pimpalkhuti,20.37317548,78.35361543
173,Kalamb,3.07619515883,PIMPALSHENDA,20.31165,78.466317,1222.0,19.552,Pimpalshenda,20.32037723,78.4943107
174,Kalamb,4.34481720033,SHARAD,20.353233,78.26035,353.0,5.648,Pophalani,20.37733943,78.29315173
175,Kalamb,1.17686925793,POTGAVHAN,20.368367,78.412467,1200.0,19.2,Potgavhan,20.36743673,78.42371301
176,Kalamb,1.5463676215,PRADHANBORI,20.289183,78.40395,374.0,5.984,Pradhanbori,20.30077438,78.4121423
177,Kalamb,0.11413973256,RAJUR,20.404633,78.4038,676.0,10.816,Rajur,20.40410895,78.40474172
178,Kalamb,0.320102247666,RASA,20.420433,78.34635,590.0,9.44,Rasa,20.42201285,78.34891789
179,Kalamb,0.721438475154,RUDA,20.316967,78.397617,537.0,8.592,Rudha,20.32008199,78.403686
180,Kalamb,5.46615730118,DATTAPUR,20.3949,78.317067,598.0,9.568,Sarapdhari,20.40355917,78.3686944
181,Kalamb,0.752841639225,SATEFAL,20.5258,78.360017,527.0,8.432,Satephal,20.52441985,78.3670946
182,Kalamb,0.744185341186,PARDI,20.51735,78.309583,40.0,0.64,Sawalapur,20.51248525,78.30467554
183,Kalamb,2.06084894242,MATEGAON,20.4942,78.444317,657.0,10.512,Sawangi,20.50443981,78.46080943
184,Kalamb,4.78832070446,MENDHLA,20.465033,78.234517,329.0,5.264,Shankarpur,20.45856199,78.27995747
185,Kalamb,2.65532127032,SHELI,20.321,78.266333,550.0,8.8,Sheli,20.32960348,78.2900883
186,Kalamb,2.46015966375,SHARAD,20.353233,78.26035,1081.0,17.296,Sherad,20.35771576,78.28345895
187,Kalamb,5.6766881339,MANKAPUR,20.511983,78.3594,324.0,5.184,Shingnapur,20.46108172,78.36358025
188,Kalamb,0.939421389172,PAHUR (I),20.234767,78.401417,1191.0,19.056,Shivpuri,20.24274774,78.40437133
189,Kalamb,1.56576233673,SHIVNI (KD),20.363883,78.3194,503.0,8.048,Shiwani Kh.,20.37135309,78.33213251
190,Kalamb,0.54712007872,SONEGAON,20.486533,78.3954,723.0,11.568,Sonegaon,20.48200038,78.39744375
191,Kalamb,1.15114581155,MAWALNI,20.482633,78.374517,616.0,9.856,Sonkhas,20.48924243,78.38302298
192,Kalamb,4.71819580362,WATBORI,20.293467,78.327117,616.0,9.856,Sonkhas,20.27506628,78.36787928
193,Kalamb,2.53252581224,HUSNAPUR,20.547517,78.31695,1097.0,17.552,Sukali,20.52564754,78.32374186
194,Kalamb,1.99006235586,CHINCHOLI,20.526283,78.47445,373.0,5.968,Talegaon,20.51511138,78.48937946
195,Kalamb,0.607413472513,TARODA,20.488167,78.320367,461.0,7.376,Taroda,20.4892518,78.32608235
196,Kalamb,1.2265399306,DEVNALA,20.337067,78.32025,86.0,1.376,Taslot,20.34809751,78.32027679
197,Kalamb,0.58868470178,TIRZADA,20.434983,78.407917,1301.0,20.816,Tirzada,20.43196388,78.41255794
198,Kalamb,1.68289864265,ASHTI,20.48727,78.2654,132.0,2.112,Tuljapur,20.50049805,78.27325057
199,Kalamb,1.19692764711,GANGAPUR,20.493233,78.4318,132.0,2.112,Tuljapur,20.48377381,78.42631573
200,Kalamb,1.08962412635,UMARI,20.452083,78.45085,708.0,11.328,Umari,20.44286403,78.44730466
201,Kalamb,2.99821729153,DEVNALA,20.337067,78.32025,524.0,8.384,Wadhona Kh.,20.36241436,78.31044292
202,Kalamb,1.07673343652,WANDLI,20.510033,78.41075,875.0,14.0,Wandli,20.50055035,78.41284367
203,Kalamb,1.92535707648,WATBORI,20.293467,78.327117,1861.0,29.776,Watbori,20.29854993,78.344765
204,Kalamb,1.1311947735,ZADKHINI,20.283683,78.472167,827.0,13.232,Zadkinhi,20.28607086,78.48270972
205,Ner,0.473229742347,ADEGAON,20.500333,77.67335,1835.0,29.36,Adgaon,20.49731852,77.67655729
206,Ner,1.35737359463,VHAHALI,20.505117,77.755183,364.0,5.824,Ajani,20.50173276,77.74266109
207,Ner,0.299904805311,AJANTI,20.508183,77.819017,2283.0,36.528,Ajanti,20.50550481,77.81867653
208,Ner,0.623922735971,BALEGAON,20.53095,77.826667,664.0,10.624,Balegaon,20.53078629,77.83265609
209,Ner,1.17554826156,BANGAON,20.442617,77.7947,2856.0,45.696,Bangaon,20.45108726,77.78794841
210,Ner,1.02808632306,BRAMHANWADA P,20.511417,77.948867,1012.0,16.192,Bramhanwada (East),20.51445165,77.95819186
211,Ner,1.02808632306,BRAMHANWADA P,20.511417,77.948867,1012.0,16.192,Bramhanwada (F),20.51445165,77.95819186
212,Ner,0.53346689292,BRHAMANWADA,20.54675,77.7287,1012.0,16.192,Bramhanwada (P),20.55013512,77.73233067
213,Ner,0.784794116695,CHIKANI,20.47595,77.757933,2121.0,33.936,Chikani,20.48154924,77.76251953
214,Ner,0.414545962348,CHIKHLI K,20.5694,78.0008,1587.0,25.392,Chikhali (Kanhoba),20.56806035,78.00451598
215,Ner,0.925588679173,CHINCHAGAON,20.437667,77.815217,1262.0,20.192,Chinchgaon,20.44582333,77.81699112
216,Ner,0.920989143541,DAGADHANORA,20.571983,77.8147,732.0,11.712,Dagad-dhanora,20.56823697,77.82259018
217,Ner,1.71362225329,DAHIFAL,20.396617,77.850817,1532.0,24.512,Dahifal,20.39076604,77.86602747
218,Ner,1.65784583834,LONI,20.532317,77.85915,500.0,8.0,Dawargaon,20.519179,77.86667637
219,Ner,0.683498315086,DHANAJ,20.5384,77.92145,2408.0,38.528,Dhanaj,20.53280873,77.918723
220,Ner,1.49553454481,CHIKANI,20.47595,77.757933,329.0,5.264,Domga,20.48211009,77.74517037
221,Ner,1.52198590282,INDRATHANA,20.42815,77.842,536.0,8.576,Fattapur,20.43751841,77.83135091
222,Ner,3.85447319097,WAI I,20.472067,77.828333,500.0,8.0,Fattepur,20.43751841,77.83135091
223,Ner,0.25681445957,GHAREPHAL,20.461067,77.734083,1205.0,19.28,Ghareful,20.46038767,77.73643906
224,Ner,3.29789560832,GHUI,20.3954,77.985267,1146.0,18.336,Ghui,20.3813966,78.01315901
225,Ner,3.24272201819,KOLURA,20.471683,77.8944,376.0,6.016,Gondgavhan,20.44268722,77.89107654
226,Ner,3.51379014362,INDRATHANA,20.42815,77.842,719.0,11.504,Indrathana,20.4585021,77.85138466
227,Ner,2.63025227115,KOLURA,20.471683,77.8944,500.0,8.0,Injapur,20.46449133,77.87034677
228,Ner,3.54953182569,JAWALGAON,20.389083,77.871617,1467.0,23.472,Jawalgaon,20.3872297,77.90561468
229,Ner,0.929479205485,KARKHEDA,20.466484,77.65947,1264.0,20.224,Karkheda,20.47351285,77.66429912
230,Ner,0.866443115961,KHARDGAON,20.561667,77.676283,1700.0,27.2,Kharadgaon,20.56922351,77.67831405
231,Ner,3.29420136337,UDAPUR,20.422833,77.791917,402.0,6.432,Kharbi,20.4384582,77.76505757
232,Ner,0.217738617898,KHOLAPUR,20.486883,77.715,631.0,10.096,Kholapuri,20.48790151,77.71678537
233,Ner,4.55990042145,SHINDAKHEDA,20.493983,77.9427,37.0,0.592,Khutafali,20.47599166,77.98203841
234,Ner,0.500094986154,KOHALA,20.546967,77.807067,970.0,15.52,Kohala,20.55107633,77.80901892
235,Ner,0.636658943244,KOLURA,20.471683,77.8944,1140.0,18.24,Kolura,20.46882627,77.89969648
236,Ner,5.01143949972,MANGALADEVI,20.558167,77.962167,113.0,1.808,Kurhegaon,20.59668291,77.98716572
237,Ner,4.01296599603,LONI,20.532317,77.85915,1.0,0.016,Lankanath,20.51247784,77.89134021
238,Ner,4.68233523345,BORGAON,20.380467,77.958367,405.0,6.48,Linga,20.3500829,77.98946556
239,Ner,2.15321044672,RATANPUR,20.483267,77.802583,563.0,9.008,Lohatwadi,20.4833389,77.7819119
240,Ner,4.05797579455,PIMPALGAON (DUBA),20.484333,77.911567,568.0,9.088,Lonadi,20.4672101,77.94596836
241,Ner,0.170783097293,LONI,20.532317,77.85915,756.0,12.096,Loni,20.53310647,77.86055683
242,Ner,1.7285214967,MALKHED BK,20.423333,77.9035,2319.0,37.104,Malkhed Bk.,20.42834946,77.91920047
243,Ner,1.51891053865,MALKHED KD,20.423433,77.9328,2319.0,37.104,Malkhed Kh.,20.42834946,77.91920047
244,Ner,1.32495479596,LONI,20.532317,77.85915,500.0,8.0,Mandawgad,20.54121306,77.85068473
245,Ner,1.58154797692,MANGALADEVI,20.558167,77.962167,3958.0,63.328,Mangladevi,20.55024872,77.97478555
246,Ner,2.85193317544,MANIKWADI,20.534867,77.9267,2889.0,46.224,Manikwada,20.54715675,77.95074033
247,Ner,2.98587286871,WALKI,20.574917,77.87785,439.0,7.024,Marwadi,20.58178478,77.90557881
248,Ner,0.146454203334,MOZAR,20.5097,77.789517,2229.0,35.664,Mozar,20.50912201,77.78825341
249,Ner,3.33645409137,INDRATHANA,20.42815,77.842,900.0,14.4,Mukindpur,20.45815307,77.84159647
250,Ner,2.41843603355,DHANAJ,20.5384,77.92145,537.0,8.592,Muktyapur,20.55829248,77.9120587
251,Ner,3.51631285086,WALKI,20.574917,77.87785,500.0,8.0,Nathrad,20.54527132,77.88960537
252,Ner,3.89497045325,JAWALGAON,20.389083,77.871617,226.0,3.616,Pachwad,20.40539207,77.90469071
253,Ner,1.43489468143,PANDHARI,20.5235,77.730783,1065.0,17.04,Pandhari,20.53091723,77.71950742
254,Ner,1.96706097108,UMARTHA,20.49125,77.695383,470.0,7.52,Parjana,20.50893987,77.69526689
255,Ner,0.232785815005,PATHARD,20.5471,77.888517,1861.0,29.776,Pathrad (gole),20.54527132,77.88960537
256,Ner,2.27942857952,INDRATHANA,20.42815,77.842,267.0,4.272,Pendhara,20.41394055,77.8577664
257,Ner,2.8684112266,INDRATHANA,20.42815,77.842,1269.0,20.304,Pimpri (Ijara),20.42982965,77.86946916
258,Ner,0.0493652439133,RATANPUR,20.483267,77.802583,590.0,9.44,Ratnapur,20.48299172,77.80221119
259,Ner,1.84087043763,LONI,20.532317,77.85915,45.0,0.72,Renkapur,20.52785282,77.87617328
260,Ner,4.46064965126,SONKHAS,20.423433,77.9923,932.0,14.912,Sankhas Heti,20.43398229,78.0336012
261,Ner,2.4358618291,SARANGPUR,20.401067,77.924833,1321.0,21.136,Sarangpur,20.39047522,77.94529099
262,Ner,0.359073272341,SATEPHAL,20.45755,77.703517,2017.0,32.272,Satefal,20.45800021,77.70692994
263,Ner,2.16822759184,PIMPALGAON (DUBA),20.484333,77.911567,305.0,4.88,Sawanga,20.50274705,77.90471901
264,Ner,2.67242845553,SHAHAPUR,20.405783,77.81765,1031.0,16.496,Shendri Kh.,20.38258786,77.82436415
265,Ner,1.03546477226,SHIRASGAON,20.5195,77.727333,1149.0,18.384,Shirajgaon,20.51535134,77.71843137
266,Ner,2.23396723903,SHINDAKHEDA,20.493983,77.9427,1474.0,23.584,Sindkhed,20.48443889,77.96157273
267,Ner,3.44214028401,SONKHAS,20.423433,77.9923,616.0,9.856,Sonkhas,20.41035123,78.02223658
268,Ner,2.562633946,SONWADHONA,20.435967,77.954967,3252.0,52.032,Sonwadhona,20.42954016,77.97858506
269,Ner,1.24773828211,TKALI S,20.523183,77.96055,695.0,11.12,Takali (Salami),20.5275576,77.97158379
270,Ner,1.74194558398,KHOLAPUR,20.486883,77.715,541.0,8.656,Tembhi,20.48944494,77.7314984
271,Ner,2.47430486982,MANGALADEVI,20.558167,77.962167,541.0,8.656,Tembhi,20.55830586,77.98593198
272,Ner,1.09613811508,UDAPUR,20.422833,77.791917,561.0,8.976,Udapur,20.42114484,77.80228055
273,Ner,0.382017096739,UMARTHA,20.49125,77.695383,1439.0,23.024,Umartha,20.4928941,77.69860341
274,Ner,2.77618309907,UTTARWADONA,20.4345,77.9781,2530.0,40.48,Uttarwadhona,20.43764126,78.00453198
275,Ner,0.366548210332,VHAHALI,20.505117,77.755183,644.0,10.304,Vyahali,20.5084056,77.7554257
276,Ner,0.617529514799,WAI I,20.472067,77.828333,1269.0,20.304,Wai (Ijara),20.47723877,77.83049307
277,Ner,5.94159849753,UDAPUR,20.422833,77.791917,1269.0,20.304,Wai (Paras),20.46231624,77.75349337
278,Ner,0.189821728393,WALKI,20.574917,77.87785,643.0,10.288,Walki,20.57449679,77.87961731
279,Ner,0.412629034228,WATFALI,20.5586,77.85775,600.0,9.6,Watfala,20.55509715,77.85644173
280,Ner,0.412629034228,WATFALI,20.5586,77.85775,1711.0,27.376,Watfali,20.55509715,77.85644173
281,Ner,1.82006091205,MALKHED BK,20.423333,77.9035,554.0,8.864,Wirgavhan,20.42193532,77.88609775
282,Ner,1.41665891757,BALEGAON,20.53095,77.826667,624.0,9.984,Zombadi,20.54175839,77.83386969
283,ZARIJAMNI,2.82972014781,ATKOLI,19.881667,78.780317,613.0,9.808,Adakoli,19.87842826,78.80715789
284,ZARIJAMNI,1.28234609602,ADEGAON,19.795317,78.896133,3790.0,60.64,Adegaon,19.79533343,78.90838967
285,ZARIJAMNI,5.57830495771,NIMBHADEVI,19.9186,78.618033,952.0,15.232,Ambezari,19.96328973,78.64228031
286,ZARIJAMNI,5.57830495771,NIMBHADEVI,19.9186,78.618033,952.0,15.232,Ambezari Bk.,19.96328973,78.64228031
287,ZARIJAMNI,5.57830495771,NIMBHADEVI,19.9186,78.618033,952.0,15.232,Ambezari Kh.,19.96328973,78.64228031
288,ZARIJAMNI,1.82474633238,ADRASHANWAN,19.829267,78.792333,801.0,12.816,Ardhawan,19.82393921,78.80883243
289,ZARIJAMNI,0.961820315249,PIMPARAD,19.77055,78.844917,469.0,7.504,Bailampur,19.77262842,78.85383943
290,ZARIJAMNI,4.10692320976,BOPAPUR,19.903667,78.835283,500.0,8.0,Balapur,19.91357913,78.87312403
291,ZARIJAMNI,2.81098729253,BHENDALA,19.813067,78.80135,1016.0,16.256,Bhendala,19.81284948,78.82821944
292,ZARIJAMNI,3.25944653663,KHARBADA,19.820785,78.720375,344.0,5.504,Birsapeth,19.83667616,78.74655907
293,ZARIJAMNI,2.56036597744,BOPAPUR,19.903667,78.835283,798.0,12.768,Bopapur,19.90378373,78.85977142
294,ZARIJAMNI,3.21917652279,KHARBADA,19.820785,78.720375,1755.0,28.08,Chalbardi,19.84959362,78.7234209
295,ZARIJAMNI,1.77372499095,DABHA,19.841417,78.61225,3401.0,54.416,Dabha,19.84927002,78.62701116
296,ZARIJAMNI,1.82056094846,DABHADI,19.92205,78.751517,2296.0,36.736,Dabhadi,19.93071559,78.76629309
297,ZARIJAMNI,2.92697225508,DARA,19.911417,78.852867,601.0,9.616,Dara,19.91315101,78.88080286
298,ZARIJAMNI,4.34833767303,TAKALI,19.85415,78.600767,1374.0,21.984,Demad Devi,19.8705272,78.6385241
299,ZARIJAMNI,1.29559330844,DIGRAS,19.814983,78.68595,500.0,8.0,Digras,19.80778592,78.69568945
300,ZARIJAMNI,0.995982552661,DABHA,19.841417,78.61225,1822.0,29.152,Dorli,19.83580254,78.61966938
301,ZARIJAMNI,1.78223400334,DURBHA,19.790617,78.718983,1156.0,18.496,Durbha,19.78390174,78.73444965
302,ZARIJAMNI,3.01835748329,GAWARA,19.8738,78.637417,1339.0,21.424,Gawara,19.88256455,78.66473555
303,ZARIJAMNI,4.36786348444,PIMPARAD,19.77055,78.844917,522.0,8.352,Govindpur,19.73722828,78.86701834
304,ZARIJAMNI,2.72685420746,HERAPUR,19.785483,78.802167,1.0,0.016,Hirapur,19.78523799,78.82822738
305,ZARIJAMNI,3.51774863444,JAMNI,19.860283,78.7372,1015.0,16.24,Jamani,19.86504426,78.77045381
306,ZARIJAMNI,4.41593180984,MANDVI,19.8733,78.582833,348.0,5.568,Junoni,19.90641015,78.60615292
307,ZARIJAMNI,5.63085574723,ZAMKOLA,19.940983,78.764217,348.0,5.568,Junoni,19.93452432,78.81764523
308,ZARIJAMNI,0.481459614881,ADRASHANWAN,19.829267,78.792333,178.0,2.848,Kamalpur,19.83359681,78.7923087
309,ZARIJAMNI,3.18650141164,KAREGAON,19.92245,78.5984,1785.0,28.56,Karegaon,19.94675867,78.6145431
310,ZARIJAMNI,5.58394624215,HIWARABARSA,19.973083,78.630067,377.0,6.032,Katali-Borgaon,19.99216888,78.67949189
311,ZARIJAMNI,1.48122779353,KHADKI,19.8347,78.874767,500.0,8.0,Khadaki,19.82779162,78.88687465
312,ZARIJAMNI,4.71615705495,LINGTI,19.800683,78.75285,91.0,1.456,Khapari,19.81809066,78.79395912
313,ZARIJAMNI,2.22145189553,KHARBADA,19.820785,78.720375,373.0,5.968,Kharbada,19.81890345,78.74151655
314,ZARIJAMNI,0.683640616341,KHATERA,19.7447,78.910683,841.0,13.456,Khatera,19.75056459,78.91264387
315,ZARIJAMNI,2.97701165675,MANDWA,19.896367,78.708433,639.0,10.224,Kodpakhindi,19.88053108,78.73138952
316,ZARIJAMNI,2.2255560027,KOSARA,19.854183,78.858617,970.0,15.52,Kosara,19.85590942,78.87981758
317,ZARIJAMNI,2.21307556996,LINGTI,19.800683,78.75285,610.0,9.76,Lingati,19.80235739,78.77392844
318,ZARIJAMNI,3.45468576669,MANDWA,19.896367,78.708433,336.0,5.376,Mahadapur,19.92318604,78.72511462
319,ZARIJAMNI,4.32225431147,PANDHARWANI,19.927383,78.705617,881.0,14.096,Majara,19.95778567,78.73138247
320,ZARIJAMNI,2.97555100706,MANDWA,19.896367,78.708433,605.0,9.68,Mandava,19.90352612,78.73585474
321,ZARIJAMNI,3.47769869203,MANDVI,19.8733,78.582833,1301.0,20.816,Mandavi,19.90420483,78.58793974
322,ZARIJAMNI,1.54906161769,MANGLI,19.7966,78.795583,202.0,3.232,Mangali,19.78802365,78.80725041
323,ZARIJAMNI,1.39050174558,MANGURLA (K),19.8842,78.747617,370.0,5.92,Mangurla Bk,19.89488444,78.75452685
324,ZARIJAMNI,1.39050174558,MANGURLA (K),19.8842,78.747617,370.0,5.92,Mangurla Kh,19.89488444,78.75452685
325,ZARIJAMNI,2.34345328476,MARKI BK,19.847633,78.7766,2319.0,37.104,Marki Bk,19.84717035,78.7990007
326,ZARIJAMNI,2.34345328476,MARKI BK,19.847633,78.7766,932.0,14.912,Marki Kh,19.84717035,78.7990007
327,ZARIJAMNI,3.0075683077,MATHARJUN,19.89455,78.6696,2783.0,44.528,Matharjun,19.9031568,78.69686995
328,ZARIJAMNI,2.93943618388,ADRASHANWAN,19.829267,78.792333,143.0,2.288,Muchhi,19.85054695,78.77565986
329,ZARIJAMNI,4.24128837673,UMARI,19.842846,78.642242,500.0,8.0,Mudhati,19.86176635,78.67745402
330,ZARIJAMNI,1.33138592209,MULKUTBAN,19.8091,78.852667,6785.0,108.56,Mukutban,19.80434689,78.86434761
331,ZARIJAMNI,2.96012029069,MULGAVHAN,19.923167,78.66045,686.0,10.976,Mulgavhan,19.93084365,78.68756348
332,ZARIJAMNI,5.31700731669,DARA,19.911417,78.852867,500.0,8.0,Narsoda,19.92916351,78.90009462
333,ZARIJAMNI,3.9390298821,NIMNI,19.955883,78.743217,652.0,10.432,Nimani,19.95819641,78.78082429
334,ZARIJAMNI,3.18114416573,NIMBHADEVI,19.9186,78.618033,480.0,7.68,Nimbadevi,19.93495799,78.64299843
335,ZARIJAMNI,5.71957113051,SHIBLA,19.965283,78.681317,594.0,9.504,Pachpohor,20.00479438,78.71636134
336,ZARIJAMNI,5.26187745961,HIWARABARSA,19.973083,78.630067,262.0,4.192,Palgaon,20.00643184,78.66579239
337,ZARIJAMNI,3.11028538611,PANDHARWANI,19.927383,78.705617,599.0,9.584,Pandharawani,19.93767179,78.73328491
338,ZARIJAMNI,2.54865523276,PANDHARKWADA,19.8486,78.792633,560.0,8.96,Pandharkawada,19.84809563,78.81699531
339,ZARIJAMNI,1.68567042393,PATAN,19.8058,78.700683,8976.0,143.616,Patan,19.80737234,78.7167089
340,ZARIJAMNI,5.83736782163,ATKOLI,19.881667,78.780317,386.0,6.176,Pawanar,19.8692729,78.83456075
341,ZARIJAMNI,2.74848331314,PIMPARAD,19.77055,78.844917,424.0,6.784,Pimparad,19.77700129,78.87027307
342,ZARIJAMNI,2.80589162771,MULKUTBAN,19.8091,78.852667,505.0,8.08,Pimparadwadi,19.79343976,78.87369708
343,ZARIJAMNI,0.899385188178,PIWARDOL,19.890467,78.637417,875.0,14.0,Piwardol,19.8985529,78.63762936
344,ZARIJAMNI,3.73070838041,KHARBADA,19.820785,78.720375,500.0,8.0,Raipur,19.80231078,78.75014367
345,ZARIJAMNI,2.52491922018,SHIBLA,19.965283,78.681317,500.0,8.0,Rajani,19.95722413,78.70390284
346,ZARIJAMNI,2.19809318888,RAJUR,19.76285,78.8216,676.0,10.816,Rajur,19.76922197,78.84148436
347,ZARIJAMNI,5.90063082749,PATAN,19.8058,78.700683,500.0,8.0,Rampeth,19.83667616,78.74655907
348,ZARIJAMNI,5.77538956989,BHENDALA,19.813067,78.80135,196.0,3.136,Ruikot,19.82139911,78.85584384
349,ZARIJAMNI,2.37266875277,SATTAPALLI,19.831333,78.633767,1193.0,19.088,Satpalli,19.83355692,78.65632676
350,ZARIJAMNI,3.17044225552,BHENDALA,19.813067,78.80135,445.0,7.12,Sawali,19.81766078,78.83126101
351,ZARIJAMNI,1.65627686496,ADRASHANWAN,19.829267,78.792333,500.0,8.0,Shekapur,19.83490168,78.7776753
352,ZARIJAMNI,4.02306842404,SHIBLA,19.965283,78.681317,1329.0,21.264,Shibala,19.97712962,78.71769019
353,ZARIJAMNI,2.60017068702,SINDHIWADANA,19.8797,78.86505,524.0,8.384,Sindhi Wadhona,19.88293512,78.88967681
354,ZARIJAMNI,1.4670221972,SURDAPUR,19.809817,78.670483,921.0,14.736,Surdapur,19.81573527,78.68301625
355,ZARIJAMNI,4.32079979038,CHIKHALDOH,19.909183,78.642733,320.0,5.12,Surdevi,19.8705272,78.6385241
356,ZARIJAMNI,1.46397962488,MULGAVHAN,19.923167,78.66045,541.0,8.656,Tembhi,19.93483996,78.66692744
357,ZARIJAMNI,2.34106143435,UMARI,19.842846,78.642242,708.0,11.328,Umari,19.86053382,78.65438266
358,ZARIJAMNI,4.03989175528,WADONABANDHI,19.9786,78.751583,524.0,8.384,Wadhona,19.9832777,78.78991987
359,ZARIJAMNI,4.98493077385,DABHADI,19.92205,78.751517,345.0,5.52,Wallasa,19.92540555,78.79906786
360,ZARIJAMNI,2.21228394926,WATHOLI,19.812333,78.6227,796.0,12.736,Watholi,19.81731518,78.64317383
361,ZARIJAMNI,0.380044930671,WEDED,19.751883,78.937,187.0,2.992,Wedad,19.75381722,78.93400597
362,ZARIJAMNI,2.66379011672,YEDLAPUR,19.795033,78.76625,300.0,4.8,Yedalapur,19.79776949,78.79154406
363,ZARIJAMNI,1.20318281309,YEDSI,19.7746,78.883783,756.0,12.096,Yedashi,19.76646472,78.89136431
364,ZARIJAMNI,3.26575608166,LINGTI,19.800683,78.75285,241.0,3.856,Yeoti,19.82056262,78.77582884
365,ZARIJAMNI,3.35449596487,ZAMKOLA,19.940983,78.764217,807.0,12.912,Zamkola,19.94394069,78.79615448
