,Block Name,Distance,GP Name,GP_lat,GP_long,Village Name,Village_lat,Village_long
0,Bhikiasain,5983.85179115,NAIKANA,29.766696,79.263534,Adagoli,Than Dangoli,79.6007
1,Bhikiasain,6053.1380167,MOHANARI,29.617385,79.315163,Adborha,Dungra Bora Chalsilkot,80.25847
2,Bhikiasain,6022.9053368,AMOLI,29.716959,79.303383,Amoli,Gwir Tamoli,80.07347
3,Bhikiasain,6013.01973735,PUNA KOT,29.612587,79.290406,Badaruwa Tila,Padiyarwala,79.75598
4,Bhikiasain,6028.54443215,BAJAN,29.75571,79.290438,Badhann,Bhann,80.23144
5,Bhikiasain,6053.12329725,BAGDWAR,29.623114,79.323444,Bagdawar,Bagar Toli,80.32686
6,Bhikiasain,6040.91262481,BHAUNALI,29.625322,79.290327,Bahnoli,Bantoli,80.12103
7,Bhikiasain,6035.66414374,BAJAN,29.75571,79.290438,Bajan,Sukha Baran,80.24824
8,Bhikiasain,6038.05958717,BAMAN CHAOUNA,29.762147,79.265345,Baman Chauna,Riyansi Bamangoan,80.26816
9,Bhikiasain,6042.44451573,BAMIYOLI,29.624226,79.275733,Bamyoli,Bamdoli,80.21122
10,Bhikiasain,6034.49104483,BARKINDA,29.73559,79.268116,Barkinda,Binda Tiwari,80.19579
11,Bhikiasain,6034.98449296,MAHAR TANA,29.734186,79.326911,Barswaltana,Balana,80.1896
12,Bhikiasain,6043.07036597,BASOOT,29.651899,79.264781,Basot,Baset,80.24909
13,Bhikiasain,6053.33228931,BAULI,29.726791,79.318693,Bauli,Bauling,80.62208
14,Bhikiasain,6020.15292894,NOU GOUN,29.780769,79.257324,Bel,Boyel,80.11641
15,Bhikiasain,6042.63085002,BINAULI,29.647378,79.269038,Benibelt gaon,Banigaon,80.24754
16,Bhikiasain,6047.88629123,DHARAD,29.637723,79.307955,Bhagiroun,Bhatgaon,80.26387
17,Bhikiasain,6029.36557452,HARNOULI,29.636917,79.295528,Bhagiru,Bairat Bairun,80.06391
18,Bhikiasain,6040.90064718,BAGDWAR,29.623114,79.323444,Bhakuniya,Bhakunda,80.17149
19,Bhikiasain,6054.64549456,UAGALIYA,29.624757,79.285598,Bhamoria,Amora,80.28381
20,Bhikiasain,6053.77570213,PUNA KOT,29.612587,79.290406,Bhulbagar,Bagar Toli,80.32686
21,Bhikiasain,6041.24100164,INDA,29.73559,79.268116,Bilara,Bailgara,80.26625
22,Bhikiasain,6034.61208021,BINAULI,29.647378,79.269038,Binoli,Sinoli Bhawalta,80.0918
23,Bhikiasain,6031.88803026,BINOLI,29.671958,79.267319,Binoli,Sinoli Bhawalta,80.0918
24,Bhikiasain,6020.66403174,THIROLI,29.771088,79.245144,Binoli,Sinoli Bhawalta,80.0918
25,Bhikiasain,6040.39031215,MHANGYARI,29.617385,79.315163,Birot,Bijkot,80.17774
26,Bhikiasain,6036.07424627,BUNGANAURAR,29.637699,79.264906,Buganaurarh,Basaura,80.16798
27,Bhikiasain,6051.17098218,HARNOULI,29.636917,79.295528,Chanali,Chanauli,80.34982
28,Bhikiasain,6038.13144344,CHANOLI,29.659297,79.249874,Chanoli,Chamoli,80.14377
29,Bhikiasain,6042.76002724,CHANOLI,29.659297,79.249874,Chanoli Talli Malli,Chitgaliya,80.24045
30,Bhikiasain,6041.99716168,BAULI,29.726791,79.318693,Chaparh,Chaurh,80.33932
31,Bhikiasain,6031.79602827,BAULI,29.726791,79.318693,Chhapoli,Chamoli,80.14377
32,Bhikiasain,6047.41802797,CHINTOLI,29.659297,79.249874,Chintoli,Chimtoli Talli,80.30796
33,Bhikiasain,6052.38252044,DADULI,29.619742,79.271448,Dadhuli,Akhuli,80.34161
34,Bhikiasain,6028.31469865,BAMIYOLI,29.624226,79.275733,Dalmari,Syuli Dalari,80.07666
35,Bhikiasain,6033.65505254,DALMODI,29.742385,79.275985,Dalmori,Salmora,80.25282
36,Bhikiasain,6040.1397607,DANPOO,29.598655,79.295576,Danpau,Danaula,80.15175
37,Bhikiasain,6037.27163956,DHANOLI,29.640759,79.290311,Dhanoli Malli,Dhamrauli,80.16295
38,Bhikiasain,6032.5872481,DHANOLI,29.640759,79.290311,Dhanoli Talli,Dhaniyal,80.13438
39,Bhikiasain,6044.63274582,DHARAD,29.637723,79.307955,Dharar,Harari,80.24824
40,Bhikiasain,6041.44296272,DHUNGA,29.738888,79.312765,Dhunga,Dholi Dhunga,80.3447
41,Bhikiasain,6044.20724502,INDA,29.73559,79.268116,Dob Syotari,Dyori,80.41317
42,Bhikiasain,6064.02672992,DUMNA,29.628211,79.295372,Dumana,Gumkana,80.60901
43,Bhikiasain,6045.1947372,NOGHRIYA,29.653087,79.291529,Dumdoli Bokar,Dubar Jainal,80.19367
44,Bhikiasain,6043.85853131,NOGHRIYA,29.653087,79.291529,Dumdoli Patliya,Dumdai,80.20483
45,Bhikiasain,6040.3794281,DHYOUNA,29.730963,79.294721,Dyuna,Dunga Bora,80.26221
46,Bhikiasain,6041.29335983,FALSOUN,29.615524,79.270109,Falsaun,Palsau,80.08096
47,Bhikiasain,6045.64644743,GAIRGAON,29.636701,79.299054,Gairgaon,Gargaon Lagga Maichali,80.25721
48,Bhikiasain,6049.05681752,DANPOO,29.598655,79.295576,Gairkholi,Garsoli,80.27873
49,Bhikiasain,6031.72373052,GANGODA,29.670267,79.290996,Gangora,Gangora,80.13197
50,Bhikiasain,6041.86614685,GUGUTI,29.764747,79.310873,Ghughati,Khumati,80.46017
51,Bhikiasain,6043.63799543,GUJARGADI,29.610178,79.275419,Gujargari,Jamrari,80.15193
52,Bhikiasain,6050.2446436,KARAKOT,29.612587,79.290406,Gunsar,Gudar,80.30167
53,Bhikiasain,6038.61665549,SERA,29.687029,79.261236,Hansa Bhanariya,Khetar Bhandari,80.2837
54,Bhikiasain,6034.46116891,HARNOULI,29.636917,79.295528,Harnoli,Bharoli,80.03087
55,Bhikiasain,6043.97296379,HAUOOLI,29.626211,79.299303,Hauli,Khali Mahuwat,80.03264
56,Bhikiasain,6038.22016402,INDA,29.73559,79.268116,Inda,Ginda Gaon,80.29685
57,Bhikiasain,6033.61045108,KOTYAG,29.719642,79.285662,Jabka,Jakh,80.25023
58,Bhikiasain,6016.53870376,JAITHA,29.706869,79.275267,Jaitha,Jautha,79.9581
59,Bhikiasain,6022.18151832,JAMOLI,29.736381,79.30145,Jamoli,Jajoli,80.11052
60,Bhikiasain,6038.03044494,JAINAL,29.726137,79.256933,Janal Bangari,Langari,80.28195
61,Bhikiasain,6049.80838072,KOT ASHWAL,29.612587,79.290406,Jassajunena,Sanna,80.2935
62,Bhikiasain,6026.83886454,JHARKOTE,29.777953,79.286933,Jhar Kote,Tharkot,80.18929
63,Bhikiasain,6046.83724038,BASOOT,29.651899,79.264781,Kainakapoli,Kaisali,80.32459
64,Bhikiasain,6032.28666289,KAMRAD,29.742797,79.298163,Kamrarh,Marh,80.22486
65,Bhikiasain,6051.31591467,KARAKOT,29.612587,79.290406,Karakote,Barakot,80.3255
66,Bhikiasain,6051.2189051,BHAUNALI,29.625322,79.290327,Kargina,Kain Khola,80.3067
67,Bhikiasain,6041.49198817,SERA,29.687029,79.261236,Kelani,Sarpeta Kela Gaon,80.28981
68,Bhikiasain,6042.93132218,UNULI,29.715285,79.331285,Khairia,Khairi Gaon,80.23516
69,Bhikiasain,6036.34270023,BHAUNALI,29.625322,79.290327,Khanoli,Khatoli Talli,79.99479
70,Bhikiasain,6040.7908874,KHANOLIYA,29.707448,79.323131,Khanoliya,Bazar Lagga Kholiya Gaon,80.32568
71,Bhikiasain,6035.35141873,AMOLI,29.716959,79.303383,Khargoli,Khartoli,80.3167
72,Bhikiasain,6031.29715357,KHADKHET,29.736293,79.278849,Kharhkhet,Loharkhet,80.24466
73,Bhikiasain,6038.66788177,CHOURA,29.772107,79.306194,Kharkuli,Tarkuli,80.28632
74,Bhikiasain,6034.82790631,KHADKHET,29.736293,79.278849,Khobara,Khara Giri,80.16904
75,Bhikiasain,6045.00112594,KHURORI,29.707511,79.284326,Khureri,Kutheri Urf Kuseri,80.34426
76,Bhikiasain,6023.21338938,KHURUDI,29.764684,79.298789,Khururhi,Sanyali Lagga Khunari,80.06028
77,Bhikiasain,6043.55100081,PIPAL GOUN,29.67701,79.253245,Kotagiwai,Kotali,80.31886
78,Bhikiasain,6044.75630224,THAPALA,29.663805,79.237163,Kotali,Kotali,80.31886
79,Bhikiasain,6051.19071434,KOT ASHWAL,29.612587,79.290406,Koteaswal,Kotali,80.31886
80,Bhikiasain,6053.63815574,KOT SARI,29.612587,79.290406,Kotesari,Oltari,80.35616
81,Bhikiasain,6029.14189895,KOTYAG,29.719642,79.285662,Kotiyada,Kafar Katiya,80.12709
82,Bhikiasain,6052.02614871,SOURE,29.666243,79.266709,Kumarti,Khumati,80.46017
83,Bhikiasain,6056.14923955,LOOKOT,29.603954,79.304431,Laukote,Baun Kote,80.33856
84,Bhikiasain,6038.74266505,KOTYAG,29.719642,79.285662,Liserhi,Sethi Gaon,80.3107
85,Bhikiasain,6031.40654961,MEHAR NAIL,29.757094,79.270239,Mahar Nel,Mera Sera Mahar,80.25308
86,Bhikiasain,6026.41924346,MAHAR TANA,29.734186,79.326911,Mahartana,Bunga Mahara,80.06276
87,Bhikiasain,6045.64409905,MHANGYARI,29.617385,79.315163,Mahgyari,Mahargari,80.27177
88,Bhikiasain,6047.91421916,BINAULI,29.647378,79.269038,Majhera,Majhera,80.28875
89,Bhikiasain,6011.37341642,MATELA MALLA,29.778195,79.311028,Malla Matela,Salmata,79.78223
90,Bhikiasain,6057.62807912,NIGRALI,29.610492,79.282357,Manari,Kanari,80.3891
91,Bhikiasain,6044.16444698,BINOLI,29.671958,79.267319,Maudali,Gadali,80.32931
92,Bhikiasain,6046.15869338,BUNGANAURAR,29.637699,79.264906,Mayalkote,Simalkote,80.25563
93,Bhikiasain,6050.53140442,SEEM,29.637348,79.256505,Michauli,Chanauli,80.34982
94,Bhikiasain,6038.42221862,KHADKHET,29.736293,79.278849,Millekh,Chamlekh,80.34922
95,Bhikiasain,6037.13107926,JAMOLI,29.736381,79.30145,Minar,Bhandar Manar,80.20036
96,Bhikiasain,6025.66172112,MOHANARI,29.617385,79.315163,Mohanri,Dohari,79.74149
97,Bhikiasain,6037.77118514,SEEM,29.637348,79.256505,Mundil,Mundeli,79.96388
98,Bhikiasain,6025.94775892,NAIKANA,29.766696,79.263534,Naikana,Naikina Pandey,80.18312
99,Bhikiasain,6010.39558804,NAIL,29.76175,79.293979,Nail,Nail Nyal,79.92263
100,Bhikiasain,6043.46743524,GANGODA,29.670267,79.290996,Nainisera,Naini Patal,80.2807
101,Bhikiasain,6013.61849369,NAINWAL PALI,29.78811,79.297187,Nainwal Pali,Nainoli Kaina,80.01607
102,Bhikiasain,6049.167634,NANAR KOTA,29.612587,79.290406,Nanankote,Nankote,80.30474
103,Bhikiasain,6033.43075269,NOU GOUN,29.780769,79.257324,Naugaon,Naugaon,80.30063
104,Bhikiasain,6045.96464323,THAPALA,29.663805,79.237163,Naugaon,Naugaon,80.30063
105,Bhikiasain,6048.74592973,GAIRGAON,29.636701,79.299054,Naughar,Naghar,80.29431
106,Bhikiasain,6042.15514381,NOGHRIYA,29.653087,79.291529,Nauhariya,Dhig Galla Nauliya,80.17976
107,Bhikiasain,6031.76869104,NOULA,29.741604,79.248234,Naula,Dhig Galla Nauliya,80.17976
108,Bhikiasain,6051.72035407,NIGRALI,29.610492,79.282357,Nigarali,Garali,80.3501
109,Bhikiasain,6016.83548181,INDA,29.73559,79.268116,Nimuabagar,Navi Nagar,79.79976
110,Bhikiasain,6051.36789666,RIGDIYA,29.596089,79.28856,Noona,Khoona,80.27893
111,Bhikiasain,6049.42929333,DHANOLI,29.640759,79.290311,Okhala Bakhad,Kalaban,80.28391
112,Bhikiasain,6044.85882126,PALI THOULI,29.665077,79.298499,Pali,Pali,80.3013
113,Bhikiasain,6047.05421074,PANT GOUN,29.648617,79.308103,Pantgaon,Pataligaon,80.31065
114,Bhikiasain,6027.84770602,PIPAL GOUN,29.67701,79.253245,Pipalgaon,Ralgaon,80.02021
115,Bhikiasain,6054.40759547,DADULI,29.619742,79.271448,Pipaliya,Gyal Pipali,80.34763
116,Bhikiasain,6040.01020105,AMOLI,29.716959,79.303383,Pothi,Poth,80.20117
117,Bhikiasain,6049.167634,PUNA KOT,29.612587,79.290406,Punakote,Nankote,80.30474
118,Bhikiasain,6032.44182049,PURIACHOURA,29.772107,79.306194,Puriya Chaura,Balyani Chaura,80.29469
119,Bhikiasain,6047.36410212,HARNOULI,29.636917,79.295528,Pusaila,Sail,80.24456
120,Bhikiasain,6038.0060815,GANGODA,29.670267,79.290996,Raparh,Ropar,80.29992
121,Bhikiasain,6051.02661023,RIGDIYA,29.596089,79.28856,Rigria,Digra,80.29346
122,Bhikiasain,6037.54082114,RIKHAR,29.716759,79.296454,Rikharh,Rikhai,80.25134
123,Bhikiasain,6007.0726142,RIKHADI,29.780859,79.297689,Rikhari Dhobitura,Rikhari,79.90789
124,Bhikiasain,6031.02849028,RIKHADI,29.780859,79.297689,Rikhari Negi,Khariyani,80.31067
125,Bhikiasain,6043.17297804,LOOKOT,29.603954,79.304431,Rora,Rora Gaon,80.14603
126,Bhikiasain,6056.57175302,LOOKOT,29.603954,79.304431,Rutbaw,Rutra,80.37588
127,Bhikiasain,6044.01656659,PIPAL GOUN,29.67701,79.253245,Salauni,Silauni,80.28698
128,Bhikiasain,6044.36327187,CHANOLI,29.659297,79.249874,Sarpata,Sarpeta Kela Gaon,80.28981
129,Bhikiasain,6038.46680377,SEEM,29.637348,79.256505,Seem,Talli Seem,80.15772
130,Bhikiasain,6037.54225919,SERA,29.687029,79.261236,Sera,Sera,80.3094
131,Bhikiasain,6029.035529,NIGRALI,29.610492,79.282357,Silphori,Siloni,79.97442
132,Bhikiasain,6036.22646832,MEHAR NAIL,29.757094,79.270239,Simtoli,Sitoli,80.33845
133,Bhikiasain,6030.84622906,NOU GOUN,29.780769,79.257324,Simura,Sanmura Gunth,80.17171
134,Bhikiasain,6025.13864761,SINAR,29.738534,79.288246,Sinar,Simar,80.14852
135,Bhikiasain,6065.34413579,SINOURA,29.64552,79.295962,Sinaura Dangwal,Sirdang,80.65602
136,Bhikiasain,6041.99524742,SINOURA,29.64552,79.295962,Sinaura Kadakoti,Sarada Sagar Jhau Parasa,80.02583
137,Bhikiasain,6040.56092076,SINGOLI,29.717588,79.319789,Singoli,Sinkholi,80.32006
138,Bhikiasain,6048.74824681,SIRMOLI,29.624616,79.309691,Sirmoli,Siroli,80.30715
139,Bhikiasain,6048.68500456,SOOLI,29.646257,79.289159,Soli,Sitoli,80.33845
140,Bhikiasain,6044.72498112,SOURE,29.666243,79.266709,Sorei,Sori,80.28883
141,Bhikiasain,6043.44474859,SRIKOT,29.679388,79.263421,Srikote Majhli,Kotali,80.31886
142,Bhikiasain,6030.58813545,SRIKOT,29.679388,79.263421,Srikote Nahuri,Singari,80.10888
143,Bhikiasain,6045.4149044,SRIKOT,29.679388,79.263421,Srikote Unchi,Sirkuch,80.32432
144,Bhikiasain,6048.66490632,SOONI,29.604743,79.293973,Suni,Syunsi,80.25027
145,Bhikiasain,6048.74824681,SURMOLI,29.624616,79.309691,Surmoli,Siroli,80.30715
146,Bhikiasain,6028.28694131,SEEM,29.637348,79.256505,Syalkot Palla,Saltola,80.02461
147,Bhikiasain,6028.28694131,SEEM,29.637348,79.256505,Syalkot walla,Saltola,80.02461
148,Bhikiasain,6037.93092337,SURMOLI,29.624616,79.309691,Taleshwar,Tallisar,80.10668
149,Bhikiasain,6049.82273889,NIGRALI,29.610492,79.282357,Tana Chatura,Balyani Chaura,80.29469
150,Bhikiasain,6040.71397454,SOURE,29.666243,79.266709,Tatak Naurarh,Ajera Takrari,80.26349
151,Bhikiasain,6051.93308907,HARNOULI,29.636917,79.295528,Termoli,Dhunga Toli,80.39104
152,Bhikiasain,6020.52688199,THAPALA,29.663805,79.237163,Thapala,Thapla Gunth,79.89177
153,Bhikiasain,6031.68182941,THIROLI,29.771088,79.245144,Thiroli,Siroli,80.30715
154,Bhikiasain,6048.88506731,PALI THOULI,29.665077,79.298499,Tholi,Dhunga Toli,80.39104
155,Bhikiasain,6047.80579774,MHANGYARI,29.617385,79.315163,Timiltanola,Maithana,80.23811
156,Bhikiasain,6048.2824995,GUJARGADI,29.610178,79.275419,Tulkaande,Tunkande,80.2007
157,Bhikiasain,6031.22717867,UAGALIYA,29.624757,79.285598,Ugaliya Aswal,Pali Paliyal,80.0077
158,Bhikiasain,6015.16371536,UAGALIYA,29.624757,79.285598,Ugaliya Bist,Bang Dungariya,79.82174
159,Bhikiasain,6045.80589573,UAGALIYA,29.624757,79.285598,Ugaliya Kathayat,Gaithana,80.23648
160,Bhikiasain,6036.67633326,UAGALIYA,29.624757,79.285598,Ugaliya Lalchand,Tulakhand,80.08189
161,Bhikiasain,6031.22717867,UAGALIYA,29.624757,79.285598,Ugaliya Rotela,Pali Paliyal,80.0077
162,Bhikiasain,6037.55676981,UNULI,29.715285,79.331285,Unduli,Gudauli,80.27428
163,Chaukhutiya,6023.406154,KOTYURA MASI,29.835841,79.279087,Adigaon Bangari,Gangaseri,80.26146
164,Chaukhutiya,6021.33761262,ADHIGRAM KNORIYA,29.827502,79.27606,Adigaon Kanhodiya,Laamkaniya,80.13452
165,Chaukhutiya,6029.85461135,GARDSIYARI,29.842455,79.370674,Agar,Agar,80.32322
166,Chaukhutiya,6013.59651845,AAGAR MANRAL,29.885911,79.310173,Agaramanral,Sil Kakarmanya,80.20118
167,Chaukhutiya,6017.40904381,GAWALI,29.863946,79.368239,Agar Noula,Nagara Gara,80.20227
168,Chaukhutiya,6026.18541668,AKHODIYA NAUGAON,29.844668,79.382997,Akhoria,Kholia Gaon,80.32084
169,Chaukhutiya,6020.91757346,BAIES AOKHALA,29.905835,79.296521,Amdali,Gaidali Nadu,80.34008
170,Chaukhutiya,6017.70270333,AAMSEYARI,29.882202,79.385361,Amsiyari,Pamsyari,80.26204
171,Chaukhutiya,6019.9999223,ASETI,29.907305,79.407726,Aseti,Sethi Gaon,80.3107
172,Chaukhutiya,6024.68314993,BAGARI,29.891247,79.389011,Bagari,Bagar Toli,80.32686
173,Chaukhutiya,6009.5943418,BAGWALI KHET,29.841803,79.272101,Bagwali Khet,Jhultar Barkhet,80.0681
174,Chaukhutiya,6005.8071344,BAIES AOKHALA,29.905835,79.296521,Baies aokhala,Bhaiskhal,80.16438
175,Chaukhutiya,6031.15881972,BAERATI,29.8088,79.417006,Bairati,Baira,80.32436
176,Chaukhutiya,6032.60664768,BAMAN GAON,29.828597,79.384809,Baman Gaon,Riyansi Bamangoan,80.26816
177,Chaukhutiya,6018.91737776,GAWALI,29.863946,79.368239,Bamangwali,Bamanthal,80.18571
178,Chaukhutiya,6025.52649728,BARAL GAON,29.879379,79.369361,Barlgaon,Kante Borgaon,80.32095
179,Chaukhutiya,6033.83002133,THAPLA,29.794604,79.272769,Basaura,Basaur Mainan,80.32796
180,Chaukhutiya,6026.01184995,BASBIRA,29.849671,79.373721,Bashbira,Baira,80.32436
181,Chaukhutiya,6013.19194555,SIROLI,29.869336,79.367166,Bash Kaniya,Ratan Kaniya,80.05929
182,Chaukhutiya,6014.13397394,BASAR KHET,29.876732,79.457589,Bashrkhet,Tarkhet,80.164
183,Chaukhutiya,6008.79620048,KOTYURA MASI,29.835841,79.279087,Basoli,Basoli,80.00069
184,Chaukhutiya,6030.97814138,BAERATI,29.8088,79.417006,Bhainar,Bhandar Manar,80.20036
185,Chaukhutiya,6024.60426603,BHELT GAON,29.868091,79.312273,Bhalt Gaon,Budalgaon,80.298
186,Chaukhutiya,6003.42014188,BHANOTIYA,29.935917,79.3405,Bhanotiya,Bankatiya,79.94637
187,Chaukhutiya,6025.19555316,BHATTKOT,29.867618,79.340372,Bhatkote,Uchakote,80.34865
188,Chaukhutiya,6016.60299177,BHAGOTI,29.851562,79.307135,Bhgoti,Bothi,80.27726
189,Chaukhutiya,6015.36168584,BIJRANI,29.940907,79.341372,Bijrani,Saungaon Maya Bijara Kanda,80.27024
190,Chaukhutiya,6025.61551928,BOHARA GAON,29.869897,79.307009,Boharagaon,Kante Borgaon,80.32095
191,Chaukhutiya,6025.61551928,Boragaon,29.869897,79.307009,Boragaon,Kante Borgaon,80.32095
192,Chaukhutiya,6018.59653788,CHULAERASEM,29.93306,79.40986,Chaleraseem,Haram,80.22961
193,Chaukhutiya,6014.09207444,CHANI,29.841648,79.288836,Chani,Chan Kot,80.16426
194,Chaukhutiya,6019.51851228,CHANA,29.849411,79.38398,Chhana,Chhana Pandey,80.19071
195,Chaukhutiya,6011.354636,CHITAR,29.903592,79.397826,Chhitar,Sela Chital,80.26206
196,Chaukhutiya,6022.32438866,CHINONI,29.860166,79.320038,Chinoni,Bugga Chowkni,80.19556
197,Chaukhutiya,6030.6235304,CHITAELI,29.820974,79.414752,Chitalli,Chirali,80.30588
198,Chaukhutiya,5957.39317419,DANG,29.846114,79.293296,Dang,Dang,79.29276
199,Chaukhutiya,6022.37892024,DANTOLA,29.854455,79.381138,Dantola,Dola,80.23525
200,Chaukhutiya,6023.68084554,BAMAN GAON,29.828597,79.384809,Darhamar,Dhari Dhamaura,80.20387
201,Chaukhutiya,6001.21526218,TAJPUR TALLA,29.905982,79.346883,Dhanshyari,Dhyari,79.99237
202,Chaukhutiya,6047.55895101,PAN,29.798156,79.421023,Dhaur,Dhar Pangu,80.61133
203,Chaukhutiya,6038.81598123,DHANAN,29.880224,79.439758,Dhnar,Dhar Pangu,80.61133
204,Chaukhutiya,6012.96517553,DHUDLIYA MANRAL,29.917554,79.323242,Dhudaliya Manral,Dhari Dhamaura,80.20387
205,Chaukhutiya,6027.44009923,DHOUN,29.871121,79.346704,Dhun,Dholi Dhunga,80.3447
206,Chaukhutiya,6027.91086353,JHURANGA,29.834069,79.29197,Dipakote,Amkote,80.33629
207,Chaukhutiya,6030.20677523,BASBIRA,29.849671,79.373721,Dudholi,Dholi Dhunga,80.3447
208,Chaukhutiya,6019.32569562,JATUWA,29.8494,79.303554,Fali,Toli Fagali,80.1886
209,Chaukhutiya,6018.56290415,FADIKA,29.85485,79.280541,Farika,Gaika Jyula,80.17139
210,Chaukhutiya,6040.20150952,MAHAL CHAURA,29.837355,79.393671,Gadhan Chaura,DHARCHULA,80.54522
211,Chaukhutiya,6019.59048716,GARAD,29.816406,79.41944,Gairarh,Gairar,80.15818
212,Chaukhutiya,6015.51628758,GAJAR,29.904194,79.311722,Gajar,Jajar Chingari,80.20596
213,Chaukhutiya,6014.29334125,GARDSIYARI,29.842455,79.370674,Garhsari,Garhsari Gunth,80.02922
214,Chaukhutiya,6025.59315614,CHINONI,29.860166,79.320038,Ghugutiyalgaon,Budalgaon,80.298
215,Chaukhutiya,6002.8247,GAWALI,29.863946,79.368239,Giwali,Gwal,79.9843
216,Chaukhutiya,6018.87316178,BARAL GAON,29.879379,79.369361,Godi,Lodi,80.32765
217,Chaukhutiya,6026.50321513,GOGTA,29.80889,79.269089,Gogata,Ogala,80.28787
218,Chaukhutiya,6020.67951934,NAUGAON BADIYA,29.87834,79.431231,Golkhal,Golpha,80.34491
219,Chaukhutiya,6021.49479237,GOPAL GAON,29.851723,79.263458,Gopalgaon,Gargaon Lagga Maichali,80.25721
220,Chaukhutiya,6026.06011128,HAT,29.867618,79.340372,Hat,Bagadi Hat,80.36103
221,Chaukhutiya,6020.70625586,JAETA,29.875812,79.288636,Jaintha,Dubar Jainal,80.19367
222,Chaukhutiya,6017.17563435,KHARKATIYA,29.891479,79.314135,Jairam Bakhl,Jarajibli,80.31394
223,Chaukhutiya,6015.00135046,AAGAR MANRAL,29.885911,79.310173,Jaitisera,Bhandari Gaon Basera,80.21813
224,Chaukhutiya,6010.34189486,JALA,29.865041,79.265764,Jalali,Jalari,80.12505
225,Chaukhutiya,6018.9502842,CHITAR,29.903592,79.397826,Jamarar,Lamara,80.28786
226,Chaukhutiya,6020.24482906,JAMDIYA,29.91553,79.352436,Jamariya,Jamtari,80.29146
227,Chaukhutiya,6003.21000132,UODILIKHAN,29.882728,79.331402,Jardhar,Badhar,80.01323
228,Chaukhutiya,6019.43175876,JALA,29.865041,79.265764,Jaurashi,Jaurasi,80.23656
229,Chaukhutiya,6022.55859534,Jhala,29.868598,79.323222,Jhla,Ojha Talla,80.31316
230,Chaukhutiya,6030.22649235,JHURANGA,29.834069,79.29197,Jhuranga,Dhunga Toli,80.39104
231,Chaukhutiya,6013.52019041,CHINONI,29.860166,79.320038,Jhurga Katarmal,Ugarali,80.24978
232,Chaukhutiya,6023.73263428,BHAGOTI,29.851562,79.307135,Jool Chura,Balyani Chaura,80.29469
233,Chaukhutiya,6020.77015265,SIROLI,29.869336,79.367166,Jukanouli,Kauli Kanyal,80.29359
234,Chaukhutiya,6024.59929248,KABDOLA,29.824849,79.314316,Kabdola,Dola,80.23525
235,Chaukhutiya,6016.71352961,KABDOLI,29.799066,79.303328,Kabdoli,Mudoli Daboli,80.11658
236,Chaukhutiya,6019.5249622,KAKAD KHET,29.816766,79.321937,Kakarkhet,Kirkhet,80.25781
237,Chaukhutiya,6020.82716907,CHAUNA,29.805131,79.282619,Kala Chauna,Chauna,80.26585
238,Chaukhutiya,6030.81996194,KANRE,29.821367,79.298892,Kanere,Kante Borgaon,80.32095
239,Chaukhutiya,6034.76253444,KANHONI,29.817826,79.276027,Kanhori,Kanari,80.3891
240,Chaukhutiya,6028.06401724,PATAL GAON,29.857655,79.315828,Kanikhola,Kimkhola,80.38909
241,Chaukhutiya,6003.51530385,BHAGOTI,29.851562,79.307135,Katarmal,Kawarali,79.89116
242,Chaukhutiya,6014.82555475,KHAJU RANI,29.95184,79.466246,Khajaurani,Khariyani,80.31067
243,Chaukhutiya,6012.4807616,KHEDA,29.921329,79.419247,Khira,Balgari Chang Khirya,80.23516
244,Chaukhutiya,6029.26871992,KHANULI,29.83279,79.289925,Khnuli,Akhuli,80.34161
245,Chaukhutiya,6022.06647072,KHARKATIYA,29.891479,79.314135,Khrktaya,Kharayat,80.21626
246,Chaukhutiya,6024.96372609,BASBIRA,29.849671,79.373721,Khunapani,Pathar Khani,80.256
247,Chaukhutiya,6026.63349692,KANOLI TALLI,29.84147,79.328146,Kononi Talli,Kotali,80.31886
248,Chaukhutiya,6007.23165133,GAJAR,29.904194,79.311722,Kothyu,Kotyura,80.17775
249,Chaukhutiya,6017.03020477,KATYURA TAL,29.881838,79.410846,Kotura,Kotula,80.15024
250,Chaukhutiya,6020.02457609,KOTYURA MASI,29.835841,79.279087,Kotura,Kotula,80.15024
251,Chaukhutiya,6027.82901469,REETA CHAURA,29.864686,79.351381,Kumkhola,Kimkhola,80.38909
252,Chaukhutiya,5996.43203212,QUARALI,29.914354,79.294764,Kwarali Palli,Kawarali,79.89116
253,Chaukhutiya,5996.43203212,QUARALI,29.914354,79.294764,Kwarali Walli,Kawarali,79.89116
254,Chaukhutiya,6019.26699285,DHOUN,29.871121,79.346704,Kyasar Bairath,Bairakh,80.08611
255,Chaukhutiya,6029.97997067,LALURI,29.840518,79.318814,Laluri,Jalturi,80.33118
256,Chaukhutiya,6024.65175698,MAHAT GAON,29.859272,79.378665,Mahatgaon,Bhatgaon,80.26387
257,Chaukhutiya,6019.81023924,BHAGOTI,29.851562,79.307135,Majur  Bangari,Mahargari,80.27177
258,Chaukhutiya,6020.92913408,JATUWA,29.8494,79.303554,Majurjethua,Maura,80.18428
259,Chaukhutiya,6031.52864559,BHAGOTI,29.851562,79.307135,Majur Kanauri,Kanari,80.3891
260,Chaukhutiya,6030.84641821,BHAGOTI,29.851562,79.307135,Majur Manral,Majirkanda,80.38006
261,Chaukhutiya,6027.19673212,JATUWA,29.8494,79.303554,Majur nayak,Barthiya Kote Nayak,80.31956
262,Chaukhutiya,6026.06952298,MOHANA,29.808522,79.266141,Malla Mohana,Maithana,80.23811
263,Chaukhutiya,5982.3069122,TAJPUR MALLA,29.912636,79.344014,Malla Tajpur,Daulatpur,79.61216
264,Chaukhutiya,6024.68425072,KHATIYARI,29.888552,79.298116,Malli Khtiyari,Matiyali,80.28839
265,Chaukhutiya,6011.78330496,QUARALI,29.914354,79.294764,Malsakhet,Melkhet,80.22353
266,Chaukhutiya,6022.76252149,BAIES AOKHALA,29.905835,79.296521,Maltwani Palli,Matiyali,80.28839
267,Chaukhutiya,6022.76252149,BAIES AOKHALA,29.905835,79.296521,Maltwani Walli,Matiyali,80.28839
268,Chaukhutiya,5957.16707339,CHULAERASEM,29.93306,79.40986,Maludhar,Maludhar,79.42483
269,Chaukhutiya,6013.41490993,MADKU BHAKHAL,29.906053,79.33513,Markuwakhal,Rodi Madhye Simarkhal,80.21291
270,Chaukhutiya,6003.77445993,MASI,29.819235,79.280878,Masi,Bheta Mai Chak,79.96109
271,Chaukhutiya,6030.13607151,SEEMA,29.827894,79.261724,Masun,Maun Kote,80.34543
272,Chaukhutiya,5999.88540744,NAGHAD,29.900137,79.3348,Nagar,Navi Nagar,79.79976
273,Chaukhutiya,6004.75901449,BHAGOTI,29.851562,79.307135,Nagarseem,Navi Nagar,79.79976
274,Chaukhutiya,6016.80247693,NAUGAON BADIYA,29.87834,79.431231,Naogaon Bariya,Nagara Gara,80.20227
275,Chaukhutiya,6028.33793065,NAUGAON,29.844668,79.382997,Naugaon,Naugaon,80.30063
276,Chaukhutiya,6021.56352451,NYONI,29.873322,79.448959,Nyuni,Syunsi,80.25027
277,Chaukhutiya,6025.31745659,PAILI,29.862408,79.437526,Paili,Pali,80.3013
278,Chaukhutiya,6038.85424481,CHULAERASEM,29.93306,79.40986,Palangbari,Salagar,80.71748
279,Chaukhutiya,6037.07956604,PAN,29.798156,79.421023,Pan,Kuwa Pani,80.36151
280,Chaukhutiya,6025.40915799,KANRE,29.821367,79.298892,Papoli,Patoli,80.19532
281,Chaukhutiya,6024.21978102,PATAL GAON,29.857655,79.315828,Patalgaon,Pataligaon,80.31065
282,Chaukhutiya,6018.52974468,PIPAL DHAR,29.905703,79.355305,Pepal Dhar,Pathar Khani,80.256
283,Chaukhutiya,6015.17646581,PUNIYA BAGARD,29.917933,79.422568,Puniyabagar,Puniyal,80.18618
284,Chaukhutiya,6027.06953821,Ramangaon,29.828597,79.384809,Ramanagaon,Anragaon,80.29116
285,Chaukhutiya,5976.61200527,RAMPUR,29.922999,79.350734,Rampur,Ganga Rampur,79.52638
286,Chaukhutiya,6022.96788325,REETA CHAURA,29.864686,79.351381,Ritha Chaura,Balyani Chaura,80.29469
287,Chaukhutiya,6016.54913687,BHANOTIYA,29.935917,79.3405,Sabhabaithak,Bhaitari,80.31069
288,Chaukhutiya,6028.76859596,MAHAL CHAURA,29.837355,79.393671,Sadi Gaon,Barigaon,80.3434
289,Chaukhutiya,6016.73568521,CHINONI,29.860166,79.320038,Saklikurali,Sera Saunali,80.21185
290,Chaukhutiya,6042.03496481,KHARKATIYA,29.891479,79.314135,Salaagar,Salagar,80.71748
291,Chaukhutiya,6020.2517456,SEEMA,29.827894,79.261724,Seema,Leema Bhat,80.22435
292,Chaukhutiya,6020.83349014,GARDSIYARI,29.842455,79.370674,Seemapani,Mawani Dawani,80.28321
293,Chaukhutiya,6022.7051112,SIRA,29.834877,79.353275,Seera,Sera,80.3094
294,Chaukhutiya,6052.61737503,BAERATI,29.8088,79.417006,Selagarhi,Salagar,80.71748
295,Chaukhutiya,6011.91644692,SIMAL KHET,29.960355,79.341538,Simal Khet,Simalkote,80.25563
296,Chaukhutiya,6037.14291651,GAJAR,29.904194,79.311722,Sirda,Sirdang,80.65602
297,Chaukhutiya,6048.61872049,THAPLA,29.794604,79.272769,Sirda,Sirdang,80.65602
298,Chaukhutiya,6022.75458814,SIROLI,29.869336,79.367166,Siroli,Siroli,80.30715
299,Chaukhutiya,6020.81364015,SONGAON,29.888535,79.322023,Songaon,Saungaon Maya Bijara Kanda,80.27024
300,Chaukhutiya,6017.83662916,SUENGARI,29.926224,79.344618,Sungari,Sangari Malli,80.31834
301,Chaukhutiya,6027.93617164,BOHARA GAON,29.869897,79.307009,Sunoli,Sunkholi,80.38609
302,Chaukhutiya,6020.3741427,BAGWALI KHET,29.841803,79.272101,Surankotura,Suntara Pokhari,80.19199
303,Chaukhutiya,6013.45044199,SUNARIKHARI,29.847982,79.257778,Surna Rikhari Talli,Rakarthal,80.16272
304,Chaukhutiya,6018.14053299,REETA CHAURA,29.864686,79.351381,Talai,Gaila Tala,80.31021
305,Chaukhutiya,5989.28505919,TAJPUR TALLA,29.905982,79.346883,Talla Tajpur,Daulabadpur,79.69058
306,Chaukhutiya,6023.29027199,KHATIYARI,29.888552,79.298116,Talli Khtiyari,Titari,80.36175
307,Chaukhutiya,6017.62097662,NAUGAON BADIYA,29.87834,79.431231,Taraghtall,Burthi Tarali,80.30479
308,Chaukhutiya,6016.43481901,TATAL GAON,29.932828,79.34654,Tatalgaon,Pataligaon,80.31065
309,Chaukhutiya,6028.20707948,TERA GAON,29.879523,79.397886,Tedagaon,Tarigaon,80.35313
310,Chaukhutiya,6043.76922824,TIMTA,29.828372,79.327337,Temata,Tanta Gaon Roto,80.62462
311,Chaukhutiya,6022.26340228,THAPLA,29.794604,79.272769,Thapla,Thala,80.14552
312,Chaukhutiya,6024.38364733,KHATIYARI,29.888552,79.298116,Totanoliya,Taliya Nayabad,80.2864
313,Chaukhutiya,6031.51321513,UODILIKHAN,29.882728,79.331402,Udalikhan,Kalika,80.49077
314,Chaukhutiya,6002.89187739,ULAINI,29.830106,79.404353,Uledi,Naini Fuleri,79.88875
315,Chaukhutiya,6014.52042557,UOCHA WAHAN,29.803094,79.290217,Uncha wahan,Uncha Bauragunth,80.02986
316,Dwarahat,6037.33526745,NATA GUALI,29.783315,79.435318,Agar,Agar,80.32322
317,Dwarahat,6044.68194008,TAILI SUNOLI,29.707368,79.436154,Agina,Gaina,80.31399
318,Dwarahat,6027.42326122,ALMIYA GAON,29.784728,79.513974,Almiya Gaon,Kaligaon,80.11953
319,Dwarahat,6045.80942693,ARARI,29.703029,79.452307,Arari,Partari,80.35388
320,Dwarahat,6040.91264048,ORCHAUNALIYA,29.757032,79.486807,Aru Bagar,Bagar Toli,80.32686
321,Dwarahat,6025.61238062,ASHGOLI,29.72954,79.396174,Ashgoli,Adholi,80.12812
322,Dwarahat,6035.4198952,BABAN,29.76709,79.35563,Baban,Sukha Baran,80.24824
323,Dwarahat,6032.50979655,NAYAL-II,29.813055,79.464233,Bagargaon,Barigaon,80.3434
324,Dwarahat,6036.54864333,EADA,29.7311,79.34567,Bajina,Gajina,80.21356
325,Dwarahat,6018.00159331,DUDHOLI,29.798926,79.473833,Bajoli,Jajoli,80.11052
326,Dwarahat,6037.25331498,BAINALI,29.757328,79.514701,Baklani,Balyani Chaura,80.29469
327,Dwarahat,6017.05319338,BAMANPURI,29.775769,79.42266,Bamanpuri,Manipur,80.04755
328,Dwarahat,6028.86176945,BANOLI,29.74998,79.39458,Banoli,Bantoli,80.12103
329,Dwarahat,6032.7244613,BARETA,29.706119,79.410144,Baret,Baret,80.17985
330,Dwarahat,6043.83923934,SATINAU GAON,29.716173,79.444674,Bargal,Baralu,80.3151
331,Dwarahat,6027.09742817,BARI,29.75105,79.48581,Bari,Bari Anjaniya,79.92902
332,Dwarahat,6025.12634463,BEDHULI,29.754535,79.386975,Bari,Bari Anjaniya,79.92902
333,Dwarahat,6034.72470294,BASERA,29.738373,79.406527,Basera,Baseri,80.24374
334,Dwarahat,6043.14247861,BASULI SERA,29.72685,79.48414,Basulisera,Susera,80.30677
335,Dwarahat,6024.97120963,NATA GUALI,29.783315,79.435318,Bawas,Barwa Lekh,80.13614
336,Dwarahat,6032.61406836,BAYALA,29.796495,79.395197,Bayela,Baya Gaon,80.3413
337,Dwarahat,6027.27064092,BEDHULI,29.754535,79.386975,Beduli,Badauli,80.05793
338,Dwarahat,6062.75051738,EADA,29.7311,79.34567,Belkuti,Kuti,80.81122
339,Dwarahat,6040.24767144,BHANDAR GAON,29.73192,79.47055,Bhandar Gaon,Bhandar Manar,80.20036
340,Dwarahat,6040.07061963,BHAT KOTE,29.757407,79.348515,Bhat Kote,Bachakot,80.37781
341,Dwarahat,6027.69864487,BHATORA,29.785764,79.494602,Bhatora,Khet Bharar,80.25689
342,Dwarahat,6039.47224146,BHET,29.710736,79.466408,Bhet,Bheta Dhanik,80.254
343,Dwarahat,6028.85186036,BHUMKIYA,29.784391,79.417102,Bhukmiya,Bhumiyathal,80.254
344,Dwarahat,6039.92616394,MALLI MIRAI,29.74702,79.435142,Bhura,Dhaun Dhura,80.31895
345,Dwarahat,6035.61285184,VIJAY PUR,29.778477,79.443199,Bijepur,Bijauri,80.33635
346,Dwarahat,6032.83896373,BINTA,29.781682,79.487639,Binta,Binda Tiwari,80.19579
347,Dwarahat,6025.52387133,NAYAL-I,29.766612,79.497597,Budha Surna,Basaura,80.16798
348,Dwarahat,6009.85921532,JAMINIPAR,29.71541,79.35245,Budhina,Budhan,79.78695
349,Dwarahat,6070.3208134,MALYAL GAON,29.72144,79.547219,Bumodi,Bundi,80.83391
350,Dwarahat,6032.76879731,BUNGA,29.765444,79.418431,Bunga,Udya Bunga Thalkedar,80.22839
351,Dwarahat,6044.56262545,CHAMINI,29.70926,79.38346,Chamini Malli,Chanauli,80.34982
352,Dwarahat,6038.90586636,CHATENA,29.76402,79.411367,Chamoli,Chamtoli,80.3629
353,Dwarahat,6031.23723905,RATKHAL,29.823883,79.454074,Chari,Chauri,80.23854
354,Dwarahat,6036.31939355,CHATGULA,29.745067,79.40803,Chatgula,Chaudla,80.20574
355,Dwarahat,6054.33749307,CHAYALI,29.713241,79.473531,Chayli,Chal,80.59898
356,Dwarahat,6038.50832448,CHHABISA,29.729042,79.45298,Chhabisa,Chhabbisa,80.30176
357,Dwarahat,6036.54603528,CHANA,29.70671,79.472157,Chhana,Chhana Pandey,80.19071
358,Dwarahat,6029.31451436,CHATENA,29.76402,79.411367,Chhatena,Chhana Pandey,80.19071
359,Dwarahat,6036.22599343,MASAR,29.732517,79.44728,Chilal Gaon,Devlalgaon,80.22809
360,Dwarahat,6033.28601778,TALLI MIRAI,29.734438,79.438657,Chora,Chora Pani,80.11538
361,Dwarahat,6007.47696024,BAYALA,29.796495,79.395197,Dabhar,Deyo Dhar,79.72049
362,Dwarahat,6036.40850942,Dadholi,29.798926,79.473833,Dadholi,Dholi,80.3351
363,Dwarahat,6034.89248424,DAIRI,29.77399,79.440613,Dairi,Darti,80.32403
364,Dwarahat,6032.01070798,BINTA,29.781682,79.487639,Dank,Bheta Dhanik,80.254
365,Dwarahat,6037.54597026,DARMAR,29.699042,79.430746,Darmar,Darma,80.28648
366,Dwarahat,6045.18409293,DAULARH GUNTH,29.712561,79.417882,Daularh Gunth,Daulani,80.36282
367,Dwarahat,6031.09923915,ORCHAUNALIYA,29.757032,79.486807,Dhamoli,Chamoli,80.14377
368,Dwarahat,6040.75328138,DHANKHAL GAON,29.717232,79.480031,Dhankhal Gaon,Anragaon,80.29116
369,Dwarahat,6037.22673293,DHANYARI,29.712391,79.406194,Dhanyari,Dhaniya Khan,80.26772
370,Dwarahat,6035.3775772,DHARAM GAON,29.759002,79.428428,Dharam Gaon,Anragaon,80.29116
371,Dwarahat,6031.72479917,RANA,29.76916,79.387952,Dhar Gaon Gunth,Amgounth,80.15926
372,Dwarahat,6034.44094555,JAMAR,29.77336,79.422069,Dhyari,Dhari Air,80.25539
373,Dwarahat,6042.44775134,DOTOL GAON,29.732669,79.506537,Dotal Gaon,Budalgaon,80.298
374,Dwarahat,6037.3043654,DUDHOLI,29.798926,79.473833,Dudhouli,Dholi Dhunga,80.3447
375,Dwarahat,6032.29328146,BEDHULI,29.754535,79.386975,Dungiyari,Dungari Joshi,80.22484
376,Dwarahat,6036.30781034,EADA SERA,29.737039,79.490473,Eda Sera,Pedsera,80.16886
377,Dwarahat,6034.73174469,TALLI MIRAI,29.734438,79.438657,Egyara,Dum Gara,80.04153
378,Dwarahat,6035.62649682,FALDWARI,29.792709,79.390647,Faldwari,Kuchala Bhadwari,80.3381
379,Dwarahat,6017.2223186,GANOLI,29.77557,79.364797,Ganoli,Banoli Mantoli,80.07268
380,Dwarahat,6025.78757389,GHANGLAURI,29.779193,79.44038,Ghaglori,Chhalori,80.18945
381,Dwarahat,6022.72865501,MATELA,29.784685,79.480658,Ghaugiya,Haliya Maliya,80.11501
382,Dwarahat,6051.07736844,SALANA,29.752322,79.414376,Ghusela,Khela,80.58581
383,Dwarahat,6023.95145826,GUPTALI,29.743224,79.392901,Guptali,Guthal Gaon,80.09785
384,Dwarahat,5972.89110608,GAWAR,29.779921,79.403661,Gwar,Dewal Gwar,79.46145
385,Dwarahat,6035.41032566,KUNSIYAARI,29.700338,79.3852,Hatela Talla,Chatala,80.13677
386,Dwarahat,6017.78213365,DAULARH GUNTH,29.712561,79.417882,Hathela,Latela,79.98842
387,Dwarahat,6030.65123618,TALLI MIRAI,29.734438,79.438657,Hulank Talli Mirai,Mana Chulankar,80.26214
388,Dwarahat,6038.61525895,JAKH,29.767313,79.517753,Jakh,Jakh Pat,80.30877
389,Dwarahat,6036.92023783,JAMAR,29.77336,79.422069,Jamar,Jamtari,80.29146
390,Dwarahat,6045.0958071,JAMINIPAR,29.71541,79.35245,Jaminipar,Jamir Pani,80.35703
391,Dwarahat,6044.399499,JAMINIWAR,29.72134,79.34948,Jaminiwar,Jamir Pani,80.35703
392,Dwarahat,6029.6722465,TALLI BITHOLI,29.75525,79.361175,Jhola,Dhoon Khola,80.21025
393,Dwarahat,6041.25038256,ASHGOLI,29.72954,79.396174,Jhuria,Dhaun Dhura,80.31895
394,Dwarahat,6020.64065814,KAMA,29.75068,79.49278,Kama,Kamad,80.02736
395,Dwarahat,6038.73859199,EADA SERA,29.737039,79.490473,Kanal Gaon,Anragaon,80.29116
396,Dwarahat,6031.65769307,KANDE,29.7612,79.37046,Kande,Tamta Kande,80.18058
397,Dwarahat,6038.80501884,KAPHARA,29.722337,79.435796,Kaphara,Khara Giri,80.16904
398,Dwarahat,6021.01493686,RANA,29.76916,79.387952,Kauna,Kana Pokhari,80.05096
399,Dwarahat,6030.68315327,KHALANA,29.708714,79.37114,Khalna,Bamangaon Khalsa,80.19896
400,Dwarahat,6042.49199976,TALLI MIRAI,29.734438,79.438657,Khari,Khairi Gaon,80.23516
401,Dwarahat,6029.99953685,RATKHAL,29.823883,79.454074,Kholiya Baj,Bazar Lagga Kholiya Gaon,80.32568
402,Dwarahat,6035.55741977,PANER GAON,29.725359,79.475281,Khunapant,Dhunamani,80.29894
403,Dwarahat,6040.40142541,MALLI KIRAULI,29.728821,79.419923,Kiroli Talli,Kotali,80.31886
404,Dwarahat,6017.99639116,TIPOLA,29.68529,79.37235,KololaVagad,Kholagaon,79.93795
405,Dwarahat,6028.56778343,KOTILLA,29.776687,79.410789,Kotila,Kotula,80.15024
406,Dwarahat,6060.16827221,KUAIE,29.762666,79.40776,Kui,Kuti,80.81122
407,Dwarahat,6049.23516274,KUMMALT,29.713518,79.427131,Kummaalt,Khumati,80.46017
408,Dwarahat,6034.35745493,KUNA,29.72143,79.40419,Kuna,Kunda Patni,80.14519
409,Dwarahat,6043.21644263,KUNTHYARI,29.749183,79.467498,Kunthari,Kutheri Urf Kuseri,80.34426
410,Dwarahat,6042.59818622,KUNSIYAARI,29.700338,79.3852,Kusnyaari,Kunari,80.23374
411,Dwarahat,6016.46570371,NAULA KOT,29.76014,79.489536,Kwaradi,Kawarali,79.89116
412,Dwarahat,6023.59612795,TALLA SURANA,29.796963,79.485893,Malla Surana,Malaun,80.2238
413,Dwarahat,6025.30978552,MALLI BITHOLI,29.771762,79.371976,Malli Bitholi,Bans Maitoli,80.14723
414,Dwarahat,6033.48696967,KUAIE,29.762666,79.40776,Malli Kahali,Gargaon Lagga Maichali,80.25721
415,Dwarahat,5980.70929675,MALLI MIRAI,29.74702,79.435142,Malli Mirai,Mallipali,79.37313
416,Dwarahat,6040.0474295,PAITHANI,29.72796,79.36741,Malli Suwali,Kaisali,80.32459
417,Dwarahat,6043.15117708,DOTOL GAON,29.732669,79.506537,Malonj,Malan Nadu,80.34335
418,Dwarahat,6035.06679397,MANELA,29.697724,79.463828,Manela,Mana Chulankar,80.26214
419,Dwarahat,6007.20782816,MASAR,29.732517,79.44728,Masar,Maswari,79.83905
420,Dwarahat,6025.57117295,MATELA-I,29.784685,79.480658,Matela,Matena,80.25814
421,Dwarahat,6034.93656404,MATELA-II,29.694507,79.445636,Matela,Matena,80.25814
422,Dwarahat,6020.15412627,MATELA,29.784685,79.480658,Matela Malla,Dadamalla,79.95405
423,Dwarahat,6023.59298664,MATELA,29.784685,79.480658,Matela Talla,Mataila,80.03709
424,Dwarahat,6030.85899079,MELTA,29.737621,79.460038,Melta,Mel Kura,80.18923
425,Dwarahat,6029.80572545,TALLI BITHOLI,29.75525,79.361175,Mohani,Mani Dhami,80.27534
426,Dwarahat,6031.03151589,CHHABISA,29.729042,79.45298,Nahra Gunth,Taragun,80.16904
427,Dwarahat,6035.11155559,KUAIE,29.762666,79.40776,Nainoli,Naini Patal,80.2807
428,Dwarahat,6046.22243553,NAINI,29.67335,79.49288,Nairi,Naini Patal,80.2807
429,Dwarahat,6033.03781108,FALDWARI,29.792709,79.390647,Narh,Garh Gaon,80.30276
430,Dwarahat,6033.99211482,BUDHAULI,29.754535,79.386975,Nar Singh,Kanda Mansingh,80.28717
431,Dwarahat,6027.36966866,NATA GUALI,29.783315,79.435318,Nataguli,Latauli,80.11836
432,Dwarahat,6038.0703258,NAULA KOT,29.76014,79.489536,Nati Korari,Korpari (kuleri),80.28269
433,Dwarahat,6036.25094083,NOUSAR,29.721363,79.484669,Nausar,Nasar Khera,80.15041
434,Dwarahat,6025.1515952,NAYAL-II,29.813055,79.464233,Nayal,Nayal,80.10455
435,Dwarahat,6030.77125425,NAYAL-I,29.766612,79.497597,Nayl,Nayal,80.10455
436,Dwarahat,6040.8890773,ORCHAUNALIYA,29.757032,79.486807,Orchaunaliya,Chanauli,80.34982
437,Dwarahat,6034.64572801,PAITHANI,29.72796,79.36741,Paithani,Paiti Mafi,80.1528
438,Dwarahat,6037.40900994,PARKOT,29.77614,79.498101,Parkote,Amkote,80.33629
439,Dwarahat,6044.70614952,DOTOL GAON,29.732669,79.506537,Petasal,Taal Gunth,80.24603
440,Dwarahat,6028.10453842,PINOLI,29.741936,79.426544,Pinoli,Poli Dhek,80.07813
441,Dwarahat,6032.11850458,NAYAL-II,29.813055,79.464233,Pokhari,Kali Pokhari,80.28173
442,Dwarahat,6000.99445355,TIPOLA,29.68529,79.37235,Ponali,Sonali Talli,79.59292
443,Dwarahat,6032.5915282,Pujakhet,29.767313,79.517753,Pujakhet(Hat Anshik),Darim Khola(anshik),80.20869
444,Dwarahat,6030.54131291,MALLI MIRAI,29.74702,79.435142,Purdiya,Bhalu Udiyar,80.21124
445,Dwarahat,6042.41462826,RANA,29.76916,79.387952,Rana,Ranuwa,80.41155
446,Dwarahat,6016.49292087,RATKHAL,29.823883,79.454074,Ratkhal,Amthal,80.13637
447,Dwarahat,6032.57881668,RAWAL SERA,29.73976,79.48353,Rawal Sera,Rawal Gaon,80.17132
448,Dwarahat,6030.11831285,RAVARI,29.74709,79.4848,Rawari,Bhandari Gaon Rajwar,80.17889
449,Dwarahat,6050.91071956,RIYUNI MALLI,29.679675,79.511651,Riyani Malli,Riyansi Bamangoan,80.26816
450,Dwarahat,6039.50246602,BUDHAULI,29.754535,79.386975,Sagnate,Kante Borgaon,80.32095
451,Dwarahat,6043.75082414,SAKUNI,29.72679,79.469237,Sakuni,Sakun,80.31006
452,Dwarahat,6019.07545415,Pujakhet,29.767313,79.517753,Salal Khola,Jakhola,79.95265
453,Dwarahat,6036.36094771,SALANA,29.752322,79.414376,Salna,Sanna,80.2935
454,Dwarahat,6047.58383614,NATA GUALI,29.783315,79.435318,Selisar,Sela,80.6163
455,Dwarahat,6047.83162148,SALLI SUNOLLI,29.707333,79.441955,Selisunoli,Sunkholi,80.38609
456,Dwarahat,6043.38947279,SATINAU GAON,29.716173,79.444674,Seti naugaon,Naugaon,80.30063
457,Dwarahat,6036.2121163,KOTILLA,29.776687,79.410789,Shyotoli,Sitoli,80.33845
458,Dwarahat,6025.11314449,NAYAL-II,29.813055,79.464233,Silang Sera,Silang Tak,80.12564
459,Dwarahat,5963.54549626,SIMAL GAON,29.740645,79.378563,Simal Gaon Avam Chak Ghune,Malanachaknail,79.34053
460,Dwarahat,6015.53074841,PARKOT,29.77614,79.498101,Simlti,Siglti,80.03612
461,Dwarahat,6035.29781245,TAILI SUNOLI,29.707368,79.436154,Sunoli Talli,Sera Saunali,80.21185
462,Dwarahat,6033.50292783,TALLI MIRAI,29.734438,79.438657,Syal Suna,Syala,80.20169
463,Dwarahat,6042.80841721,ALMIYA GAON,29.784728,79.513974,Tail Mainari,Amatari,80.40937
464,Dwarahat,6021.77174098,TALLA SURANA,29.796963,79.485893,Talla Surana,Tallisar,80.10668
465,Dwarahat,6034.44314845,TALLI BITHOLI,29.75525,79.361175,Talli Bitholi,Raitoli,80.27941
466,Dwarahat,6018.20059667,TALLI KAHALI,29.755337,79.39843,Talli Kahali,Makhauli,80.07252
467,Dwarahat,6033.68474321,TALLI MIRAI,29.734438,79.438657,Talli Mirai,Nagla Tarai,80.02466
468,Dwarahat,6040.0474295,PAITHANI,29.72796,79.36741,Talli Suwali,Kaisali,80.32459
469,Dwarahat,6028.86293211,CHANA,29.70671,79.472157,Tamakhani,Jara Jakhani,80.06958
470,Dwarahat,6044.83917022,JAMINIWAR,29.72134,79.34948,Tarigaon,Tarigaon,80.35313
471,Dwarahat,6043.70949786,EADA,29.7311,79.34567,Tergaon,Tarigaon,80.35313
472,Dwarahat,6037.41403197,KUNTHYARI,29.749183,79.467498,Thaniya Kande,Nainiyabad,80.27749
473,Dwarahat,6027.07638174,TIPOLA,29.68529,79.37235,Tipola,Tola,80.20481
474,Dwarahat,6043.01131703,ORCHAUNALIYA,29.757032,79.486807,Tiwari Gaon,Tarigaon,80.35313
475,Dwarahat,6026.55121543,TODHARA,29.805832,79.452922,Todhara,Dhara Pani,80.207
476,Dwarahat,6032.76335059,BAYALA,29.796495,79.395197,Tumari,Umari,80.31879
477,Dwarahat,6016.56821354,UBHYARI,29.717843,79.435867,Ubhayari,Bhanyari,79.94162
478,Dwarahat,6040.97925558,PANER GAON,29.725359,79.475281,Udagal,Dugal Gaon,80.31794
479,Dwarahat,6038.31107275,BHATORA,29.785764,79.494602,Uleni,Daulani,80.36282
480,Dwarahat,6037.64979958,CHATENA,29.76402,79.411367,Uncha Kote,Uchakote,80.34865
481,Dwarahat,6026.12355604,TIPOLA,29.68529,79.37235,Wakshna,Jakha Rawat,80.06487
482,Dwarahat,6006.258612,WALNA,29.77726,79.38009,Walna,Walana,79.80627
483,Dwarahat,6040.85465504,BUDHAULI,29.754535,79.386975,wudholi,Dholi Dhunga,80.3447
484,Sult,6035.51385919,ACHHRON,29.592238,79.131374,Achhron Malla,Baret Chonala,80.10235
485,Sult,6042.20779623,ACHHRON,29.592238,79.131374,Achhron Talla,Chhijatala,80.27327
486,Sult,6034.33344397,AJOLI MALLI,29.594187,79.142142,Ajoli Malli,Saimali,80.13022
487,Sult,6008.27562974,AJOLI TALLI,29.594936,79.147805,Ajoli Talli,Bamoritalli Bandobasti,79.53891
488,Sult,6051.57093943,NAG CHULA,29.615898,79.218565,Amdali,Gaidali Nadu,80.34008
489,Sult,6032.26263149,AANSU TALE,29.693845,79.166235,Amdhar,Wadni Dhar,80.28646
490,Sult,6030.86118489,AANSU TALE,29.693845,79.166235,Ansutale,Atal Gaon,80.19217
491,Sult,6058.29999124,DABHRA SAURAL,29.553327,79.190113,Bagadiya Sain,Bagadi Hat,80.36103
492,Sult,6064.27998257,JAMARIYA,29.597516,79.095814,Baluli,Bauling,80.62208
493,Sult,6053.83115491,BAMAN GAON,29.612132,79.220108,Baman Gaon,Riyansi Bamangoan,80.26816
494,Sult,6042.50973201,BAMUDA,29.643231,79.236031,Bamauraha,Maura,80.18428
495,Sult,6050.15989851,NAG TALLE,29.608758,79.117732,Bandharan Basnal,Bansdhar,80.3255
496,Sult,6050.15989851,NAG TALLE,29.608758,79.117732,Bandharan Bist,Bansdhar,80.3255
497,Sult,6033.43495734,JAMARIYA,29.597516,79.095814,Banghat,Madhye Purana Dak Bangla,80.05529
498,Sult,6042.25363781,BARHALIA,29.683448,79.137195,Bangidhar,Bansdhar,80.3255
499,Sult,6048.67069765,BAN KOTA,29.576954,79.245806,Ban Kota,Bankoo,80.25912
500,Sult,6033.33040855,JAMARIYA,29.597516,79.095814,Barasi,Bara Bhuriya,79.88347
501,Sult,6041.7224822,BARET,29.587937,79.152738,Baret,Baret,80.17985
502,Sult,6042.88366532,BARHALIA,29.683448,79.137195,Barhaliya,Barthiya Kote Nayak,80.31956
503,Sult,6008.04553995,BAUR TALLA,29.600482,79.170544,Baurh Talla,Bamoritalli Bandobasti,79.53891
504,Sult,6044.24607347,BAMAN GAON,29.612132,79.220108,Beb,Bera,80.17962
505,Sult,6045.52914758,BUDAKOT,29.638261,79.086592,Bhaisya Gangashri,Sangari Malli,80.31834
506,Sult,6053.44616965,BHAKRA KOT,29.568208,79.109801,Bhakra Kote,Barakot,80.3255
507,Sult,6028.89752357,BHAWALI,29.683695,79.158303,Bhawali Malli,Sinoli Bhawalta,80.0918
508,Sult,6041.4653057,BHAWALI,29.683695,79.158303,Bhawali Talli,Bhaitari,80.31069
509,Sult,6052.47972298,BHAKRA KOT,29.568208,79.109801,Bhel Gaon,Bhatgaon,80.26387
510,Sult,6050.43219132,BHINE,29.603512,79.157117,Bhinne,Hinkote,80.33745
511,Sult,6033.59902704,BHITAKOT,29.751411,79.118107,Bhitakote,Hinkote,80.33745
512,Sult,6030.56112026,BHAUNDANDA,29.641572,79.098131,Bhondada,Hat Bhandar,80.10449
513,Sult,6039.07479756,BHYARI,29.663337,79.145169,Bhyari,Bhauri,80.24202
514,Sult,6035.64367385,BIRAL GAON MALLA,29.745968,79.157327,Biralgaon Malla,Budalgaon,80.298
515,Sult,6026.44840297,KALI GAR,29.725728,79.180783,Biralgaon Talla,Baragaon,80.20826
516,Sult,6042.32337362,RARNTHMAL,29.692043,79.121945,Bora Gaon,Kante Borgaon,80.32095
517,Sult,5997.25611001,BAUR MALLA,29.592756,79.169256,Bour Malla,Bardomalla,79.43339
518,Sult,6045.40105008,BUDAKOT,29.638261,79.086592,Burakota,Barakot,80.3255
519,Sult,6024.46622204,CHAKAR GAON,29.613253,79.111403,Chakkar goan,Chakrigaon,79.97441
520,Sult,6045.96882556,KOTA CHAMI,29.647292,79.106801,Chami,Chami Rautela,80.34805
521,Sult,6046.37819784,CHAMKANA AGHE,29.657406,79.183275,Chamkana Adha,Kanadhar,80.34359
522,Sult,6046.54497381,CHAMKANA DADARI,29.655245,79.178623,Chamkana Dadharya,Kanadhar,80.34359
523,Sult,6030.01438958,CHAMKANA DADARI,29.655245,79.178623,Chamkana Manral,Chankana,80.10376
524,Sult,6048.49136504,SAHAYI LAIN,29.636352,79.194056,Chamori,Chami Rautela,80.34805
525,Sult,6036.34466731,CHACH,29.718886,79.167993,Chanch,Manch,80.19629
526,Sult,6056.68826365,CHARI KIYARI,29.537581,79.228421,Chari Kyari,Khariyani,80.31067
527,Sult,6048.43416298,KOTLI MALLI,29.612555,79.206182,Charwan,Balyani Chaura,80.29469
528,Sult,6037.94924189,KATARIA TALLA,29.678433,79.167667,Chhater Munil,Chhatri Gaon,80.25289
529,Sult,6035.74827143,RIVALI PALLI,29.70465,79.119657,Chhoya,Chokyal Gaon,80.26751
530,Sult,6037.33999827,DUNGARI,29.642197,79.235459,Chounoli,Jhunkoli,80.15741
531,Sult,6013.0692705,PATIYA CHAURA,29.684151,79.184464,Choutara,Chuhara,79.90337
532,Sult,6036.62531628,THAL TALAR,29.634935,79.188374,Churi Jakhani,Churani,80.10644
533,Sult,6051.67049746,DABHRA SAURAL,29.553327,79.190113,Dabhara Saural,Dhanaura,80.22614
534,Sult,6040.88622017,DADHRIYA,29.648479,79.186636,Dadhariya,Dhaniya Khan,80.26772
535,Sult,6051.12956621,DANGKADAKOTI,29.612823,79.252983,Dangkara Koti,Dangati,80.33423
536,Sult,6063.23082631,DANGULA,29.662412,79.177686,Dangula,Pangla,80.67618
537,Sult,6033.43544682,DARMI,29.701984,79.182027,Darmi,Darma,80.28648
538,Sult,6037.6296592,DUNGARI,29.642197,79.235459,Darmoli,Darmoli,80.20078
539,Sult,6046.29924677,DEVAYAL,29.638623,79.154451,Debayal,Baya Gaon,80.3413
540,Sult,6025.16149333,RIVALI PALLI,29.70465,79.119657,Debikhal,Bhaiskhal,80.16438
541,Sult,6050.51401776,DHACHKOT,29.647751,79.172071,Dhach Kote,Bachkot,80.30309
542,Sult,6038.04957241,RARNTHMAL,29.692043,79.121945,Dhairagaon,Anragaon,80.29116
543,Sult,6044.38699375,BHAKRA KOT,29.568208,79.109801,Dhanas,Dhakna Badola,80.09494
544,Sult,6046.46357365,MACHHOR,29.590813,79.227702,Dharkot,Tharkot,80.18929
545,Sult,6041.06399974,JALIKHAN,29.675468,79.153826,Dhopari,Dhari Air,80.25539
546,Sult,6055.235834,DUNGA MOHAN,29.584543,79.21563,Dunga Mohan,Dunga Bora,80.26221
547,Sult,6047.95679129,DUNGRA,29.635936,79.110783,Dungara,Dungra Bora Chalsilkot,80.25847
548,Sult,6045.50495529,DUNGARI,29.642197,79.235459,Dungari,Dungri,80.28832
549,Sult,6045.09457503,KOTLI MALLI,29.612555,79.206182,Dungaria Sera,Dungari Joshi,80.22484
550,Sult,6049.81320629,DAYONA,29.614812,79.158742,Dyona,Dokana,80.34114
551,Sult,6044.26394957,DEVRADI,29.659484,79.22901,Dyurari,Gdyuri,80.3168
552,Sult,6032.53576291,PASIYA,29.711002,79.147819,Geluwa Danda,Upadada,80.31073
553,Sult,6043.91426086,GETHIYA,29.717942,79.127417,Gethiya,Geti Gada,80.40296
554,Sult,6045.19971609,GHANYAL,29.684113,79.206391,Ghanyal,Gayal,80.26806
555,Sult,6043.59127934,NAG CHULA,29.615898,79.218565,Gharkheton,Loharkhet,80.24466
556,Sult,6051.80082246,BHITAKOT,29.751411,79.118107,Ghuruwa Dhunga,Sagri Dhakdhauna,80.67075
557,Sult,6026.90553899,BHAKRA KOT,29.568208,79.109801,Ghweri,Gwari Talli,79.92096
558,Sult,6052.21166938,KANE KHALPATTI,29.615224,79.151225,Gingrai,Ghigharani,80.37312
559,Sult,6030.65888851,GULAR,29.768885,79.131365,Gular,Gudar,80.30167
560,Sult,6042.97153279,NAG CHULA,29.615898,79.218565,Haneri,Hateri (dugri),80.20408
561,Sult,6048.91692034,HARDA TADIYAL,29.600779,79.182895,Harara Tariyal,Bharkatiya Joshi,80.25927
562,Sult,6052.57125947,HARDA MOLEKHI,29.595103,79.189321,Hararhamaulekhi,Chamlekh,80.34922
563,Sult,6051.3445506,JAKH,29.613864,79.248246,Jakh,Jakh Pat,80.30877
564,Sult,6024.51928812,MAINAKOT,29.663352,79.115423,Jakhal,Jakha Rawat,80.06487
565,Sult,6027.30494826,JALIKHAN,29.675468,79.153826,Jalikhan,Jara Jakhani,80.06958
566,Sult,6036.15211311,MAINAKOT,29.663352,79.115423,Jamani,Mani Dhami,80.27534
567,Sult,6029.80754523,NADOLI,29.643872,79.138764,Jamoli,Jajoli,80.11052
568,Sult,6049.59455627,JAMARIYA,29.597516,79.095814,Jamriya,Tameriya,80.26019
569,Sult,6035.54053064,KAFAL GAON,29.745968,79.157327,Jashkote,Amkote,80.33629
570,Sult,6004.358111,JASPUR KOT,29.674421,79.145052,Jaspurkote,Jaspur Khaulia,79.59534
571,Sult,6012.22257044,JASPUR KOT,29.674421,79.145052,Jaspur Patawal,Chorgalia Jasura,79.70623
572,Sult,6004.358111,JASPUR KOT,29.674421,79.145052,Jaspursidh,Jaspur Khaulia,79.59534
573,Sult,6027.48073099,JASPUR TALLA,29.67985,79.12969,Jaspur Simal,Jarmal Gaon,80.0875
574,Sult,6011.37654535,JASPUR TALLA,29.67985,79.12969,Jaspur Talla,Chorgalia Jasura,79.70623
575,Sult,6045.34567636,JHAR GAON,29.613253,79.111403,Jhargaon,Gargaon Lagga Maichali,80.25721
576,Sult,6029.22384664,JHIMAR,29.745045,79.148003,Jhimar,Himtara,80.18578
577,Sult,6039.25313471,JHIPA,29.698722,79.194588,Jhipa,Ojha Talla,80.31316
578,Sult,6041.5864561,JIHAR,29.640271,79.249761,Jihara,Dhara Pani,80.207
579,Sult,6037.89749074,GARKOT TALLA,29.728275,79.121204,Jogyura,Jogyura,80.36141
580,Sult,6031.60064048,KAFAL GAON,29.745968,79.157327,Kafalgaon,Kafalta Talla,80.17455
581,Sult,6035.95487079,KAFALTA,29.710771,79.177011,Kafalta Talla,Kafalta Malla,80.1759
582,Sult,6034.84188088,KALI GAON,29.683241,79.180812,Kaligaon,Oligaon,80.21008
583,Sult,6028.68908789,KALI GAR,29.725728,79.180783,Kaligarh,Kaligaon,80.11953
584,Sult,6042.46540748,JALIKHAN,29.675468,79.153826,Kalsir,Kali Pokhari,80.28173
585,Sult,6044.99630927,KANE KHALPATTI,29.615224,79.151225,Kande Khalpati,Khilpati,80.18223
586,Sult,6022.4671613,KAFALTA,29.710771,79.177011,Kaphalta Malla,Kaphalta Birgwali,80.10061
587,Sult,6045.79076127,KARGAT,29.639107,79.136627,Karget,Naret,80.32527
588,Sult,6021.52036103,KATARIA TALLA,29.678433,79.167667,Katriya Malla,Matiyala,79.99237
589,Sult,6023.40397316,KATARIA TALLA,29.678433,79.167667,Katriya Talla,Bokal Katiya,80.07105
590,Sult,6042.3013763,MAWAL GAON,29.700177,79.137894,Kaulapani,Daulani,80.36282
591,Sult,6047.65520115,NAWAL GAON II,29.612922,79.182167,Khaderagaon,Anragaon,80.29116
592,Sult,6039.00641086,KHATAL GAON,29.701192,79.158725,Khatalgaon,Pataligaon,80.31065
593,Sult,6045.45128689,KHATOLI,29.615083,79.231652,Khatoli,Khartoli,80.3167
594,Sult,6057.50883932,KHOLYUN KIYARI,29.539571,79.210132,Khoulyo Kyari,Bazar Lagga Kholiya Gaon,80.32568
595,Sult,6038.93870043,KHUMAR,29.663225,79.162807,Khumarh,Marh,80.22486
596,Sult,6044.68620834,NADOLI,29.643872,79.138764,Koilekh,Saurh Lekh,80.28729
597,Sult,5970.77611544,KOOPI,29.619464,79.102872,Kopi,Kopi,79.10964
598,Sult,6034.04336245,KOTA CHAMI,29.647292,79.106801,Kota,Kota,80.22845
599,Sult,6049.91280258,KOTLI MALLI,29.612555,79.206182,Kotali Malli,Kotali,80.31886
600,Sult,6049.54456274,KOTLI TALLI,29.615461,79.202951,Kotali Talli,Kotali,80.31886
601,Sult,6044.6088174,KOTHAL GAON,29.588023,79.202818,Kothal Gaon,Kanalgaon,80.10805
602,Sult,6042.60501196,KHUMAR,29.663225,79.162807,Kuloli,Kulouli,80.21988
603,Sult,6034.58374607,BARHALIA,29.683448,79.137195,Lohargaon,Orgaon,80.23898
604,Sult,6040.88782889,LUHERA,29.593818,79.197897,Luherha,Khetar Ukhera,80.06287
605,Sult,6057.6657903,MACHHOR,29.590813,79.227702,Machhor,Marchha,80.53069
606,Sult,6043.2288909,MAINAKOT,29.663352,79.115423,Maina Kote,Hinkote,80.33745
607,Sult,6043.59668432,MAITHANI,29.635618,79.171581,Maithani,Maithana,80.23811
608,Sult,6033.506681,GARHKOT MALLA,29.733764,79.127651,Malla Garhkote,Simalkote,80.25563
609,Sult,6036.67224944,MHAROLI MALLI,29.594187,79.142142,Malli Mahroli,Mairoli,80.00392
610,Sult,6036.91340921,MANGRO,29.652333,79.096971,Mangron sirau,Mansau,80.17913
611,Sult,6041.68202921,MANHAIT,29.686432,79.172295,Manhaite,Mahat Gaon,80.32733
612,Sult,6045.97865545,POKHARI MALLI,29.648696,79.155002,Manral Tanaula,Manthala,80.29851
613,Sult,6033.49951953,MASARIA BAZ,29.747528,79.129447,Masaniyabanj,Madhnayabad,80.28848
614,Sult,6031.95523382,MATKHANI,29.635618,79.171581,Matakhani,Jara Jakhani,80.06958
615,Sult,6047.1031448,KANE KHALPATTI,29.615224,79.151225,Matwash,Sinkholi Urf Matar Rautela,80.28107
616,Sult,6042.38381609,MOULEKH,29.66731,79.156521,Maulekh,Saurh Lekh,80.28729
617,Sult,6027.94355234,GARKOT TALLA,29.728275,79.121204,Mavalgaon,Kanalgaon,80.10805
618,Sult,6023.37501296,BARHALIA,29.683448,79.137195,Mayal Bakhal,Makhauli Suzi Bisodi,80.03686
619,Sult,6031.28746926,MAWAL GAON,29.700177,79.137894,Mayal Gaon,Kanalgaon,80.10805
620,Sult,6047.16734469,BAMUDA,29.643231,79.236031,Medari,Umari,80.31879
621,Sult,6038.76293155,NAWAL GAON I,29.695641,79.146315,Mijholi,Majholi,80.31032
622,Sult,6050.40736243,KOTLI TALLI,29.615461,79.202951,Mijhora,Majhera,80.28875
623,Sult,6038.57037907,RIVALI PALLI,29.70465,79.119657,Morgarh,Garh Gaon,80.30276
624,Sult,6044.01601763,MUNRA,29.668723,79.129705,Munra,Muna Kote,80.30909
625,Sult,6031.02162627,NADOLI,29.643872,79.138764,Nadoli,Adholi,80.12812
626,Sult,6051.15484105,NAG CHULA,29.615898,79.218565,Nagachula,Gachuli,80.35504
627,Sult,6039.45531922,NAG TALLE,29.608758,79.117732,Nagtale,Atal Gaon,80.19217
628,Sult,6028.54734613,NAIKARA,29.726771,79.14814,Naikana,Naikina Pandey,80.18312
629,Sult,6040.66200616,KHATAL GAON,29.701192,79.158725,Newal Gaon,Naugaon,80.30063
630,Sult,6041.08211776,NAWAL GAON I,29.695641,79.146315,Newal Gaon,Naugaon,80.30063
631,Sult,6039.4267144,RARNTHMAL,29.692043,79.121945,Okhaliya,Bazar Lagga Kholiya Gaon,80.32568
632,Sult,6052.62143469,POKHARI TALLI,29.652425,79.151021,Olek,Goe,80.56282
633,Sult,6034.12609674,PASIYA,29.711002,79.147819,Paisiya,Paikatiya,80.24142
634,Sult,6037.3997091,THAL TALAR,29.634935,79.188374,Pali Ghanyal,Aganya,80.16856
635,Sult,6038.23282702,KAFALTA,29.710771,79.177011,Palligaon,Pataligaon,80.31065
636,Sult,6045.55502933,PANUVA DHYOKHAN,29.565398,79.240316,Panua Devakhan,Setal Sandakham,79.96941
637,Sult,6037.83194022,PATIYA CHAURA,29.684151,79.184464,Patiya Chaura,Pali Pachaura,80.20494
638,Sult,6036.42811706,KHATAL GAON,29.701192,79.158725,Patoli,Patoli,80.19532
639,Sult,6047.45861818,PEENA KHOT,29.609013,79.176852,Pina Kot,Nakot Khetiya,80.20761
640,Sult,6037.46700282,PIPNA,29.691411,79.185283,Pipana,Panda,80.24551
641,Sult,6045.42277441,POKHARI MALLI,29.648696,79.155002,Pokhari Malli,Kali Pokhari,80.28173
642,Sult,6044.9524702,POKHARI TALLI,29.652425,79.151021,Pokhari Talli,Kali Pokhari,80.28173
643,Sult,6023.62270378,RAGAR GAR,29.690489,79.150102,Ragar Garh,Raigarh Syari,80.0686
644,Sult,5999.99891906,PATIYA CHAURA,29.684151,79.184464,Rampur,Ganga Rampur,79.52638
645,Sult,6049.38896317,RANKUNA,29.679821,79.199845,Rankuna,Ranuwa,80.41155
646,Sult,6052.34034877,RARNTHMAL,29.692043,79.121945,Ranthaml,Ranthi,80.55531
647,Sult,6048.82784157,HARDA TADIYAL,29.600779,79.182895,Ratan Kote,Nankote,80.30474
648,Sult,6047.97177527,RIKAWASI,29.622508,79.159706,Rikawasi,Riyasi Malli,80.2843
649,Sult,6042.93826274,BUDAKOT,29.638261,79.086592,Ritha,Rikhai,80.25134
650,Sult,6007.667322,RIVALI PALLI,29.70465,79.119657,Riwali Palli,Kwairali,79.8694
651,Sult,6033.18786219,RARNTHMAL,29.692043,79.121945,Riwali Walli,Ratwali,80.1942
652,Sult,6041.95372059,DHACHKOT,29.647751,79.172071,Sakarkhola,Harkhola,80.26757
653,Sult,6038.47174193,PASIYA,29.711002,79.147819,Saknari,Sangari Malli,80.31834
654,Sult,6037.27665949,JAMARIYA,29.597516,79.095814,Sankar,Sakar,80.1108
655,Sult,6040.51857285,SARUD,29.620337,79.096931,Sarurh Patsari,Sarara(bisar),80.18706
656,Sult,6043.43084856,SAHAYI LAIN,29.636352,79.194056,Shailain,Shiling,80.20044
657,Sult,6048.44298688,SOKHATI,29.604593,79.216015,Shokhati,Khati Gaon,80.26814
658,Sult,6034.94740364,POKHARI TALLI,29.652425,79.151021,Singro,Sigra,80.12285
659,Sult,6043.8552492,BUDAKOT,29.638261,79.086592,Sirali,Siroli,80.30715
660,Sult,6042.65346046,UJRAR,29.666156,79.208996,Siroli Kukrar,Siroli,80.30715
661,Sult,6046.41718078,RIKAWASI,29.622508,79.159706,Sirswarhi,Sirauri,80.21328
662,Sult,6046.88466516,DADHRIYA,29.648479,79.186636,Soli,Sitoli,80.33845
663,Sult,6023.83146869,GARKOT TALLA,29.728275,79.121204,Talla Garhkote,Garhkot,80.04084
664,Sult,6043.98317969,TARADI,29.633831,79.237777,Taraari,Harari,80.24824
665,Sult,6054.37250461,TADAM,29.571886,79.159777,Taram,Haram,80.22961
666,Sult,6041.74607442,TUKNAULI,29.670384,79.172993,Tari,Tyari Gaon,80.30042
667,Sult,6050.31622936,TAYA,29.644562,79.242572,Taya,Taliya Nayabad,80.2864
668,Sult,6031.6257255,JASPUR TALLA,29.67985,79.12969,Teet,Telkot,80.26176
669,Sult,6043.15438848,THALA TADIYAL,29.645221,79.125281,Thala Manral,Lamara,80.28786
670,Sult,6041.88309388,THALA TADIYAL,29.645221,79.125281,Thala Tariyal,Khawatari,80.26852
671,Sult,6042.62696257,THALMAR,29.639541,79.161238,Thalmarh,Udya Bunga Thalkedar,80.22839
672,Sult,6021.45577396,THAL TALAR,29.634935,79.188374,Thatwarar,Bhatgara,79.92923
673,Sult,6056.29197125,TOLYOUN,29.585046,79.206763,Tolyo,Dhunga Toli,80.39104
674,Sult,6059.22013854,TOTAM,29.550817,79.205991,Totam,Tham,80.37263
675,Sult,6038.47940294,TUKNAULI,29.670384,79.172993,Tukanauli,Kathnauli,80.15881
676,Sult,6042.48107987,KARGAT,29.639107,79.136627,Tukura,Kurma,80.2328
677,Sult,6052.09720604,BHAKRA KOT,29.568208,79.109801,Uniyalgaon,Ungaon,80.21417
678,Sult,6029.46211179,POKHARI MALLI,29.648696,79.155002,Waila,Waila,79.96111
679,Syalde,6032.97837583,ROTA PANI,29.803099,79.256872,Afalkhola,Tatkhola,80.36262
680,Syalde,6025.19794043,AAFUO,29.790533,79.243941,Afaun,Amaun,80.11751
681,Syalde,6006.06923596,BASAI,29.863632,79.179298,Agaspur,Gangapur,79.8666
682,Syalde,6043.29636382,DUNGARI,29.775808,79.220255,Amkhet,Khet,80.5566
683,Syalde,6023.83944965,ARADI RAJWAR,29.768041,79.227597,Ararirajwar,Bhandari Gaon Rajwar,80.17889
684,Syalde,6035.56526744,DUNGARI,29.775808,79.220255,Ataliya,Taliya Nayabad,80.2864
685,Syalde,6027.83892827,KUSIYACHOUN,29.778,79.18928,Bajkhet,Bajet,80.25984
686,Syalde,6017.4169954,BASNAL GAON,29.905477,79.22187,Basanalgaon,Saungaon Maya Bijara Kanda,80.27024
687,Syalde,6012.27994352,MUNANI,29.955353,79.23388,Basbhira,Baira,80.32436
688,Syalde,6033.2787614,TOAL BHUDHANI,29.758935,79.196443,Bhaisora,Baira,80.32436
689,Syalde,6013.22723774,CHAMYADI,29.916991,79.225351,Bhanaria Seru,Bharias,80.14873
690,Syalde,6029.11257351,TIMALI,29.811048,79.206244,Bhaunlekh,Chamlekh,80.34922
691,Syalde,5972.42714578,MUNANI,29.955353,79.23388,Bhawar Lagga Palpur,Durgapalpur Motiram,79.5434
692,Syalde,6022.91288881,MHAROLI MALLI,29.819751,79.16726,Bheti,Bheta Dhanik,80.254
693,Syalde,6017.29777005,BARANGAL,29.930553,79.23872,Bisar Dhaya,Barthiya Kote Nayak,80.31956
