,Block Name,Distance,GP Name,GP_lat,GP_long,Village Name,Village_lat,Village_long
0,Achalpur,2.60597533176,SAWLI DATURA,21.30195,77.4808,Ajitpur,21.27975294,77.48887019
1,Achalpur,0.865536521383,AMBADA KANDARI,21.29866,77.55339,Ambada  Kandari,21.30462751,77.55875437
2,Achalpur,1.36369813463,KHANJAMANAGAR,21.2547,77.44789,Aregaon,21.26696284,77.44770653
3,Achalpur,2.1264753704,ASADPUR,21.08374,77.4803,Asatpur,21.10284578,77.4811909
4,Achalpur,0.60553557965,GAULKHEDA,21.32486,77.50601,Aurangpur,21.32102651,77.51016206
5,Achalpur,1.45339774292,TAWLAR,21.244,77.42504,Aurangpur,21.24570525,77.41113609
6,Achalpur,0.364913045079,AMBADA KANDARI,21.29866,77.55339,Bag Ambada,21.2961218,77.55562271
7,Achalpur,1.44330700451,BALEGAON,21.17573,77.47056,Balegaon,21.18870918,77.47040625
8,Achalpur,0.890517675691,BELKHEDA,21.36413,77.52764,Belkheda,21.3651317,77.53617204
9,Achalpur,3.95477212464,DHOTHARKHEDA,21.31591,77.48833,Beni,21.29751977,77.45565401
10,Achalpur,0.398609165005,BHILONA,21.23001,77.44904,Bhilona,21.2293327,77.4528165
11,Achalpur,2.70326731836,CHAMAK BK.,21.20998,77.47247,Bhitkheda,21.23273136,77.48166083
12,Achalpur,0.911703390832,BOPAPUR,21.20505,77.50608,Bhopapur,21.20455032,77.51485825
13,Achalpur,1.83993019338,NIMDARI,21.33553,77.40421,Bhopapur,21.34509781,77.38971598
14,Achalpur,1.83630106922,BHUGAON,21.21271,77.55138,Bhugaon,21.21335899,77.56908088
15,Achalpur,1.61802027976,BORDI,21.19386,77.49052,Bordi,21.19017144,77.50561688
16,Achalpur,1.45287558276,NIMKUND,21.37852,77.477,Buradghat,21.37037689,77.48797289
17,Achalpur,2.45879089217,TULJAPUR JAHANGIR,21.1977,77.45013,Chachondi,21.20200793,77.47339308
18,Achalpur,1.48564329905,CHAMAK BK.,21.20998,77.47247,Chamak Bk,21.21913631,77.48290719
19,Achalpur,1.59818625726,CHAMAK KHURD,21.20797,77.4732,Chamak  Kh,21.21913631,77.48290719
20,Achalpur,1.5951109488,DARYABAD,21.31871,77.43611,Chandura   Jahagir,21.30779822,77.44610585
21,Achalpur,2.30635766185,CHAWSALA,21.17118,77.4801,Chausala,21.18929472,77.49093487
22,Achalpur,1.25016807475,NARAYANPUR,21.27061,77.53376,Chikhali,21.27585638,77.54443102
23,Achalpur,2.94229436323,KHANJAMANAGAR,21.2547,77.44789,Darapur,21.26220431,77.47511694
24,Achalpur,0.155907978436,DARYABAD,21.31871,77.43611,Daryabad,21.31986515,77.43525692
25,Achalpur,1.12830527438,SAWLI DATURA,21.30195,77.4808,Datura,21.3120391,77.48196279
26,Achalpur,0.776957900191,DEVGAON,21.34152,77.40936,Devgaon,21.34061806,77.41679898
27,Achalpur,2.64163770746,CHAMAK BK.,21.20998,77.47247,Dewari,21.23334711,77.46787286
28,Achalpur,0.893335688605,DHAMANGAON  GADI,21.34596,77.44139,Dhamangaon,21.34699413,77.44994396
29,Achalpur,1.55287607227,DHOTHARKHEDA,21.31591,77.48833,Dhotarkheda,21.32949122,77.49182195
30,Achalpur,1.01033457677,DONODA,21.12981,77.52773,Donoda,21.1371776,77.53343102
31,Achalpur,0.553539218115,EKLASPUR,21.32881,77.46585,Ekalaspur,21.33283853,77.46271048
32,Achalpur,1.45218767139,GAULKHEDA,21.32486,77.50601,Gaurkheda,21.33691681,77.51139836
33,Achalpur,1.45677677242,BELKHEDA,21.36413,77.52764,Gondvihir,21.36394447,77.51357363
34,Achalpur,4.26862571392,WAGHDOH,21.24613,77.32537,Gondwagholi,21.27762455,77.34892274
35,Achalpur,0.766160442676,HANWATKHEDA,21.31205,77.44636,Hanawatkheda,21.31772818,77.45054963
36,Achalpur,1.48190367056,HARAM,21.25087,77.453,Haram,21.25925286,77.46411664
37,Achalpur,1.26537130763,HIWRA PURNA,21.12666,77.56657,Hiwara,21.13694296,77.5717958
38,Achalpur,2.1139253384,ISAPUR,21.13122,77.41977,Isapur,21.14896613,77.42708053
39,Achalpur,3.7676988847,CHAWSALA,21.17118,77.4801,Isegaon,21.16909335,77.516367
40,Achalpur,1.96243113847,NIMDARI,21.33553,77.40421,Jalalpur,21.32021529,77.41362592
41,Achalpur,3.22864939713,UPATKHEDA,21.2778,77.39067,Jambhala,21.29147283,77.41816038
42,Achalpur,2.94054577653,KAKADA,21.15061,77.42891,Janori,21.17703492,77.42780613
43,Achalpur,2.41501966909,WAGHDOH,21.24613,77.32537,Januna,21.25280704,77.30319542
44,Achalpur,1.19700249604,JAWLAPUR,21.19592,77.36338,Jawalapur,21.20452957,77.37031116
45,Achalpur,1.75208330533,JAWARDI,21.229,77.54821,Jawardi,21.23506959,77.56380983
46,Achalpur,1.77828461312,KAKADA,21.15061,77.42891,Kakda,21.1621967,77.44072975
47,Achalpur,2.76037690606,NIMKUND,21.37852,77.477,Kalwit,21.36938792,77.5017889
48,Achalpur,2.74361828051,SINDHI BK.,21.18509,77.40751,Kamatwada,21.20735711,77.39610954
49,Achalpur,1.61995374007,KANDALI,21.29998,77.52264,Kandali,21.30043896,77.53826898
50,Achalpur,1.66612946989,KASAMPUR,21.23141,77.37532,Kasampur,21.24542575,77.36963533
51,Achalpur,1.94578087494,KHAIRI,21.12815,77.53408,Khairi,21.13233321,77.55229626
52,Achalpur,2.4863896903,TULJAPUR JAHANGIR,21.1977,77.45013,Khambora,21.21858908,77.45868732
53,Achalpur,5.43265449139,SAWLAPUR,21.08618,77.55402,Khanapur Chinchkheda,21.11794523,77.51423059
54,Achalpur,3.61677154696,BHILONA,21.23001,77.44904,Khanapur N. Bhinkheda,21.24142119,77.48171791
55,Achalpur,4.03098691344,CHAMAK KHURD,21.20797,77.4732,Khanapur N.Rahimpur,21.22712032,77.50621874
56,Achalpur,0.414173632212,KHANJAMANAGAR,21.2547,77.44789,Khanjamanagar,21.25672294,77.45124583
57,Achalpur,4.69983112542,KHANJAMANAGAR,21.2547,77.44789,Khanjirpur,21.25641235,77.49320452
58,Achalpur,1.53158375431,UPATKHEDA,21.2778,77.39067,Khatijapur,21.2699944,77.40284854
59,Achalpur,3.9909247454,DEOMALI,21.2748,77.52373,Kheldeomali,21.26636458,77.48629387
60,Achalpur,3.997651281,SAWLI DATURA,21.30195,77.4808,Kheltapmali,21.26636458,77.48629387
61,Achalpur,4.12920007907,CHAMAK KHURD,21.20797,77.4732,Khojanpur,21.23669822,77.49844231
62,Achalpur,1.6450508273,DHOTHARKHEDA,21.31591,77.48833,Khudanpur,21.30438192,77.49828275
63,Achalpur,5.2548102635,NARAYANPUR,21.27061,77.53376,Khushalpur,21.30438192,77.49828275
64,Achalpur,1.33609374468,KOLHA,21.12353,77.45394,Kolha,21.13283058,77.46209605
65,Achalpur,1.84560598949,BHILONA,21.23001,77.44904,Kopra,21.2447576,77.45721064
66,Achalpur,0.775832795319,KOTHARA,21.32221,77.54378,Kothara,21.32370069,77.55109701
67,Achalpur,1.50117323806,GAULKHEDA,21.32486,77.50601,Kumbhi,21.33200462,77.51830711
68,Achalpur,0.80822783629,KUSHTA BK.,21.17989,77.44353,Kushta Bk.,21.18522011,77.44882996
69,Achalpur,0.938063097938,KHUSTA KHURD,21.17983,77.44187,Kushta Kh.,21.18522011,77.44882996
70,Achalpur,0.751442121822,MALHARA,21.35349,77.493,Malhara,21.35214717,77.50011127
71,Achalpur,3.29967125817,BORGAON  PETH,21.19467,77.54026,Mengnathpur,21.19668033,77.57201465
72,Achalpur,3.2335256316,MALHARA,21.35349,77.493,Mhasona,21.35732243,77.52395128
73,Achalpur,0.601656587727,BORGAON  DORI,21.1804,77.53304,Mukindpur,21.18241582,77.52765488
74,Achalpur,1.07750315531,SAWLI DATURA,21.30195,77.4808,Muradpur,21.29405648,77.47476725
75,Achalpur,2.26229118143,BHUGAON,21.21271,77.55138,Nababpur,21.22452052,77.56915105
76,Achalpur,3.58909592181,NARAYANPUR,21.27061,77.53376,Nagarwadi,21.28312599,77.56568842
77,Achalpur,1.82020844882,NAIGAON,21.20147,77.49032,Naigaon,21.21508714,77.50006488
78,Achalpur,2.36407892846,NARAYANPUR,21.27061,77.53376,Narayanpur,21.27175965,77.55654159
79,Achalpur,1.31553402135,GAULKHEDA,21.32486,77.50601,Narsala,21.31324352,77.50841683
80,Achalpur,1.3263852745,GAULKHEDA,21.32486,77.50601,Narsari,21.33632808,77.50248664
81,Achalpur,0.648518909226,KOLHA,21.12353,77.45394,Narsingpur,21.12502836,77.45998257
82,Achalpur,1.09907208413,NIZAMPUR,21.2052,77.52427,Nijampur,21.21347248,77.5300726
83,Achalpur,2.73968841664,NIMBHARI,21.08951,77.49461,Nimbhari,21.09720003,77.51969886
84,Achalpur,0.737462316919,NIMDARI,21.33553,77.40421,Nimdari,21.33548164,77.39709006
85,Achalpur,2.92309865125,PANDHRI,21.36551,77.54653,Nimkheda,21.33942877,77.54299633
86,Achalpur,0.119547332272,NIMKUND,21.37852,77.477,Nimkund,21.37954881,77.47733519
87,Achalpur,2.48069790128,PANDHRI,21.36551,77.54653,Pandhari,21.38769298,77.54398261
88,Achalpur,0.650961579982,PARSAPUR,21.25995,77.41618,Parasapur,21.26573199,77.41519613
89,Achalpur,5.27052525025,JAWLAPUR,21.19592,77.36338,Pardi,21.2311049,77.39744833
90,Achalpur,0.952937988516,PATHROT,21.21605,77.36611,Pathrot,21.22321151,77.36106049
91,Achalpur,1.41743397423,PIMPALKHUTA,21.3417,77.415,Pimpalkhuta,21.35205206,77.4070138
92,Achalpur,4.16668344026,SINDHI BK.,21.18509,77.40751,Pohi,21.20769759,77.4395622
93,Achalpur,5.40742148654,CHAMAK KHURD,21.20797,77.4732,Rahimapur N. Khanapur,21.22665174,77.52136333
94,Achalpur,2.03036756139,WAGHDOH,21.24613,77.32537,Raipur,21.26398294,77.32125846
95,Achalpur,2.52900940458,SHAHAPUR JHAHANGIR,21.08956,77.48139,Raipur Jahangir,21.11025863,77.47128641
96,Achalpur,2.23254531844,UPATKHEDA,21.2778,77.39067,Rajjakpur,21.25841162,77.38507273
97,Achalpur,2.74118070415,NARAYANPUR,21.27061,77.53376,Rajura,21.28091704,77.55779181
98,Achalpur,1.53131411386,RAMAPUR BK.,21.22005,77.3559,Ramapur Bk.,21.23047164,77.36555745
99,Achalpur,1.53131411386,RAMAPUR BK.,21.22005,77.3559,Ramapur  Kh,21.23047164,77.36555745
100,Achalpur,0.685517949558,RAMAPUR  BELAJ,21.216,77.58584,Ramapur N. Belaj,21.21012678,77.58785043
101,Achalpur,3.51118003282,PARSAPUR,21.25995,77.41618,Ramapur N.Jambhala,21.29147283,77.41816038
102,Achalpur,0.74061432156,RASEGAON,21.16274,77.47932,Rasegaon,21.16697562,77.47380797
103,Achalpur,2.7970236412,DONODA,21.12981,77.52773,Rawalgaon,21.15398106,77.53519644
104,Achalpur,4.88322748915,BHILONA,21.23001,77.44904,Salebad,21.24964967,77.49118229
105,Achalpur,1.4309817314,SALEPUR,21.33433,77.54412,Salepur,21.3464164,77.548865
106,Achalpur,3.09248469819,KHAIRI,21.12815,77.53408,Sangnvi N Khairi,21.14562679,77.55727461
107,Achalpur,1.09907208413,NIZAMPUR,21.2052,77.52427,Sangvi Nijampur,21.21347248,77.5300726
108,Achalpur,0.766988976439,SAWLAPUR,21.08618,77.55402,Sawalapur,21.09301907,77.55305816
109,Achalpur,1.89157092987,SAWLI BK.,21.12033,77.48831,Sawali Bk.,21.13617133,77.49495655
110,Achalpur,1.89157092987,SAWLI BK.,21.12033,77.48831,Sawali Kh,21.13617133,77.49495655
111,Achalpur,1.94581268962,ISAPUR,21.13122,77.41977,Shampur,21.1393583,77.43637876
112,Achalpur,2.77145867246,YEVTA,21.14126,77.49294,Shankarpur,21.15292443,77.51655684
113,Achalpur,1.66167374783,JAWARDI,21.229,77.54821,Shekapur,21.24388298,77.54965489
114,Achalpur,1.4398643005,SINDHI BK.,21.18509,77.40751,Sindi  Bk.,21.19172896,77.41943368
115,Achalpur,2.63320011992,TULJAPUR JAHANGIR,21.1977,77.45013,Surwada,21.21323409,77.46930213
116,Achalpur,0.883279213528,TAWLAR,21.244,77.42504,Tawalar,21.24968279,77.43099504
117,Achalpur,2.87117639626,SAWLAPUR,21.08618,77.55402,Tonglabad,21.10697227,77.5704304
118,Achalpur,1.15438182844,TULJAPUR JAHANGIR,21.1977,77.45013,Tuljapur Jahagir,21.20393344,77.4590346
119,Achalpur,0.994430151463,UPATKHEDA,21.2778,77.39067,Upatkheda,21.28464096,77.38448819
120,Achalpur,2.20674092778,NARAYANPUR,21.27061,77.53376,Viththalapur,21.28433457,77.54914348
121,Achalpur,1.25127364918,WADGAON FATHEPUR,21.27903,77.44064,Wadgaon Fattepur,21.28943077,77.4452502
122,Achalpur,1.90420464727,WADNER BHUJANG,21.13845,77.40246,Wadner Bhujang,21.15385231,77.41048588
123,Achalpur,4.07475783285,PANDHRI,21.36551,77.54653,Wadura,21.33124997,77.53256735
124,Achalpur,0.609912934487,WAGHDOH,21.24613,77.32537,Wagdoh,21.24587893,77.3194911
125,Achalpur,2.66278691396,KASAMPUR,21.23141,77.37532,Walmikpur,21.25242468,77.38763927
126,Achalpur,5.3644582879,SINDHI BK.,21.18509,77.40751,Walni Bk.,21.23271387,77.41577881
127,Achalpur,5.3644582879,SINDHI BK.,21.18509,77.40751,Walni kh,21.23271387,77.41577881
128,Achalpur,0.932935528624,WASNI BK.,21.16303,77.53841,Wasani  Bk.,21.16978074,77.54375251
129,Achalpur,1.04333313215,WASNI KHURD,21.16041,77.54324,Wasani   Kh.,21.16978074,77.54375251
130,Achalpur,1.40005548713,WAZAR,21.35971,77.49072,Wazzar,21.36127185,77.47730471
131,Achalpur,1.6582892915,YELAKI,21.10619,77.564,Yelki,21.12023843,77.56936513
132,Achalpur,3.41108638376,DHOTHARKHEDA,21.31591,77.48833,Yeni,21.3047626,77.45765291
133,Achalpur,3.72777115744,YESURNA,21.09966,77.50351,Yesurna,21.1129314,77.53650973
134,Achalpur,1.0523830611,YEVTA,21.14126,77.49294,Yevata,21.15045235,77.49535514
135,Amravati,5.52976388146,ANJANGAON BARI,20.824,77.7836166667,Alyabad,20.87278605,77.77329569
136,Amravati,3.64409163222,NANDGAON PETH,21.0161333333,77.8261666667,Amannapur,21.04737969,77.83675517
137,Amravati,1.29748718728,BHANKHED BUJRUG,20.86945,77.8247166667,Amdapur,20.86200761,77.83433445
138,Amravati,2.35440210872,AMLA,21.0190833333,77.7273333333,Amla,21.03839133,77.7366439
139,Amravati,3.25069984136,TAKLI JAHANGIR,21.0201,77.7676,Angoda,21.03485782,77.79463623
140,Amravati,0.80034523851,ANJANGAON BARI,20.824,77.7836166667,Anjangaon bari,20.82848008,77.78964389
141,Amravati,1.68442649627,ANTORA,21.1301333333,77.8086833333,Antora,21.14410623,77.81495623
142,Amravati,2.79659860371,UDKHED,20.8237,77.8395333333,Arhad,20.8416145,77.82064594
143,Amravati,2.73586501688,YAVLI SHAHID,21.1102666667,77.8471833333,Aurangpur,21.13248524,77.85851346
144,Amravati,0.95652006527,KAT AMLA,20.8506666667,77.6831166667,Bahilolpur,20.8420681,77.68338386
145,Amravati,1.8902523665,YAVLI SHAHID,21.1102666667,77.8471833333,Bhagvanpur,21.09606305,77.85719493
146,Amravati,1.54260077307,BHANKHED BUJRUG,20.86945,77.8247166667,Bhankheda Bk.,20.88151236,77.81738265
147,Amravati,1.86013746466,BHANKHED KHURD,20.8798333333,77.8430833333,Bhankheda Kh.,20.89626831,77.84642346
148,Amravati,0.138085960703,BODNA,20.9233166667,77.8870666667,Bodna,20.92449293,77.88749298
149,Amravati,1.29686554636,BORGAON,20.9912833333,77.81165,Borgaon,21.00044073,77.81938635
150,Amravati,0.971898565368,BRAHMANWADA BHAGAT,21.12355,77.8025166667,Bramhanwada bhagat,21.132197,77.80388355
151,Amravati,3.16814067229,PIMPRI,20.87195,77.7049333333,Chanduri,20.89933075,77.71336624
152,Amravati,5.64256684265,KUND SARJAPUR,20.9589,77.6730166667,Changapur,20.98209036,77.72135415
153,Amravati,1.592215326,CHICHKHED,21.1161666667,77.9025666667,Chinchkhed,21.12069532,77.91712884
154,Amravati,3.20055150737,BRAHAMWADA GOVINDPUR,21.11755,77.9491666667,Dastapur,21.11138428,77.9793052
155,Amravati,1.4896321328,DAWARGAON,21.1033666667,77.8852,Davargaon,21.10910855,77.89817406
156,Amravati,1.4107037396,DEVARA,21.10625,77.8084833333,Devra,21.11866962,77.81125947
157,Amravati,2.69055912823,DEWRI,21.1035,77.8114166667,Devri,21.11648906,77.83330016
158,Amravati,4.85995276382,DIGARGAWHAN,21.0446,77.9171333333,Dhamana,21.04347887,77.8703188
159,Amravati,0.865734513009,DIGARGAWHAN,21.0446,77.9171333333,Digargavhan,21.04924607,77.92382746
160,Amravati,1.37199450954,ROHANKHEDA,21.0833833333,77.7892,Donad,21.08136018,77.80224481
161,Amravati,1.36559536872,GOPALPUR,21.0205833333,77.7409166667,Gopalpur,21.02761506,77.75170352
162,Amravati,5.87236345634,ANJANGAON BARI,20.824,77.7836166667,Govindpur,20.87510683,77.79785863
163,Amravati,4.54715908817,BHANKHED KHURD,20.8798333333,77.8430833333,Hatla,20.86114655,77.8820118
164,Amravati,0.791816604915,INDALA,20.9355166667,77.8383,Indhala,20.93359981,77.84564284
165,Amravati,1.38464848659,JALKA SHAHAPUR,20.9956166667,77.8925833333,Jalaka,21.00012297,77.90501751
166,Amravati,3.60985809808,DHANORA KOKATE,21.1328166667,77.99345,Jamdol,21.14578241,78.02536
167,Amravati,0.656784048783,KAMUNJA,20.9841166667,77.6956,Kamunja,20.98475941,77.7018886
168,Amravati,0.48089898503,KAPUSTALANI,21.0695666667,77.9324833333,Kapustalani,21.07012147,77.93707973
169,Amravati,1.8789530463,KARAJGAON,21.13355,77.9067833333,Karajgaon,21.13482417,77.92484812
170,Amravati,2.21937811292,KASTURA MOGRA,20.864,77.8403833333,Kastura,20.86895817,77.86107408
171,Amravati,0.708231650918,KATHORA BK.,20.99695,77.7582666667,Kathora Bk.,20.99902018,77.76471858
172,Amravati,1.02669346832,KATHORA KHURD,21.0625,77.8115833333,Kathora kh,21.06965376,77.81783898
173,Amravati,1.73363773258,KEKATPUR,21.1015333333,77.93055,Kekatpur,21.09871937,77.94698699
174,Amravati,1.85079684537,TEMBHA,21.0673666667,77.7738666667,Khanapur,21.05904441,77.78931344
175,Amravati,2.04158366985,KUND SARJAPUR,20.9589,77.6730166667,Kund sarjapur,20.96748287,77.69039792
176,Amravati,3.3141628714,UDKHED,20.8237,77.8395333333,Kurhad,20.85151417,77.82807355
177,Amravati,1.37967249515,LONTEK,20.9091333333,77.7085833333,Lontek,20.92050622,77.71389391
178,Amravati,1.38806444373,MAHOLI JH.,21.0603333333,77.8619,Mahuli jahangir,21.07092725,77.86897578
179,Amravati,3.54993635613,BHANKHED BUJRUG,20.86945,77.8247166667,Malegaon,20.90014738,77.81533083
180,Amravati,3.59020589935,KAPUSTALANI,21.0695666667,77.9324833333,Malegaon,21.07079552,77.96705915
181,Amravati,0.493317527357,MALKAPUR,20.90745,77.6908333333,Malkapur,20.91141592,77.69296201
182,Amravati,1.61473668859,MASOD,20.9591,77.8345833333,Masod,20.96778524,77.84704639
183,Amravati,0.790251072717,KASTURA MOGRA,20.864,77.8403833333,Mogra,20.86922499,77.84553889
184,Amravati,2.43773267941,LONTEK,20.9091333333,77.7085833333,Morangana,20.92176815,77.68940358
185,Amravati,2.4429749789,NANDURA BK.,21.03715,77.7486166667,Nandura Bk.,21.05811869,77.75564319
186,Amravati,2.4426366802,NANDURA LASHKARPUR,21.07745,77.8013166667,Nandura Lashkarpur,21.08955181,77.82096508
187,Amravati,1.89494341832,NANDURA PINGALAI,21.1347166667,77.9506166667,Nandura pingalai,21.14515102,77.96506258
188,Amravati,3.29823058709,NANDGAON PETH,21.0161333333,77.8261666667,Narayanpur,21.03473498,77.85091863
189,Amravati,1.04413369593,YAVLI SHAHID,21.1102666667,77.8471833333,Narsingpur,21.10808545,77.85697357
190,Amravati,2.00797773164,NAYA AKOLA,21.05205,77.7105333333,Naya akola,21.06856537,77.71835955
191,Amravati,1.5092224552,NANDGAON PETH,21.0161333333,77.8261666667,Nemtapur,21.02736589,77.83432894
192,Amravati,2.21383549631,KAMUNJA,20.9841166667,77.6956,Ozarkheda,21.00300088,77.68884488
193,Amravati,3.31825687713,PARDI,20.8137,77.8358833333,Pardi,20.84110322,77.84852446
194,Amravati,4.35996366056,BODNA,20.9233166667,77.8870666667,Parsoda,20.95973216,77.87150082
195,Amravati,2.7716212263,ROHANKHEDA,21.0833833333,77.7892,Parwatpur,21.10141165,77.80764867
196,Amravati,0.398132202013,PIMPAL WIHIR,21.0265833333,77.9196333333,Pimpalvihir,21.02350939,77.92160025
197,Amravati,0.341766858028,POHRA,20.889,77.87625,Pohara,20.89159337,77.87801572
198,Amravati,0.864483692076,PUSDA,21.0861166667,77.7528333333,Pusada,21.09385897,77.75359076
199,Amravati,3.53347449068,LONTEK,20.9091333333,77.7085833333,Raipur,20.92110467,77.67707089
200,Amravati,0.983337873794,MASOD,20.9591,77.8345833333,Rajura,20.96194344,77.82561618
201,Amravati,3.49318347885,KATHORA BK.,20.99695,77.7582666667,Ramgaon,21.0055503,77.79063137
202,Amravati,2.73282158781,NANDURA PINGALAI,21.1347166667,77.9506166667,Rasulpur,21.14543755,77.9269057
203,Amravati,1.59317794814,SUKLI,20.9446,77.7093666667,Rasulpur,20.94688856,77.72451127
204,Amravati,1.48212368738,REWSA,21.00435,77.7224333333,Revsa,21.01282936,77.73344981
205,Amravati,1.34080174044,NANDGAON PETH,21.0161333333,77.8261666667,Rustampur,21.0275899,77.82213747
206,Amravati,3.42896960768,AMLA,21.0190833333,77.7273333333,Salora Bk.,21.04192522,77.74952887
207,Amravati,1.30867555516,SALORA KHURD,21.0693333333,77.8387333333,Salora kh,21.0789595,77.84599003
208,Amravati,1.93667004619,SAWANGA,21.1228833333,77.8200833333,Savanga,21.13347735,77.83490407
209,Amravati,1.02515627146,SAWARDI,21.0178833333,77.8796666667,Sawardi,21.02190328,77.88855502
210,Amravati,1.13044024364,JALKA SHAHAPUR,20.9956166667,77.8925833333,Shahapur,20.98611582,77.89645813
211,Amravati,1.80050743968,SHEWATI JAHANGIR,20.9902333333,77.86335,Shevati,20.98167304,77.87807106
212,Amravati,1.89154809976,SHIRALA,21.1223333333,77.7458666667,Shirala,21.13909581,77.7489733
213,Amravati,1.59973773615,SUKLI,20.9446,77.7093666667,Sukali,20.95634937,77.71825693
214,Amravati,2.17332402413,PIMPALKHUTA,20.9308666667,77.90745,Sultanpur,20.9397128,77.88878941
215,Amravati,1.75922108494,REWSA,21.00435,77.7224333333,Sultanpur,20.99745701,77.73768709
216,Amravati,1.94055543055,TEMBHA,21.0673666667,77.7738666667,Tembha,21.08269377,77.78281035
217,Amravati,0.152823888145,TEMBHA,21.0673666667,77.7738666667,Thugaon,21.06862226,77.7732677
218,Amravati,3.496318638,MAHOLI JH.,21.0603333333,77.8619,Tukapur,21.08119546,77.88711106
219,Amravati,0.37745657096,UDKHED,20.8237,77.8395333333,Udkhed,20.82089934,77.83748116
220,Amravati,5.12433947963,NANDGAON PETH,21.0161333333,77.8261666667,Ukali,21.05778316,77.84729965
221,Amravati,3.63702009454,MAHOLI JH.,21.0603333333,77.8619,Vitthalapur,21.08959416,77.87756458
222,Amravati,1.3761326616,WADGAON MAHORE,20.9768333333,77.8205333333,Wadgaon,20.98757708,77.82711236
223,Amravati,1.86140219221,WAGHOLI,21.07595,77.8895,Wagholi,21.08194311,77.90625132
224,Amravati,2.42626088184,WALGAON,21.0076666667,77.7039166667,Walgaon,21.02907704,77.69940922
225,Amravati,4.14147810731,TAKLI JAHANGIR,21.0201,77.7676,Walki,21.01195382,77.80653327
226,Amravati,0.898075658127,VANARSI,20.9470333333,77.6920333333,Wanarshi,20.94858055,77.70052134
227,Amravati,0.808860065038,NANDURA PINGALAI,21.1347166667,77.9506166667,Wardhi,21.12805995,77.94747215
228,Amravati,2.75348939187,KAMUNJA,20.9841166667,77.6956,Warwad,21.0012096,77.71479092
229,Amravati,2.27979640991,YAVLI SHAHID,21.1102666667,77.8471833333,Yawali,21.12248891,77.86482967
230,CHANDURRIL,4.66849947902,TEMBHURNI,20.8484,78.002733,Amdori,20.85498493,78.04710432
231,CHANDURRIL,1.03243469955,AMLA VI.,20.880483,78.015733,Amla Vishveshwar,20.88129008,78.02563296
232,CHANDURRIL,1.10197567591,BAGGI,20.718583,77.989367,Ashrafpur,20.7284575,77.98846711
233,CHANDURRIL,1.12754712605,BAGAPUR,20.776283,78.038183,Bagapur,20.77884976,78.04867542
234,CHANDURRIL,0.954358317823,BAGGI,20.718583,77.989367,Baggi,20.71128981,77.98452956
235,CHANDURRIL,1.47679139826,BASLAPUR,20.834533,77.93765,Baslapur,20.84016522,77.95051945
236,CHANDURRIL,1.15679527666,BHILTEK,20.745483,77.934817,Bhiltek,20.7512016,77.94411031
237,CHANDURRIL,0.252484724908,BORI,20.674517,77.941983,Bori,20.67313162,77.94390587
238,CHANDURRIL,4.01665255621,CHIRODI,20.87885,77.915983,Bramhi,20.85685567,77.9466493
239,CHANDURRIL,1.28244977572,KAWTHA KADU,20.778883,77.892533,Budhali,20.7868727,77.8836365
240,CHANDURRIL,1.49905458923,CHIRODI,20.87885,77.915983,Chirodi,20.87674419,77.93023456
241,CHANDURRIL,0.967288899034,DAHIGAON,20.8049,77.9043,Dahigaon,20.80823408,77.91289529
242,CHANDURRIL,1.54729783425,MANJARKHED DANAPUR,20.687067,78.001383,Danapur,20.6980945,78.01045509
243,CHANDURRIL,1.64741946146,MANDWA,20.83785,78.053683,Dhanapur,20.82397368,78.05923738
244,CHANDURRIL,1.4749106904,DHANODI,20.762783,78.040867,Dhanodi,20.75315073,78.05061916
245,CHANDURRIL,0.43861512659,DHOTRA,20.6702,77.965667,Dhotra,20.66640664,77.96451094
246,CHANDURRIL,1.10012061454,DIGHI KOLHE,20.750183,77.884167,Dighi Kolhe,20.75036618,77.89474509
247,CHANDURRIL,2.13473649317,MANDWA,20.83785,78.053683,Dilawarpur,20.82014285,78.04574638
248,CHANDURRIL,4.03411013891,DHOTRA,20.6702,77.965667,Eklara,20.64968059,77.99764263
249,CHANDURRIL,2.61583295103,TONGLABAD,20.695267,77.908033,Ekpala,20.71505854,77.92162752
250,CHANDURRIL,4.24155750087,CHIRODI,20.87885,77.915983,Gaurkheda,20.87154905,77.95605329
251,CHANDURRIL,1.86992529231,GHUIKHED,20.658183,78.015767,Ghuikhed,20.66938071,78.02917598
252,CHANDURRIL,1.71629366581,BAGGI,20.718583,77.989367,Ibrahimpur,20.70618479,77.99919594
253,CHANDURRIL,2.63349518691,BAGAPUR,20.776283,78.038183,Ismailpur,20.78477227,78.06183124
254,CHANDURRIL,0.90490142021,BAGGI,20.718583,77.989367,Jahagirpur,20.71386556,77.99645655
255,CHANDURRIL,0.348615773464,JALKA JAGTAP,20.879533,78.060417,Jalka Jagtap,20.87644263,78.05985173
256,CHANDURRIL,1.45095170352,JAWLA,20.674767,77.966467,Jawala,20.68089745,77.97877911
257,CHANDURRIL,1.09184451335,JAWRA,20.71375,78.008433,Jawra,20.71847687,78.01763451
258,CHANDURRIL,1.1332187993,Kalamgaon,20.75945,77.986917,Kalamgaon,20.75364738,77.99587658
259,CHANDURRIL,0.17941818404,KALAMJAPUR,20.7604,77.984833,Kalamjapur,20.75909547,77.98381747
260,CHANDURRIL,0.593443303164,KAWTHA KADU,20.778883,77.892533,Kawtha Kadu,20.77439876,77.8956282
261,CHANDURRIL,1.80334602326,KIRJAWLA,20.65175,77.94735,Khambala,20.65315212,77.93008323
262,CHANDURRIL,1.68540968988,KOHALA,20.734483,77.864633,Khanapur,20.73183142,77.8805899
263,CHANDURRIL,1.76851907928,KAWTHA KADU,20.778883,77.892533,Khudavantpur,20.78286807,77.90900172
264,CHANDURRIL,0.682955223334,KIRJAWLA,20.65175,77.94735,Kirjawala,20.65085398,77.9538435
265,CHANDURRIL,3.01802683595,KOHALA,20.734483,77.864633,Kodori Harak,20.72833263,77.89289896
266,CHANDURRIL,0.989618054391,KOHALA,20.734483,77.864633,Kohla,20.73834326,77.87320755
267,CHANDURRIL,1.14885249888,LALKHED,20.837517,77.873067,Lalkhed,20.84191994,77.88306803
268,CHANDURRIL,0.877894669478,MALKHED,20.82325,77.876583,Malkhed,20.81848507,77.88331789
269,CHANDURRIL,0.261198226717,MANDWA,20.83785,78.053683,Mandwa,20.83569317,78.05268732
270,CHANDURRIL,0.916369800816,MANJARKHED KASBA,20.828233,77.9353,Manjarkhed,20.82704431,77.94402508
271,CHANDURRIL,0.955611334158,MANJARKHED DANAPUR,20.687067,78.001383,Manjarkhed Da.,20.68588965,78.01048267
272,CHANDURRIL,2.07233657006,DHOTRA,20.6702,77.965667,Mogra,20.65719428,77.9799335
273,CHANDURRIL,1.46541245279,BAGGI,20.718583,77.989367,Murtizapur,20.71619593,78.00322381
274,CHANDURRIL,3.77232096712,SONGAON,20.786433,77.980667,Neknanpur,20.7798909,78.01627238
275,CHANDURRIL,1.80163363727,NIMBHA,20.68925,77.953567,Nimbha,20.69587334,77.96937356
276,CHANDURRIL,1.50822489426,NIMGAVHAN,20.700717,78.027683,Nimgavhan,20.70520991,78.04136453
277,CHANDURRIL,3.07943498815,TEMBHURNI,20.8484,78.002733,Nimla,20.86771679,78.02396965
278,CHANDURRIL,2.16620549138,PALASKHED,20.7703,77.922167,Palaskhed,20.76907771,77.94296111
279,CHANDURRIL,1.00536463656,RAJNA,20.793917,78.0048,Rajana,20.79584235,78.01424966
280,CHANDURRIL,2.16434562539,RAJURA,20.702383,77.929233,Rajura,20.70991559,77.94842019
281,CHANDURRIL,2.15409958325,JALKA JAGTAP,20.879533,78.060417,Salora Kh.,20.89889299,78.06115557
282,CHANDURRIL,0.581472228678,BAGAPUR,20.776283,78.038183,Sangulwada,20.77860583,78.03317202
283,CHANDURRIL,1.34551010259,SATEFAL,20.748133,78.011017,Satefal,20.74690158,78.02388941
284,CHANDURRIL,1.53927848487,SAWANGA BU,20.84705,77.896617,Sawanga Bk.,20.85665007,77.90728942
285,CHANDURRIL,0.983683878548,SAWANGI MAGRAPUR,20.85955,77.977583,Sawangi Magrapur,20.85600755,77.98625773
286,CHANDURRIL,0.41012718361,SHIRAJGAON KORDE,20.830017,78.02615,Shirajgaon Korde,20.82662629,78.02770308
287,CHANDURRIL,1.02927039964,SONGAON,20.786433,77.980667,Shivni,20.79392908,77.97485824
288,CHANDURRIL,1.15241042154,SONGAON,20.786433,77.980667,Songaon,20.78057104,77.98980864
289,CHANDURRIL,1.63717234723,SONORA BU.,20.737167,77.937133,Sonora Bk.,20.73180866,77.95179653
290,CHANDURRIL,1.63717234723,SONORA BU.,20.737167,77.937133,Sonora Kh.,20.73180866,77.95179653
291,CHANDURRIL,1.37948524887,SUPALWADA,20.764767,78.049617,Supalwada,20.76947404,78.06189294
292,CHANDURRIL,3.09708160503,BASLAPUR,20.834533,77.93765,Taroda,20.84809013,77.96368403
293,CHANDURRIL,0.794469857659,TEMBHURNI,20.8484,78.002733,Tembhurni,20.85306086,78.00852776
294,CHANDURRIL,2.04927940304,TITWA,20.666817,78.0151,Titwa,20.6705903,77.99581987
295,CHANDURRIL,0.820844285492,TONGLABAD,20.695267,77.908033,Tongalabad,20.6945764,77.9158896
296,CHANDURRIL,4.21837686631,MANDWA,20.83785,78.053683,Tuljapur,20.81662471,78.02004137
297,CHANDURRIL,3.87545709472,JALKA JAGTAP,20.879533,78.060417,Umarpur,20.86517671,78.09440621
298,CHANDURRIL,2.24782538536,BAGAPUR,20.776283,78.038183,Wai,20.79547386,78.0313874
299,CHANDURRIL,1.35983092043,WAI BOTH,20.666167,77.90185,Wai,20.66852584,77.91467495
300,CHANDURRIL,1.72613777635,YERAD,20.635183,77.985767,Yerad,20.62315248,77.99624968
301,CHANDURRIL,1.31300282372,YERAD,20.635183,77.985767,Zibla,20.62855674,77.97532354
302,Daryapur,0.378441962018,ADULA  BAZAR,20.938783,77.209717,ADULA BAZAR,20.93815738,77.21329895
303,Daryapur,0.526650655421,ARALA,20.949267,77.433267,Ahmadpur,20.95400139,77.43312362
304,Daryapur,1.11115095827,BORALA,20.951017,77.44745,Ajitpur,20.94510904,77.45607969
305,Daryapur,1.38325948294,NARDODA,20.975067,77.388717,Alampur,20.97434971,77.40201757
306,Daryapur,1.1169581447,AMLA,20.877001,77.459001,Amla,20.88687027,77.45699852
307,Daryapur,2.20154630084,ITKI,21.006233,77.304933,Antargaon,21.02456523,77.29692154
308,Daryapur,3.79701804731,YEARNDGAON,20.991253,77.188261,Antargaon,20.98136076,77.15325581
309,Daryapur,2.09979350469,ARALA,20.949267,77.433267,Arala,20.96727142,77.43936635
310,Daryapur,3.01442799621,PETHA ITBARPUR,20.9374,77.32925,Babhali,20.9414429,77.30054826
311,Daryapur,2.0338683347,PETHA ITBARPUR,20.9374,77.32925,Banosa,20.92706263,77.34540597
312,Daryapur,1.61677770789,GHADA,21.05835,77.480217,Bembala Kh.,21.07200854,77.4748743
313,Daryapur,2.99011640852,BEMBLA BK.,21.0424,77.467833,BEMBLA BK.,21.04580502,77.49641351
314,Daryapur,1.2303547539,NAIGAON,20.921567,77.431867,Bhambora,20.93262311,77.43139635
315,Daryapur,1.78474707087,BHAMOD,20.916417,77.193683,Bhamod,20.92291259,77.17796969
316,Daryapur,1.927765207,SHINGANWADI,20.875267,77.367083,Bhujwada,20.85823699,77.37055803
317,Daryapur,1.31530844945,PIMPALKHUTA,20.9612,77.24945,Bhuras Ramagad,20.97045427,77.25733987
318,Daryapur,1.06148720788,BORALA,20.951017,77.44745,Borala,20.95403581,77.45714752
319,Daryapur,3.3202708944,MHAISPUR MOCHARDA,21.00825,77.449683,Chandai,21.01262076,77.48132501
320,Daryapur,0.993452386034,CHANDIKAPUR,20.985317,77.509217,Chandikapur,20.98046918,77.50117927
321,Daryapur,1.98444008888,LOTWADA,20.9011,77.1766,Chandkhed,20.89558263,77.19476736
322,Daryapur,0.723588468664,CHANDOLA,20.86565,77.14725,Chandola,20.8718349,77.14941518
323,Daryapur,1.86561444011,CHANDRAPUR,21.036417,77.4673,Chandrapur,21.02944286,77.48364896
324,Daryapur,1.5521539065,PETHA ITBARPUR,20.9374,77.32925,Chandur,20.94206121,77.34333803
325,Daryapur,0.912241359674,DARAPUR,20.9607,77.50365,Darapur,20.95961386,77.49494202
326,Daryapur,2.0338683347,PETHA ITBARPUR,20.9374,77.32925,Daryapur,20.92706263,77.34540597
327,Daryapur,0.874708839477,DHAMODI,20.8706,77.268683,Dhamane  Kh.,20.86706527,77.26116205
328,Daryapur,0.567287429099,DHAMODI,20.8706,77.268683,Dhamodi,20.86737599,77.27291452
329,Daryapur,2.50713293481,WADURA,21.035683,77.526033,Dighi,21.05282673,77.54172429
330,Daryapur,0.974907686392,DONGARGAON,21.00755,77.517183,Dongargaon,21.00874839,77.52648669
331,Daryapur,5.46147047693,SUKLI,20.885267,77.1442,Eklara Bhamod,20.92291259,77.17796969
332,Daryapur,1.17096032176,KALAMGVHAN,20.890233,77.427383,Elichpur,20.89578542,77.43696073
333,Daryapur,3.42624416831,MAHIMAPUR,21.06155,77.5209,Elori Mirzapur,21.07324893,77.55144752
334,Daryapur,1.73255558287,LEHGAON,20.9737,77.334617,Gajipur,20.9821322,77.34864951
335,Daryapur,3.20047073609,GAYWADI,20.887367,77.3577,Ganeshapur,20.90826754,77.33651767
336,Daryapur,1.97529425312,GAURKHEDA,21.013683,77.481833,Gaurkheda,21.02017547,77.49954672
337,Daryapur,0.974819167606,GAYWADI,20.887367,77.3577,GAYWADI,20.89459029,77.35238252
338,Daryapur,2.14030525906,GHADA,21.05835,77.480217,Ghada,21.05985519,77.50077966
339,Daryapur,0.501740412092,GHODCHANDI,20.958383,77.21835,Ghodchandi,20.96170586,77.22161903
340,Daryapur,3.37430364722,CHANDOLA,20.86565,77.14725,Ghuikhed,20.87004645,77.17938349
341,Daryapur,0.533133426781,GOLEGAON,20.894033,77.279933,Golegaon,20.89737174,77.2762497
342,Daryapur,1.60732735753,MAHULI DHANDE,20.95995,77.368617,Hasanpur,20.97391853,77.36463466
343,Daryapur,0.973139435257,KANHOLI,20.978433,77.382467,Husenpur,20.98717104,77.3829896
344,Daryapur,3.60308729479,KHAIRI,20.852892,77.421823,Ichora,20.8545829,77.38719543
345,Daryapur,0.396473384913,ITKI,21.006233,77.304933,Itki,21.00726801,77.30127804
346,Daryapur,1.79856382693,GHODCHANDI,20.958383,77.21835,Jagarwadi,20.97022904,77.20655573
347,Daryapur,2.61035590273,PETHA ITBARPUR,20.9374,77.32925,Jahanpur,20.94396351,77.35338326
348,Daryapur,2.61035590273,PETHA ITBARPUR,20.9374,77.32925,Jahanpur,20.94396351,77.35338326
349,Daryapur,1.35996412227,JAINPUR,20.947717,77.188617,Jainpur,20.94418225,77.17608001
350,Daryapur,2.49017207196,TAKLI,20.849267,77.347133,Jaitapur,20.87118279,77.3422035
351,Daryapur,1.27842216231,JASAPUR,20.930001,77.44335,Jasapur,20.92812863,77.45549492
352,Daryapur,2.16891262994,NAIGAON,20.921567,77.431867,Jitapur,20.94091561,77.43451041
353,Daryapur,1.63173146424,KALAMGVHAN,20.890233,77.427383,Kalamgavhan,20.90362985,77.42097254
354,Daryapur,2.58453812735,KALASHI,20.867533,77.398667,Kalashi,20.88155653,77.41850537
355,Daryapur,1.74237449593,KANHOLI,20.978433,77.382467,Kanholi,20.9940152,77.38069739
356,Daryapur,1.1560716842,KARATKHEDA,20.859317,77.19325,Karatkhed,20.86971374,77.19328856
357,Daryapur,0.487735185308,SAMDA,20.92515,77.2649,Kasampur,20.9267802,77.26054033
358,Daryapur,0.736675721533,TELKHEDA,21.01665,77.254217,Katkheda,21.01277097,77.25997041
359,Daryapur,0.904230649923,KHAIRI,20.852892,77.421823,Khairi,20.86055787,77.42472674
360,Daryapur,1.62586775683,KHALLAR,21.037964,77.459768,KHALLAR,21.05232844,77.45684163
361,Daryapur,1.12543868515,NALWADA,21.0064,77.439417,Khanpur,20.99643269,77.43753295
362,Daryapur,1.10160195158,DARAPUR,20.9607,77.50365,Khel Nagawe,20.96346216,77.51383839
363,Daryapur,3.3985686556,MHAISPUR MOCHARDA,21.00825,77.449683,Khirgavhan,21.02323843,77.47821768
364,Daryapur,2.7309843798,NACHONA,20.999217,77.343833,Khurmabad,21.02373143,77.34544079
365,Daryapur,0.104873603405,LEHGAON,20.9737,77.334617,Khursanpur,20.97311747,77.33382262
366,Daryapur,1.76307789095,KHAIRI,20.852892,77.421823,Kukasa,20.85489921,77.40499226
367,Daryapur,2.54204128535,KHALLAR,21.037964,77.459768,Landi,21.03753807,77.48425753
368,Daryapur,1.1285220615,LASUR,20.8669,77.23615,Lasur,20.87386612,77.24404907
369,Daryapur,1.1465944407,LEHGAON,20.9737,77.334617,LEHGAON,20.97802867,77.34464024
370,Daryapur,0.439828011877,PETHA ITBARPUR,20.9374,77.32925,Lodhipur,20.93817771,77.32509755
371,Daryapur,1.4388170852,KARATKHEDA,20.859317,77.19325,Lohitkhed,20.86223868,77.2067397
372,Daryapur,0.970713028143,LOTWADA,20.9011,77.1766,Lotwada,20.90257648,77.16738984
373,Daryapur,0.967289607053,MAHIMAPUR,21.06155,77.5209,Mahimapur,21.06582436,77.52901899
374,Daryapur,2.47175105947,MAHULI DHANDE,20.95995,77.368617,Mahuli,20.96104538,77.39239226
375,Daryapur,0.445063268133,MARKANDA,21.0094,77.532217,Markanda,21.01334091,77.53296658
376,Daryapur,1.26432948007,MATARGAON,20.983367,77.45555,Matargaon,20.97583791,77.46467542
377,Daryapur,1.33383382153,BHAMOD,20.916417,77.193683,Mhaispur,20.91503633,77.20643929
378,Daryapur,2.39828451853,MHAISPUR MOCHARDA,21.00825,77.449683,MHAISPUR MOCHARDA,21.00723841,77.47276154
379,Daryapur,1.06707354211,NACHONA,20.999217,77.343833,Nachona,21.00792955,77.33952391
380,Daryapur,0.230461541733,NAIGAON,20.921567,77.431867,Naigaon,20.92084588,77.43394724
381,Daryapur,1.42206307375,NALWADA,21.0064,77.439417,Nalwada,21.00094945,77.45180967
382,Daryapur,0.669107889973,NANDED BK.,20.90955,77.47545,Nanded Bk.,20.91553396,77.4761285
383,Daryapur,1.1148874402,NANDRUN,20.912283,77.2232,Nandrun,20.91431026,77.23371184
384,Daryapur,1.60314417888,MAHULI DHANDE,20.95995,77.368617,Nandura,20.95211689,77.38157822
385,Daryapur,2.74115861261,NARDODA,20.975067,77.388717,Nardoda,20.96937316,77.41440392
386,Daryapur,1.5982479478,NARSHINGPUR,20.906017,77.432917,Narsingpur,20.91086999,77.44740001
387,Daryapur,1.36111221668,PANORA,20.8621,77.3283,Panora,20.87379921,77.32444652
388,Daryapur,0.723580341304,NANDRUN,20.912283,77.2232,Patharvira,20.91010859,77.21663427
389,Daryapur,2.54959865943,PETHA ITBARPUR,20.9374,77.32925,Peth Itbarpur,20.95434832,77.3457861
390,Daryapur,1.22887604949,PIMPLOD,20.956633,77.190317,Pimplod,20.96481687,77.18236365
391,Daryapur,1.75196022005,BEMBLA BK.,21.0424,77.467833,Pralhadpur,21.05456826,77.47855743
392,Daryapur,1.9677962345,YEARNDGAON,20.991253,77.188261,Rajkhed,21.00730113,77.1802715
393,Daryapur,5.17117552094,RUSTAMPUR,20.8561,77.188567,Ramagad,20.88898091,77.22376463
394,Daryapur,1.36840251896,RAMGAON,20.995633,77.410001,Ramgaon,20.99697489,77.42310395
395,Daryapur,1.75778493954,RAMTIRTH,20.859383,77.21185,Ramtirtha,20.87429055,77.21747867
396,Daryapur,0.363770800526,RUSTAMPUR,20.8561,77.188567,Rustampur,20.85663725,77.19202033
397,Daryapur,1.79856382693,GHODCHANDI,20.958383,77.21835,Sagarwadi,20.97022904,77.20655573
398,Daryapur,0.481592756884,SAMDA,20.92515,77.2649,Samada,20.92767904,77.26866427
399,Daryapur,1.57425220825,SANGAWA BK,21.064517,77.488367,Sangawa Bk.,21.07795083,77.49315595
400,Daryapur,1.57425220825,SANGAWA BK,21.064517,77.488367,Sangawa Kh.,21.07795083,77.49315595
401,Daryapur,0.619694888052,SASAN BK.,20.945833,77.234767,Sasan Bk.,20.95131984,77.23372143
402,Daryapur,0.271426307162,MAHULI DHANDE,20.95995,77.368617,Shahapur,20.96222672,77.36955973
403,Daryapur,0.286242599405,SHINGANWADI,20.875267,77.367083,Shinganwadi,20.87776221,77.36776044
404,Daryapur,0.385609095293,SHINGNAPUR,20.94505,77.491367,Shingnapur,20.94226089,77.4891604
405,Daryapur,0.967187220925,SHIRAJDA,20.855867,77.437083,Shirajda,20.86413573,77.43997149
406,Daryapur,1.52503697609,GHADA,21.05835,77.480217,Shivarkheda,21.07188096,77.48261655
407,Daryapur,1.16497135803,SHIVAR BK.,20.8997,77.29295,Shiwar Kh.,20.90655263,77.30143333
408,Daryapur,2.84757199189,MAHULI DHANDE,20.95995,77.368617,Sikandarpur,20.96920473,77.39418781
409,Daryapur,1.65543653874,LEHGAON,20.9737,77.334617,Sonkhas,20.98301561,77.32217954
410,Daryapur,2.4933610531,CHANDOLA,20.86565,77.14725,Sonkhed,20.87552945,77.16879314
411,Daryapur,0.976682578227,KALASHI,20.867533,77.398667,Sujapur,20.87524105,77.39415982
412,Daryapur,0.881182071834,SUKLI,20.885267,77.1442,Sukali,20.89311268,77.14539456
413,Daryapur,0.752507060152,TAKLI,20.849267,77.347133,Takali,20.85589895,77.34569106
414,Daryapur,3.76964217906,ITKI,21.006233,77.304933,Tamaswadi,21.03591963,77.32247074
415,Daryapur,0.778032514176,TELKHEDA,21.01665,77.254217,Telkheda,21.0208102,77.26024393
416,Daryapur,1.43268015831,THILORI,20.91135,77.37855,Thilori,20.91539867,77.39164441
417,Daryapur,0.505343450475,TONGLABAD,20.87515,77.258717,TONGLABAD,20.87934699,77.26058284
418,Daryapur,0.494850766977,UMRI ITBARPUR,21.034617,77.2741,Umari Itbarpur,21.03766418,77.27757503
419,Daryapur,0.654914683322,UPRAI,21.02125,77.528967,UPRAI,21.0271059,77.52829109
420,Daryapur,1.05577238202,WADURA,21.035683,77.526033,Wadura,21.04278182,77.53278875
421,Daryapur,1.03681928535,YEODA,20.998783,77.237383,Yeoda Bk.,21.00728775,77.23328832
422,Daryapur,0.810601756829,YEARNDGAON,20.991253,77.188261,Yerandgaon,20.99329058,77.18076405
423,Daryapur,1.89883737174,SHIRAJDA,20.855867,77.437083,Zingala,20.86273281,77.4538153
424,Morshi,1.78707113288,ADGAON,21.154317,77.846933,Adgaon,21.16126158,77.86247431
425,Morshi,4.39110150158,Simbhora,21.338567,78.009633,Ahmadabad,21.30291826,77.99139549
426,Morshi,4.2227096857,MANIMPUR,21.3357,77.9742,Ahmadpur,21.35369832,78.01010239
427,Morshi,4.28955333261,YERLA,21.317267,77.996483,Ahmadpur,21.35369832,78.01010239
428,Morshi,1.48136763257,VICHORI,21.190533,77.861733,Ajampur,21.20311289,77.86643629
429,Morshi,1.2943858909,AKHATWADA,21.2034,77.986933,Akhatwada,21.21005577,77.99717691
430,Morshi,0.931179968868,AMBADA,21.32885,77.90825,Ambada,21.33006703,77.89935536
431,Morshi,2.87483531766,DHANORA,21.369033,77.9742,Ambhori,21.38721417,77.95446044
432,Morshi,1.50544823678,ASTHAGAON,21.308583,77.9246,Ashtagaon,21.31258427,77.91071667
433,Morshi,0.622148383413,ASTHOLI,21.280783,77.825383,Ashtoli,21.28343162,77.8200938
434,Morshi,2.68142926025,TALNI,21.26225,78.008117,Asona,21.26125675,77.982263
435,Morshi,4.10102458937,BRAHMANWADA,21.2361,77.845483,Bahadurnagar,21.2520798,77.80981972
436,Morshi,3.28645002224,BARHANPUR,21.241517,77.826533,Barhanpur,21.21696602,77.80887924
437,Morshi,1.22131373599,MANIMPUR,21.3357,77.9742,Belkheda Rasulpur,21.34578459,77.96952772
438,Morshi,0.554899033934,BELONA,21.388633,78.10475,Belona,21.3931275,78.10707904
439,Morshi,0.931729326694,BHAI PUR,21.35445,78.032033,Bhaipur,21.34774901,78.03743447
440,Morshi,2.91503239514,KHED,21.307617,77.860783,Bhalond,21.31998869,77.83597347
441,Morshi,1.75634779888,BHAMBORA,21.223917,78.036917,Bhambora,21.23580177,78.04807836
442,Morshi,4.3868303193,AMBADA,21.32885,77.90825,Bhangara,21.36352118,77.88803941
443,Morshi,0.665520422853,BHILAPUR,21.15835,77.914733,Bhilapur,21.15983809,77.92094932
444,Morshi,2.86899086447,DHANORA,21.369033,77.9742,Bhiwkundi,21.39454973,77.97009495
445,Morshi,3.7562527421,PIMPALKHUTA  LAHAN,21.276583,77.9551,Bodna,21.28395631,77.91972147
446,Morshi,0.85384439396,BRAHMANWADA,21.2361,77.845483,Bramhanwada,21.23995818,77.83836007
447,Morshi,0.242367986481,DABHERI,21.211867,77.833867,Dabheri,21.21221876,77.83617443
448,Morshi,2.21049741349,GANESHPUR,21.38705,77.853967,Dahsur,21.36738387,77.85084773
449,Morshi,0.251998194874,DAPORI,21.387917,78.058167,Dapori,21.38576505,78.05740373
450,Morshi,2.53829243798,SHIRKHED,21.219,77.94225,Daryapur,21.23699334,77.95731998
451,Morshi,0.703868648981,DHAMANGAON,21.223917,77.892767,Dhamangaon,21.22829001,77.88785721
452,Morshi,0.294708263421,DHANORA,21.369033,77.9742,Dhanora,21.37136268,77.97284294
453,Morshi,0.194129732658,DOMAK,21.299817,77.8131,Domak,21.29807249,77.81302658
454,Morshi,3.33377582812,DURGWADA,21.28965,78.037917,Durgwada,21.31612207,78.02280953
455,Morshi,0.494368987851,GANESHPUR,21.38705,77.853967,Ganeshpur,21.38365343,77.85704791
456,Morshi,1.92804015124,YAVLI,21.406633,78.041817,Ghoddeo  Bk.,21.42199323,78.05045804
457,Morshi,1.92804015124,YAVLI,21.406633,78.041817,Ghoddeo  Kh.,21.42199323,78.05045804
458,Morshi,0.88940126873,GHODGAVHAN,21.177133,77.899967,Ghodgavhan,21.17893438,77.90832454
459,Morshi,1.14923779211,GORALA,21.149783,77.929883,Gorala,21.15518014,77.93933398
460,Morshi,1.86691680465,TALNI,21.26225,78.008117,Hashampur,21.24577509,78.00464552
461,Morshi,4.29003871281,VARHA,21.285733,77.903667,Hasnapur,21.3182467,77.88137445
462,Morshi,2.96130856785,AMBADA,21.32885,77.90825,Hirapur,21.33516828,77.8804758
463,Morshi,0.986135373665,HIWARKHED,21.396467,78.0791,Hiwarkhed,21.39512731,78.08851566
464,Morshi,1.13988032667,NIMBHI,21.248083,77.961367,Inapur,21.24195659,77.97018543
465,Morshi,1.49763312337,AMBADA,21.32885,77.90825,Irur,21.33803966,77.91882072
466,Morshi,3.505521946,BARHANPUR,21.241517,77.826533,Ismailpur,21.21006451,77.82422609
467,Morshi,3.3833437461,BELONA,21.388633,78.10475,Ismailpur,21.38172786,78.07292564
468,Morshi,2.86630039602,SHIRLAS,21.16609,78.03057,Kamalapur,21.18396231,78.05049046
469,Morshi,5.87100706927,YERLA,21.317267,77.996483,Kashimpur,21.28773417,78.04345992
470,Morshi,2.50048753549,ADGAON,21.154317,77.846933,Kasimpur,21.15915228,77.87048169
471,Morshi,1.17875734813,KATPUR,21.21485,77.915133,Katpur,21.22214511,77.90688218
472,Morshi,1.19688350034,KATSUR,21.152617,77.825183,Katsur,21.16315071,77.82755685
473,Morshi,1.3035324146,KAWTHAL,21.204483,78.0396,Kawathal,21.21126254,78.04985852
474,Morshi,1.36407297916,KHANAPUR,21.315217,77.953917,Khanapur,21.32010795,77.94184048
475,Morshi,1.24263603231,KHED,21.307617,77.860783,Khed,21.2998872,77.85212028
476,Morshi,1.24367203549,KHOPDA,21.268733,77.923033,KHOPDA,21.27168671,77.91145689
477,Morshi,0.57049089441,KOLVIR,21.2718,77.85154,Kolvihir,21.27341762,77.84631514
478,Morshi,2.54637735111,LADKI BK.,21.2706,77.947583,Ladki Bk,21.25885208,77.92648975
479,Morshi,2.01818518224,UMARKHED,21.421317,78.1042,Lakhara,21.42054436,78.12367909
480,Morshi,1.67920640103,LEHEGAON,21.220233,77.942233,Lehegaon,21.20755414,77.95103303
481,Morshi,0.433936672165,LIHIDA,21.22455,77.98515,Lihida,21.22506164,77.98099967
482,Morshi,0.771863567595,MAYWADI,21.372283,78.040767,Maiwadi,21.37912277,78.04203874
483,Morshi,3.57781980882,AMBADA,21.32885,77.90825,Malkapur,21.36100562,77.90701744
484,Morshi,4.8426366676,TALNI,21.26225,78.008117,Mamdabad,21.30291826,77.99139549
485,Morshi,1.55313803046,KATPUR,21.21485,77.915133,Mamdapur,21.22866398,77.91734992
486,Morshi,1.04713829613,MANGRUL,21.15455,77.888567,Mangrul,21.16373094,77.89081444
487,Morshi,2.61610191112,GANESHPUR,21.38705,77.853967,Maniardhi,21.37997635,77.87806446
488,Morshi,2.56395309367,MANIMPUR,21.3357,77.9742,Manimpur,21.3456404,77.99653707
489,Morshi,1.20936665071,BHAI PUR,21.35445,78.032033,Mengwadi,21.35608969,78.04357742
490,Morshi,1.4554005514,DABHERI,21.211867,77.833867,Nabipur,21.21674398,77.84689613
491,Morshi,5.08959072133,BARHANPUR,21.241517,77.826533,Najarpur Bk,21.22943136,77.7791696
492,Morshi,0.61381136918,NASHIRPUR,21.289683,78.037917,Nashirpur,21.28773417,78.04345992
493,Morshi,0.07904500592,NAYA VATHODA,21.23101,78.00171,Nayawathoda,21.23167112,78.00142972
494,Morshi,0.977570131482,NER  PINGLAI,21.182817,77.982117,Nerpingalai,21.17847758,77.99031684
495,Morshi,3.49137059319,RAJURWADI,21.19395,78.05715,Nimbharni,21.1904319,78.090614
496,Morshi,1.25841467104,NIMBHI,21.248083,77.961367,Nimbhi,21.25657236,77.95333694
497,Morshi,1.71442727608,PARDI,21.28965,78.037917,Pardi,21.29304885,78.02177642
498,Morshi,1.57979046012,PATUR,21.162617,77.839817,Patur,21.17636629,77.84365469
499,Morshi,0.656196800841,PIMPALKHUTA  LAHAN,21.276583,77.9551,Pimpalkhuta Lahan,21.28037892,77.95025096
500,Morshi,0.574680206958,PIMPULKHUTA MOTHA,21.262267,78.00815,Pimpalkhuta Motha,21.26533954,78.01260931
501,Morshi,1.42027146789,PORGAVHAN,21.242033,77.884767,Porgavhan,21.25414972,77.88910275
502,Morshi,3.94989447595,AKHATWADA,21.2034,77.986933,Pusala,21.21837102,78.02148721
503,Morshi,1.92529320252,DOMAK,21.299817,77.8131,Raipur,21.30913519,77.82876377
504,Morshi,0.963099027998,RAJURWADI,21.19395,78.05715,Rajurwadi,21.19297157,78.0663802
505,Morshi,1.22131373599,MANIMPUR,21.3357,77.9742,Rasulpur  Kopra,21.34578459,77.96952772
506,Morshi,2.62999724976,DHANORA,21.369033,77.9742,Rasulpur Yerla,21.34578459,77.96952772
507,Morshi,0.535683656646,RIDHAPUR,21.2416,77.805333,Rithpur,21.23858507,77.80936433
508,Morshi,0.985074420308,ROHANKHEDA,21.186183,77.885033,Rohankhed,21.19354098,77.89032451
509,Morshi,3.38184285754,DHANORA,21.369033,77.9742,Sadatpur,21.34055689,77.98566924
510,Morshi,2.30571334726,BARHANPUR,21.241517,77.826533,Sahadapur,21.22438027,77.81400776
511,Morshi,4.54089058885,AMBADA,21.32885,77.90825,Saiwada,21.33866777,77.86569448
512,Morshi,0.441201121418,SAWARKHEDA,21.180333,77.936533,Sawarkhed,21.17995286,77.94076869
513,Morshi,0.883845621493,SHIRAJGAON,21.14118,77.88484,Shirajgaon,21.14140947,77.89335866
514,Morshi,0.723232449776,SHIRLAS,21.16609,78.03057,Shiralas,21.16900211,78.03680664
515,Morshi,1.08263129092,SHIRKHED,21.219,77.94225,Shirkhed,21.22869036,77.94123615
516,Morshi,2.23496456011,YERLA,21.317267,77.996483,Shivpuri,21.32915583,77.97908568
517,Morshi,3.19878039689,RAJURWADI,21.19395,78.05715,Shiwara,21.20561457,78.0853551
518,Morshi,1.5478646052,BHAI PUR,21.35445,78.032033,Supala,21.36771095,78.02748736
519,Morshi,0.427014449871,TALEGAON,21.22835,77.852733,Talegaon,21.22627147,77.85619714
520,Morshi,3.8362243972,TALNI,21.26225,78.008117,Talni,21.2885422,77.98414565
521,Morshi,0.937970330214,DHANORA,21.369033,77.9742,Taroda,21.36314061,77.96771837
522,Morshi,0.817545789078,TARODA,21.293333,77.841567,Taroda,21.29249333,77.83372759
523,Morshi,3.09763696769,BHAI PUR,21.35445,78.032033,Thani,21.35348237,78.06192611
524,Morshi,3.09763696769,BHAI PUR,21.35445,78.032033,Thuni,21.35348237,78.06192611
525,Morshi,3.638113565,BRAHMANWADA,21.2361,77.845483,Trimalpur,21.21006451,77.82422609
526,Morshi,2.72462183375,BHAMBORA,21.223917,78.036917,Tuljapur,21.22751902,78.06291777
527,Morshi,0.375722054088,UTKHED,21.282167,77.890567,Udkhed,21.28087779,77.88721509
528,Morshi,0.398801248322,UMARKHED,21.421317,78.1042,Umarkhed,21.41896121,78.10129504
529,Morshi,0.56534430761,VICHORI,21.190533,77.861733,Vichori,21.1905179,77.85628005
530,Morshi,3.75437139239,VISHNORA,21.22835,77.852733,Vishnora,21.25998593,77.86539002
531,Morshi,0.268977534396,WAGHOLI,21.208283,77.924083,Wagholi,21.20589362,77.92448762
532,Morshi,1.00924298792,VARHA,21.285733,77.903667,Warha,21.2943305,77.90054481
533,Morshi,2.21700221442,RIDHAPUR,21.2416,77.805333,Yashwantpur,21.235259,77.82561318
534,Morshi,0.384062843968,YAVLI,21.406633,78.041817,Yawali,21.40318465,78.04202836
535,Morshi,0.822842078937,YERLA,21.317267,77.996483,Yerla,21.3166609,77.98856623
536,Morshi,0.739588766791,YEVTI,21.242417,78.026383,Yevti,21.24662599,78.03190865
537,Warud,1.58934198695,PALASWADA,21.34669,78.18663,Ajitpur-Bhapki,21.3416898,78.20100621
538,Warud,0.596502882899,ALODA,21.36876,78.21661,Aloda,21.36457014,78.22020728
539,Warud,3.4988561515,KHADKA,21.45026,78.11814,Ambafata,21.43944851,78.08639179
540,Warud,2.55956190562,EKDARA,21.42661,78.38905,Ambpend,21.44955763,78.39099169
541,Warud,0.224683334526,AMADAPUR,21.41607,78.26868,Amdapur,21.41719241,78.27048484
542,Warud,0.633125530769,AMNER,21.4021,78.39805,Amner,21.39837309,78.4026734
543,Warud,3.6649739173,TIWSA GHAT,21.52674,78.27149,Antarkhop,21.49383982,78.27362173
544,Warud,0.552909634084,BABHULKHEDA,21.41223,78.40133,Babhulkheda,21.41086136,78.40646476
545,Warud,2.23196038697,BAHADA,21.47852,78.20641,Bahada,21.49628863,78.1963755
546,Warud,0.874258779597,BARGAON,21.44137,78.13261,Bargaon,21.43735157,78.1398703
547,Warud,0.950807782006,BABHULKHEDA,21.41223,78.40133,Belkheda,21.41996579,78.40524358
548,Warud,0.311045307457,BELORA,21.35531,78.20728,Belora,21.35523753,78.21028251
549,Warud,1.12731398173,BENODA,21.45768,78.18351,Benoda,21.44806916,78.18004264
550,Warud,0.717949640999,BESKHEDA,21.42875,78.40456,Beskheda,21.43275015,78.41000473
551,Warud,2.23266345226,KURALI,21.45228,78.30094,Bhandoli Bk,21.45980279,78.32094251
552,Warud,2.0650892843,ZATAMZIRI,21.54087,78.23697,Bhemdi,21.52816055,78.22241196
553,Warud,0.327329122625,CHANDAS,21.43623,78.34519,Chandas,21.43503881,78.34229799
554,Warud,1.3529880801,CHINCHARGAVHAN,21.41333,78.29244,Chinchargavhan,21.42126428,78.30234927
555,Warud,2.57373658782,CHANDAS,21.43623,78.34519,Dabhi,21.45809273,78.33702415
556,Warud,0.987101751038,DAVARGAON,21.42612,78.24719,Dawargaon,21.4207026,78.25474452
557,Warud,1.72545975031,DEUTWADA,21.39905,78.3414,Deutwada,21.38362879,78.34325305
558,Warud,0.814942818243,DHAGA,21.41867,78.38423,Dhaga,21.42322109,78.37805906
559,Warud,2.34211432905,PALASONA,21.4765,78.17615,DHAMANDAS,21.47847123,78.15361447
560,Warud,1.22936450474,DHANODI,21.48487,78.29972,Dhanodi,21.48036528,78.31057039
561,Warud,3.42499189914,URAD,21.48726,78.37689,Ekalvihir,21.49597259,78.40864142
562,Warud,0.732549976192,EKDARA,21.42661,78.38905,Ekdara,21.43319797,78.38903754
563,Warud,2.97125398289,MORCHUND,21.40434,78.29844,Fattepur,21.42493088,78.31673332
564,Warud,0.362819635758,GADEGAON,21.361493,78.259283,Gadegaon,21.36422363,78.26120091
565,Warud,0.956577097838,GAVHANKUND,21.50731,78.20376,Gavhankund,21.50423177,78.21239423
566,Warud,0.569978445508,GHORAD,21.40219,78.36647,Ghorad,21.39796425,78.36335372
567,Warud,0.326872311525,GOREGAON,21.42214,78.16684,Goregaon,21.42356006,78.16960491
568,Warud,0.426406685268,DAVARGAON,21.42612,78.24719,Hanumantkhed,21.42791369,78.24354893
569,Warud,0.266069846134,HATURNA,21.33608,78.23193,Haturna,21.33686538,78.23435658
570,Warud,0.873089178638,ISAMBRI,21.48267,78.21806,Isambari,21.4787542,78.22537378
571,Warud,0.843775089272,ISAPUR,21.41068,78.33556,Isapur,21.4092702,78.32755119
572,Warud,1.75783437788,BABHULKHEDA,21.41223,78.40133,Ismailpur,21.40705912,78.38528373
573,Warud,1.1565558438,ITTAMGAON,21.35553,78.1732,Ittamgaon,21.34525568,78.17146129
574,Warud,1.61608572764,ITTAMGAON,21.35553,78.1732,Jamalpur,21.35261261,78.15791249
575,Warud,0.377835496635,JAMGAON KHADKA,21.45681,78.1379,Jamgaon,21.45372223,78.13942398
576,Warud,0.399989953481,JAMGAON MAHENDRI,21.59404,78.40755,Jamgaon Mahendri,21.597294,78.40919916
577,Warud,0.39865581928,JARUD,21.45502,78.22214,Jarud,21.4517397,78.22369452
578,Warud,0.429105470791,KACHURNA,21.38784,78.2317,Kachurna,21.38427015,78.23327411
579,Warud,0.977967665981,KARAJGAON,21.40726,78.20058,Karajgaon,21.41471409,78.195566
580,Warud,2.33437062302,JAMGAON MAHENDRI,21.59404,78.40755,Karli,21.6034221,78.38735135
581,Warud,0.0997016051156,KATI,21.38379,78.25731,Kati,21.38410228,78.25640736
582,Warud,0.467761329802,KHADKA,21.45026,78.11814,Khadka,21.4476899,78.12171808
583,Warud,1.44757260688,ISAPUR,21.41068,78.33556,Khanapur,21.39796657,78.33255148
584,Warud,2.549177017,WAI KHURD,21.5682,78.33693,Khaperkheda,21.55173608,78.3540835
585,Warud,3.84786175122,DHANODI,21.48487,78.29972,Khedi,21.51492304,78.31815803
586,Warud,3.21667883859,DHANODI,21.48487,78.29972,Kumbhikheda,21.47545696,78.32911568
587,Warud,4.97101254008,PALASONA,21.4765,78.17615,Kumdara,21.46515671,78.12968302
588,Warud,0.697280765299,KURALI,21.45228,78.30094,Kurali,21.44768566,78.3055255
589,Warud,0.854144668258,LINGA,21.52422,78.42898,Linga,21.52247991,78.42093735
590,Warud,0.333592139291,LONI,21.37636,78.18649,Loni,21.37494876,78.18933298
591,Warud,3.63236029097,JARUD,21.45502,78.22214,Mahapur,21.47193089,78.25217132
592,Warud,0.44617585558,MALKHED,21.49487,78.2978,Malkhed,21.49239645,78.30119559
593,Warud,1.36675709216,PALASONA,21.4765,78.17615,Mangona,21.48484626,78.18584695
594,Warud,1.39839617807,MANGARULI,21.40658,78.23071,Mangruli,21.40788862,78.24414467
595,Warud,2.83619469503,PALASONA,21.4765,78.17615,MANIKPUR,21.46911143,78.14991622
596,Warud,1.59472269402,ISAPUR,21.41068,78.33556,Mendhi,21.40386633,78.3491149
597,Warud,2.53716983288,DAVARGAON,21.42612,78.24719,Milanpur,21.44476585,78.2613188
598,Warud,4.26541536894,DHANODI,21.48487,78.29972,Mokvihir,21.51072371,78.33017717
599,Warud,1.30833169852,MORCHUND,21.40434,78.29844,Morchund,21.40396318,78.31107126
600,Warud,3.84469628684,BABHULKHEDA,21.41223,78.40133,Morshi Kh,21.41006474,78.43839647
601,Warud,2.09262201425,WATHODA,21.43703,78.34879,Musalkheda,21.45521232,78.35400639
602,Warud,3.22103207046,PALASONA,21.4765,78.17615,Nagziri,21.45354052,78.15717082
603,Warud,5.17446351194,KACHURNA,21.38784,78.2317,Namapur,21.41719241,78.27048484
604,Warud,0.448123173742,NANDGAON,21.3583,78.23202,Nandgaon,21.35549729,78.23512943
605,Warud,0.47265190522,PALASONA,21.4765,78.17615,PALASONA,21.47810527,78.17192042
606,Warud,0.916630296872,PALASWADA,21.34669,78.18663,Palaswada,21.35484283,78.1879388
607,Warud,1.40122032966,KHADKA,21.45026,78.11814,Pandharghati,21.45234091,78.10478651
608,Warud,2.92333297155,MALKHED,21.49487,78.2978,Pardi,21.46858362,78.2973206
609,Warud,0.699779123983,PAWANI,21.38848,78.31889,Pawani,21.38223437,78.31806001
610,Warud,0.968642818196,PETH MANGARULI,21.40658,78.23071,Pethmangruli,21.40004414,78.22452425
611,Warud,2.93833398634,DAVARGAON,21.42612,78.24719,Pimpalkhuta,21.4382861,78.27239044
612,Warud,0.245765683123,PIMPALKHUTA B.,21.42846,78.20712,Pimpalkhuta,21.42694062,78.20539564
613,Warud,2.95321462637,ZATAMZIRI,21.54087,78.23697,Pimpalshenda,21.52721397,78.26145841
614,Warud,1.4913200297,JAMGAON MAHENDRI,21.59404,78.40755,Pimplagad,21.58131219,78.41209723
615,Warud,0.162494908917,PORGAVHAN,21.434,78.43198,Porgavhan,21.4354433,78.431734
616,Warud,0.501213741244,PUSLA,21.5096,78.35423,Pusla,21.51279342,78.35764934
617,Warud,1.43780375386,RAJURA BAZAR,21.41355,78.27372,Rajura Bajar,21.40924957,78.28681842
618,Warud,4.14824872646,WAI KHURD,21.5682,78.33693,Ramapur,21.53794856,78.3604023
619,Warud,0.791369577285,ROSHANKHEDA,21.45191,78.29071,Roshankheda,21.44526383,78.29344489
620,Warud,1.26394555063,DAVARGAON,21.42612,78.24719,Saidapur,21.43185781,78.25773118
621,Warud,1.52158275291,SAWANGA,21.39589,78.1824,Sawanga,21.39734546,78.1970135
622,Warud,0.713857173825,SAWANGI,21.46871,78.376,Sawangi,21.46579213,78.36985526
623,Warud,0.921378878487,SHAHAPUR,21.46151,78.24268,Shahapur,21.46596124,78.25018987
624,Warud,3.12872703146,UDAPUR,21.41284,78.33527,Shekapur,21.44056278,78.33010064
625,Warud,1.31833788455,SHINGORI,21.36724,78.13981,Shingori,21.35539086,78.14024607
626,Warud,2.88335644007,AMADAPUR,21.41607,78.26868,Shirpur,21.43797761,78.28358285
627,Warud,1.26772021499,SURALI,21.44589,78.3068,Surli,21.44123124,78.31797944
628,Warud,2.47147139641,DHANODI,21.48487,78.29972,Suryakheda,21.48290913,78.32351293
629,Warud,1.46494064023,GADEGAON,21.361493,78.259283,Tembhani,21.36624866,78.24609022
630,Warud,1.03579028008,TEMBHURKHEDA,21.50026,78.23604,Tembhurkheda,21.4935597,78.24299504
631,Warud,0.872955077147,TIWSA GHAT,21.52674,78.27149,Tiwsa Ghat,21.52466262,78.27962847
632,Warud,0.691792425867,UDAPUR,21.41284,78.33527,Udapur,21.41900971,78.33612999
633,Warud,1.93111835395,URAD,21.48726,78.37689,Urad,21.50405367,78.38164621
634,Warud,0.186873559514,WADALA,21.38238,78.29514,Wadala,21.38126546,78.29649083
635,Warud,0.755925835026,WADEGAON,21.39011,78.27006,Wadegaon,21.38707188,78.27659139
636,Warud,2.55180623414,WAGHAL,21.36904,78.27019,Waghal,21.34723391,78.26251079
637,Warud,1.06588727114,WANDALI,21.36648,78.28035,Wandli,21.36450724,78.29042281
638,Warud,1.34994711267,WATHODA,21.43703,78.34879,Wathoda,21.4363496,78.36181213
639,Warud,2.02400080593,PIMPALKHUTA B.,21.42846,78.20712,Wawruli,21.41758085,78.22279649
640,Warud,2.06135478521,BABHULKHEDA,21.41223,78.40133,Wedhapur,21.40730973,78.42052813
641,Warud,1.88357298119,KHADKA,21.45026,78.11814,Yerandwadi,21.43806331,78.10551058
642,Warud,0.28330887116,ZATAMZIRI,21.54087,78.23697,Zatamziri,21.53924722,78.2390817
