,Block Name,Distance,GP Name,GP_lat,GP_long,Village Name,Village_lat,Village_long
0,BHIVAPUR,0.462896274722,ADDYAL (PUNARVASIT),20.81604,79.53161,Adyal,20.81424817,79.53562994
1,BHIVAPUR,2.34208934745,MANORA,20.79559,79.40559,Akalabodi,20.77504839,79.40060869
2,BHIVAPUR,0.921143108575,AALESUR,20.61579,79.32062,Alesur,20.62309643,79.32479123
3,BHIVAPUR,5.14712089378,ZAMKOLI,20.63175,79.19534,Bellarpar,20.59554417,79.22615424
4,BHIVAPUR,1.65283823308,BESUR,20.69398,79.26561,Besur,20.6832992,79.27666033
5,BHIVAPUR,1.35419776989,BHAGEBORI,20.75689,79.46837,Bhagebori,20.75061405,79.47953121
6,BHIVAPUR,1.28147174818,BHAGWANPUR,20.65512,79.33731,Bhagwanpur,20.66050958,79.34819661
7,BHIVAPUR,0.736255976188,BHIVI,20.6339,79.1959,Bhivi,20.62830508,79.19211636
8,BHIVAPUR,2.4480301956,PULLAR,20.85761,79.50296,Bhowari,20.83560613,79.50218898
9,BHIVAPUR,3.64593487362,WAKESHAWAR,20.73173,79.41239,Bordkala,20.71310783,79.44124395
10,BHIVAPUR,2.72104245266,ZILBODI,20.68944,79.46234,Borgaon S.,20.66586521,79.46935345
11,BHIVAPUR,1.58082657175,BOTEZARI,20.73932,79.33341,Botezari,20.72510566,79.33313216
12,BHIVAPUR,4.07670899521,KAWADSHI (B),20.7737,79.28848,Chargaon (g),20.75247949,79.32045381
13,BHIVAPUR,4.4057647482,MANDVA(L),20.74364,79.2551,Chargaon Mo.,20.73214562,79.295645
14,BHIVAPUR,2.03491269444,CHICHALA,20.75623,79.3541,Chichala,20.74223544,79.36671015
15,BHIVAPUR,2.50939107347,MAHALGAON,20.67449,79.23197,Chikhalapar,20.66391456,79.25327769
16,BHIVAPUR,1.35732666956,SALEBHATTI(C),20.68415,79.36419,Chorvihira,20.69601343,79.36726278
17,BHIVAPUR,0.732317866927,DHAPARLA(D),20.6896,79.4013,Dhaparla D.,20.69097465,79.40818488
18,BHIVAPUR,0.983110503008,VIRKHANDI (D.),20.7827,79.45888,Dhaparla V.,20.77445381,79.46229079
19,BHIVAPUR,1.06591886319,PAHAMI,20.76121,79.35401,Gardapar,20.76778297,79.36147241
20,BHIVAPUR,1.13148199339,GONDBORI,20.7641,79.44476,Gondbori,20.76245357,79.45549905
21,BHIVAPUR,2.52386002444,DHAMANGAON(V),20.67212,79.43849,Hattibodi,20.680455,79.46105526
22,BHIVAPUR,2.453600393,INDAPUR,20.7325,79.23233,Indapur,20.71071119,79.23605607
23,BHIVAPUR,2.01681310345,NAGTAROLI,20.79489,79.52411,Jambhurda,20.79200801,79.54326483
24,BHIVAPUR,2.58355698784,JAWRABODI,20.77461,79.4607,Jawrabodi,20.77371708,79.48553174
25,BHIVAPUR,0.930252223998,KARGAON,20.78161,79.42321,Kargaon,20.77982828,79.43195279
26,BHIVAPUR,5.92984577897,INDAPUR,20.7325,79.23233,Keslapar,20.70127792,79.27855178
27,BHIVAPUR,2.86372114692,MANORA,20.79559,79.40559,Khairgaon,20.77085566,79.41326464
28,BHIVAPUR,1.63779379669,PIRAWA,20.68723,79.30385,Khandalzari,20.70173273,79.30110059
29,BHIVAPUR,3.11817594033,AALESUR,20.61579,79.32062,Khapari,20.63890225,79.3375887
30,BHIVAPUR,2.56011212315,BHAGWANPUR,20.65512,79.33731,Kharkada,20.64044813,79.31834875
31,BHIVAPUR,1.81419404199,SALEBHATTI(D),20.67998,79.21428,Khatkheda,20.66994161,79.20053293
32,BHIVAPUR,1.79640309524,AALESUR,20.61579,79.32062,Kholdoda,20.59971998,79.31884744
33,BHIVAPUR,1.80356467886,BHAGWANPUR,20.65512,79.33731,Khursapar Rithi,20.63890225,79.3375887
34,BHIVAPUR,1.2079059384,JAWRABODI,20.77461,79.4607,Kinhala,20.76992181,79.47118048
35,BHIVAPUR,1.95444766775,MOKHEBARDI,20.83965,79.52955,Kinhikala,20.82981436,79.54513638
36,BHIVAPUR,1.90431877504,ADDYAL (PUNARVASIT),20.81604,79.53161,Kinhikhurda,20.81952153,79.54954951
37,BHIVAPUR,1.85903755207,MOKHEBARDI,20.83965,79.52955,Kitadi,20.85621465,79.5319732
38,BHIVAPUR,3.01871096246,PULLAR,20.85761,79.50296,Kitadi Rithi,20.85621465,79.5319732
39,BHIVAPUR,4.39279984139,PULLAR,20.85761,79.50296,Kolari,20.86410803,79.4612591
40,BHIVAPUR,2.1404543987,DHAMANGAON(G),20.60076,79.2862,Lonara,20.61957332,79.28184645
41,BHIVAPUR,1.18131314979,JAWALI,20.70958,79.40579,Mahadapur,20.71980287,79.40888086
42,BHIVAPUR,1.27522848097,MAHALGAON,20.67449,79.23197,Mahalgaon,20.66306683,79.2308824
43,BHIVAPUR,0.948727127115,MALEWADA,20.72917,79.3785,Malewada,20.72914091,79.38762262
44,BHIVAPUR,1.87694025134,MANDVA(L),20.74364,79.2551,Mandwa,20.73190555,79.26807435
45,BHIVAPUR,0.715217908091,MANDVA(S),20.75066,79.40222,Mandwa,20.74558772,79.40644955
46,BHIVAPUR,1.38924252458,NAKSHI,20.73583,79.48521,Mangli,20.7350663,79.47187589
47,BHIVAPUR,1.40450500489,MANGRUD,20.78253,79.32943,Mangrud,20.77067779,79.33410037
48,BHIVAPUR,1.55231765732,NAND,20.6518,79.2893,Mankapur,20.6440992,79.27685644
49,BHIVAPUR,0.384006899452,MANORA,20.79559,79.40559,Manora,20.79368399,79.40867051
50,BHIVAPUR,1.1451443899,MARUPAR (PUNARVASIT),20.876366,79.536966,Marupar,20.87340525,79.54752269
51,BHIVAPUR,1.11710615828,MEDHA,20.71061,79.46201,Medha,20.71127525,79.47272689
52,BHIVAPUR,2.65077044826,TAS,20.78422,79.49168,Mokhala,20.76072617,79.49600272
53,BHIVAPUR,0.532903010891,MOKHEBARDI,20.83965,79.52955,Mokhebardi,20.84057666,79.53458123
54,BHIVAPUR,2.02763834611,SHIVANFAL,20.70773,79.2545,Nad,20.68966141,79.25187258
55,BHIVAPUR,2.48137047668,NAGTAROLI,20.79489,79.52411,Nagtaroli,20.80611085,79.5447441
56,BHIVAPUR,1.29216844438,NAKSHI,20.73583,79.48521,Nakshi,20.73486329,79.49759254
57,BHIVAPUR,1.45415990205,NAND,20.6518,79.2893,Nand,20.65463389,79.30294368
58,BHIVAPUR,2.54287766671,PANJAREPAR (PUNARVASIT),20.90444,79.57753,Nandikheda,20.88516541,79.59070345
59,BHIVAPUR,0.982555782812,NAVEGAON(D),20.80247,79.42967,Navegaon (D),20.79873721,79.43823761
60,BHIVAPUR,2.46373050123,PAHAMI,20.76121,79.35401,Pahami,20.75361778,79.37627043
61,BHIVAPUR,0.380655156722,PANDHARWANI,20.69489,79.43916,Pandharwani,20.69362117,79.44255878
62,BHIVAPUR,2.53309435411,NAND,20.6518,79.2893,Panjarepar,20.65081856,79.26497763
63,BHIVAPUR,1.28070322834,PANJAREPAR (PUNARVASIT),20.90444,79.57753,Panjarepar,20.89655937,79.58652111
64,BHIVAPUR,2.08664192129,PENDHARABODI,20.79916,79.37931,Pendharabodi,20.78173463,79.38675964
65,BHIVAPUR,0.839186646445,VIRKHANDI (D.),20.7827,79.45888,Pendhari,20.77921322,79.45172103
66,BHIVAPUR,1.02965748486,PIRAWA,20.68723,79.30385,Pirawa,20.68681756,79.3137383
67,BHIVAPUR,3.51985118768,BHAGWANPUR,20.65512,79.33731,Polgaon,20.6862461,79.33115243
68,BHIVAPUR,0.560914954916,PULLAR,20.85761,79.50296,Pullar,20.85276987,79.50143931
69,BHIVAPUR,3.76110144188,NAVEGAON(D),20.80247,79.42967,Ranmangli,20.80997122,79.46495305
70,BHIVAPUR,2.3540190924,CHIKHLI,20.72768,79.51633,Rohana,20.70906906,79.50554225
71,BHIVAPUR,4.42835993271,AALESUR,20.61579,79.32062,Sakara Rithi,20.65228065,79.33766588
72,BHIVAPUR,1.18869717572,SALEBHATTI(D),20.67998,79.21428,Salebhatti,20.67382149,79.22361964
73,BHIVAPUR,0.986135000979,SALEBHATTI(C),20.68415,79.36419,Salebhatti C.,20.68434984,79.37366716
74,BHIVAPUR,1.16547725486,SALESHAHARI,20.8636,79.55994,Salebhatti S.,20.87284784,79.56521958
75,BHIVAPUR,0.704301382362,SALESHAHARI,20.8636,79.55994,Saleshahari,20.85766083,79.55758446
76,BHIVAPUR,0.704301382362,SALESHAHARI-SALEBHATTI(PUNARVASIT),20.8636,79.55994,SALESHAHARI SALEBHATTI PU,20.85766083,79.55758446
77,BHIVAPUR,1.41555729791,SARANDI,20.77257,79.38457,Sarandi,20.76324061,79.39383366
78,BHIVAPUR,0.951259387688,SELOTI,20.73936,79.44363,Seloti,20.73916555,79.45277527
79,BHIVAPUR,1.04786188245,SHIVANFAL,20.70773,79.2545,SHIVANFAL,20.70649636,79.26448776
80,BHIVAPUR,1.86133117276,SHIVAPUR,20.80223,79.36019,Shiwapur,20.78665586,79.36675369
81,BHIVAPUR,2.06632989731,MANDVA(S),20.75066,79.40222,Somanala,20.75827263,79.42034851
82,BHIVAPUR,3.20756822362,PULLAR,20.85761,79.50296,Somanala,20.83260317,79.51834664
83,BHIVAPUR,1.07999973928,TAKA,20.66938,79.39777,Taka,20.66962511,79.40814756
84,BHIVAPUR,0.312792748097,TAS,20.78422,79.49168,Tas,20.78668653,79.49312666
85,BHIVAPUR,1.92456708609,SELOTI,20.73936,79.44363,Tatoli,20.72664985,79.45619171
86,BHIVAPUR,1.23514665529,THUTANBORI (PUNARVASIT),20.85722,79.57199,Thutanbori,20.8637284,79.58162294
87,BHIVAPUR,3.29756484308,BHAGWANPUR,20.65512,79.33731,Tidkepar,20.67803544,79.35742866
88,BHIVAPUR,1.48500199714,THUTANBORI (PUNARVASIT),20.85722,79.57199,Tukumbori Rithi,20.85371611,79.58578064
89,BHIVAPUR,0.861298391005,UKHALI,20.70396,79.37848,Ukhali,20.70889663,79.38486109
90,BHIVAPUR,2.81153525527,BHIVI,20.6339,79.1959,Urkudapar,20.6435944,79.22085396
91,BHIVAPUR,0.967706753247,VIRKHANDI (D.),20.7827,79.45888,Virkhandi,20.784743,79.46792841
92,BHIVAPUR,0.880861360043,WADADH,20.71921,79.48954,Wadadha,20.71961656,79.49799839
93,BHIVAPUR,0.283749554364,WAKESHAWAR,20.73173,79.41239,Wakeshwar,20.73014057,79.41452458
94,BHIVAPUR,2.33929295214,AALESUR,20.61579,79.32062,Wani,20.62635955,79.3011849
95,BHIVAPUR,1.59461248784,WASI,20.741965,79.427288,Wasi,20.73221804,79.43853583
96,BHIVAPUR,1.46309731188,MANORA,20.79559,79.40559,Welwa,20.79394802,79.41955479
97,BHIVAPUR,1.81990791212,ZAMKOLI,20.63175,79.19534,Zamkoli,20.61554695,79.19780772
98,BHIVAPUR,0.953072586995,ZILBODI,20.68944,79.46234,Zilbodi,20.69200259,79.47108306
99,Hingna,0.916595106886,ADEGAON,21.02123,78.73911,Adegaon,21.01511435,78.73318902
100,Hingna,0.652031794212,DABHA,21.058081,78.800911,Agargaon,21.05256266,78.79878599
101,Hingna,2.64163540423,GHODEGHAT,20.87402,78.89403,Ajangaon,20.88028485,78.86950391
102,Hingna,1.6678378944,SAWLIBIBI,20.91087,78.8305,Alesur,20.89740095,78.83756515
103,Hingna,1.80258586407,DEGMA(KH),21.027699,78.847169,Ambazari,21.04320429,78.85223797
104,Hingna,3.1252509546,AMGAON(D),21.00529,78.9391,Amgaon,20.98386207,78.95858101
105,Hingna,2.44631940947,SAWANGI(A),20.86586,78.89789,Asola,20.85676622,78.91932824
106,Hingna,4.42695535795,KHADKI,20.93893,78.87423,Bhansoli,20.92785741,78.91517431
107,Hingna,2.25100906129,HALADGAON,20.845836,78.87423,Bhansuli,20.84738739,78.89582817
108,Hingna,1.61882261783,SAWLIBIBI,20.91087,78.8305,Bibi,20.90359745,78.8169993
109,Hingna,2.64163540423,GHODEGHAT,20.87402,78.89403,Bid-Ajangaon,20.88028485,78.86950391
110,Hingna,2.44252842253,SAWANGI(D),21.0059,78.93446,Bid-borgaon,20.99979258,78.91185834
111,Hingna,4.53107762614,TAKALGHAT,20.91415,78.94522,Bid-ganeshpur,20.89252331,78.98218962
112,Hingna,3.56735492921,SAWLIBIBI,20.91087,78.8305,Chauki,20.89026597,78.80417673
113,Hingna,2.12505278529,CHICHOLI(P),21.10383,78.78619,Chicholi,21.08964627,78.79991854
114,Hingna,1.93492177412,DABHA,21.058081,78.800911,Dabha,21.05084709,78.81786944
115,Hingna,1.29957031785,WADGAON(G),20.97703,78.98105,Datala,20.96693271,78.97474705
116,Hingna,2.03117625631,DEGMA(BU),20.98649,78.85186,DEGMA(BU),20.97663134,78.86833004
117,Hingna,1.053176676,DEGMA(KH),21.027699,78.847169,Degma kh,21.02157984,78.85491401
118,Hingna,0.47810191128,DEWLI(P),20.93242,78.78589,Devali,20.93636643,78.78771734
119,Hingna,3.40490154985,KHAPRI(G),20.92612,78.88435,Devali,20.90833542,78.91103566
120,Hingna,2.3403766002,DEWLI(A),21.00668,78.94207,Devali (Amgaon),20.99384912,78.95994135
121,Hingna,1.47807066429,SHIRUL,20.95512,78.99651,Devalipeth,20.9420641,78.99383586
122,Hingna,2.90959063391,DHANOLI(G),21.00487,79.00511,Dhanoli,20.97889858,79.0085266
123,Hingna,0.905456717495,DHANOLI(K),21.00178,78.78219,Dhanoli,20.99833503,78.79009329
124,Hingna,1.45310851039,KINHI(D),21.07767,78.93019,Dhanoli,21.06987617,78.94143146
125,Hingna,3.32758807827,SAWLIBIBI,20.91087,78.8305,Dhokarda,20.89040399,78.85387106
126,Hingna,1.74106288899,DIGDOH(P),21.08915,78.75697,Digdoh,21.07465107,78.7633056
127,Hingna,3.19729998816,DIGDOH(D),21.11499,79.00198,digdoh devi,21.09277559,79.0215494
128,Hingna,0.768479399232,TAKALGHAT,20.91415,78.94522,Gangapur,20.90762354,78.94765376
129,Hingna,0.688858235584,GAURALA,21.04416,78.72323,Gaurala,21.0401509,78.71816966
130,Hingna,0.586966489713,GHODEGHAT,20.87402,78.89403,Ghodeghat,20.87576725,78.89936109
131,Hingna,0.975973224622,GIDAMGADH,21.03451,78.72553,Gidamgad,21.03163126,78.7344135
132,Hingna,3.12945831238,METAUMRI,21.09117,78.89152,Girola,21.08461396,78.92085416
133,Hingna,2.03807240488,GIDAMGADH,21.03451,78.72553,Gothangaon,21.02566623,78.70833028
134,Hingna,2.62019254918,GUMGAON,21.01686,78.99869,Gumgaon,20.99415026,79.00542466
135,Hingna,0.370547077081,HALADGAON,20.845836,78.87423,Haladgaon,20.84590457,78.87779507
136,Hingna,3.60508376002,ESASANI,21.08999,79.00177,Isasani (CT),21.06066499,79.01658815
137,Hingna,4.94083680131,PENDHRI(D),20.95202,78.77962,Itewahi,20.9659587,78.82480045
138,Hingna,2.22274393174,JUNEWANI,21.05263,78.91633,Junewani,21.03686441,78.92949775
139,Hingna,3.49660985606,PENDHRI(D),20.95202,78.77962,Kajali,20.95513479,78.81312692
140,Hingna,5.43275610615,DHANOLI(G),21.00487,79.00511,Kanholi,20.95889921,79.02283152
141,Hingna,0.992199396472,KANHOLIBARA,20.93612,78.84319,Kanholibara,20.92789909,78.84690469
142,Hingna,2.76532389224,SHIRUL,20.95512,78.99651,Kanholi (Rithi),20.95889921,79.02283152
143,Hingna,2.26029849513,PIPALDHARA,20.96368,78.895,Katangdhara,20.973572,78.91401749
144,Hingna,4.54080111482,SUKLI(G),21.05926,78.97741,Khadka,21.0235834,78.9986989
145,Hingna,1.6845875802,GAURALA,21.04416,78.72323,Khairi,21.05590254,78.71297312
146,Hingna,3.96408390735,JUNEWANI,21.05263,78.91633,Khairy kh,21.02324498,78.93795654
147,Hingna,3.46810708114,DHANOLI(K),21.00178,78.78219,Khapa Nipani,21.02949678,78.76686836
148,Hingna,1.48527241485,KHAPRI(G),20.92612,78.88435,Khapari (Gandhi),20.91933442,78.89666764
149,Hingna,1.67469793317,KHAPRI(M),20.90171,78.92326,Khapri (Moreshwar),20.88850202,78.93100692
150,Hingna,5.60828870596,KINHI(D),21.07767,78.93019,Kinhi,21.09383683,78.87898625
151,Hingna,4.09851152448,NERIMANKAR,21.11688,78.84815,Kinhi,21.09383683,78.87898625
152,Hingna,1.86149523249,GUMGAON,21.01686,78.99869,Kirmati,21.00644723,78.98464793
153,Hingna,1.92771136865,KIRMITI(BH),20.94088,78.97213,Kirmiti,20.9279145,78.98445179
154,Hingna,0.461440800375,DEGMA(BU),20.98649,78.85186,Kokardi,20.98546894,78.84755198
155,Hingna,2.71195698905,KOTEWADA,21.01877,79.00091,Kotewada,21.00260716,79.02047546
156,Hingna,3.68787055811,GUMGAON,21.01686,78.99869,Ladgaon,20.99130709,78.97604232
157,Hingna,1.94484513666,KHADKI,20.93893,78.87423,Lakhamapur,20.94930998,78.8893032
158,Hingna,2.44388485913,MANDAVGHORAD,21.05924,78.89941,Mandavghorad,21.04026059,78.91128539
159,Hingna,5.03817786256,KHADKI,20.93893,78.87423,Mandawa,20.98039077,78.89379909
160,Hingna,1.86233170074,PIPALDHARA,20.96368,78.895,Mandawa (Mahara),20.98039077,78.89379909
161,Hingna,2.1914108251,KINHI(D),21.07767,78.93019,Mangli,21.05818078,78.92705304
162,Hingna,2.3934672104,DEGMA(BU),20.98649,78.85186,Mathani,20.96505981,78.84969908
163,Hingna,2.77648444067,DEWLI(P),20.93242,78.78589,Mauda,20.93467266,78.81251508
164,Hingna,2.21197608499,METAUMRI,21.09117,78.89152,Metaumari,21.07459426,78.90330757
165,Hingna,2.20334801982,MOHGAON(Z),21.068522,78.888363,Mohgaon,21.05735995,78.90590745
166,Hingna,2.2342376688,DHANOLI(K),21.00178,78.78219,mohgaon dholya,21.02184699,78.78109554
167,Hingna,2.52409450289,MONDHA,21.04664,78.95852,Mondha,21.03144569,78.97658903
168,Hingna,3.14227903395,NAGALWADI,21.12075,78.95926,Nagalwadi (CT),21.1026573,78.98252985
169,Hingna,3.29480091918,JUNEWANI,21.05263,78.91633,Nanda kh,21.04127303,78.94565432
170,Hingna,4.61390013981,SUKLIKALAR,21.07232,78.81187,Nandera,21.07609655,78.85615346
171,Hingna,4.30276456133,DHANOLI(K),21.00178,78.78219,Nawegaon Khurd,20.9805777,78.81686095
172,Hingna,2.52635140221,NERIMANKAR,21.11688,78.84815,Neri,21.09795172,78.86162038
173,Hingna,3.42445680467,MANGRUR,21.11676,78.89149,Nildoh,21.08597951,78.89041318
174,Hingna,2.82684077909,NILDOH,21.11357,78.98651,Nildoh (CT),21.09348766,79.00321903
175,Hingna,3.36906901721,MONDHA,21.04664,78.95852,Panjari,21.01744126,78.96718747
176,Hingna,2.83617680628,WADDHAMNA,21.12966,78.95162,Pendhari,21.10730201,78.93846041
177,Hingna,1.03180847931,PENDHRI(D),20.95202,78.77962,Pendhari Devli,20.9596933,78.78520737
178,Hingna,1.86730941396,PIPALDHARA,20.96368,78.895,Pipardhara,20.95704234,78.91151871
179,Hingna,4.3642946893,KHAPRI(G),20.92612,78.88435,Pipri,20.91250953,78.92376146
180,Hingna,3.12975768737,AMGAON(D),21.00529,78.9391,Pitesur,20.9857678,78.91738217
181,Hingna,2.47141949538,SALAIDABHA,20.96069,78.96306,Pohi,20.93944939,78.95605211
182,Hingna,2.34990766267,RAIPUR,21.07826,78.96563,Raipur,21.05833519,78.9731784
183,Hingna,1.48464019163,SALAIDABHA,20.96069,78.96306,Salaidabha,20.9501772,78.97187392
184,Hingna,4.28968040521,MANDAVGHORAD,21.05924,78.89941,Salaimendha,21.02146371,78.90779296
185,Hingna,1.28003443767,WANADONGRI,21.095264,78.972442,Sangam,21.08594886,78.96519284
186,Hingna,0.351125315996,SAWLIBIBI,20.91087,78.8305,Sawali,20.91121438,78.83386023
187,Hingna,0.604595418094,SAWANGI(D),21.0059,78.93446,Sawangi (Devali),21.0030035,78.93938905
188,Hingna,1.45378129756,GUMGAON,21.01686,78.99869,Shivmadka,21.00455609,79.00342617
189,Hingna,1.53627450946,KHADKI,20.93893,78.87423,Singardip,20.95149966,78.86808955
190,Hingna,2.39227386503,SHIRUL,20.95512,78.99651,Sirul,20.93601632,79.00710516
191,Hingna,2.29273257243,SUKLI(G),21.05926,78.97741,Sukali,21.04428821,78.99260101
192,Hingna,4.52251305227,DEWLI(A),21.00668,78.94207,Sukali (Gharpure),20.96834149,78.95661291
193,Hingna,2.11932463792,SUKLIKALAR,21.07232,78.81187,Sukali (kalar),21.07571839,78.83196837
194,Hingna,1.86230095724,KOTEWADA,21.01877,79.00091,Sumthana,21.0252953,79.01743443
195,Hingna,2.49643176292,TAKALGHAT,20.91415,78.94522,Takalghat (CT),20.89190916,78.94850023
196,Hingna,2.7724358774,KIRMITI(BH),20.94088,78.97213,Tembhari,20.91595747,78.97135225
197,Hingna,1.46788443973,NERIMANKAR,21.11688,78.84815,Turagondi,21.10389741,78.84558656
198,Hingna,4.11273292654,KIRMITI(BH),20.94088,78.97213,Turkmari,20.91990666,79.00474757
199,Hingna,4.80413803311,JUNEWANI,21.05263,78.91633,Ukhali,21.03503939,78.95861145
200,Hingna,1.96179203637,WADDHAMNA,21.12966,78.95162,Waddhamana (CT),21.1157603,78.96326854
201,Hingna,2.44452931965,ESASANI,21.08999,79.00177,Wagdara,21.06803276,79.00293605
202,Hingna,2.79351324652,WAGDARA,21.0008,79.01311,Wagdara,20.97831787,79.02511852
203,Hingna,4.47245001474,DIGDOH(P),21.08915,78.75697,Walani,21.05717282,78.78311627
204,Hingna,2.26629082879,WANADONGRI,21.095264,78.972442,wanadongari,21.07779773,78.98369936
205,Hingna,0.893268632887,KHAPRI(G),20.92612,78.88435,Wanadongri,20.91938252,78.87966609
206,Hingna,3.64070181178,GHODEGHAT,20.87402,78.89403,Waranga,20.90267895,78.8770834
207,Hingna,2.99968398494,KIRMITI(BH),20.94088,78.97213,Wateghat,20.9208739,78.95275437
208,Hingna,3.37321408505,DABHA,21.058081,78.800911,Yerangaon,21.03899767,78.82617877
209,Hingna,1.78115237034,MOHGAON(Z),21.068522,78.888363,Zilpi,21.05441702,78.88022775
210,KALMESHWAR,2.12118508776,SONPUR(AA),21.33295,78.93969,Adasa,21.32595954,78.95874445
211,KALMESHWAR,2.08623217105,ASHTIKALA,21.18046,78.87556,Astikala,21.1658897,78.88823589
212,KALMESHWAR,1.48085854057,BRAMHNI,21.24392,78.90659,Bamhni (CT),21.23725364,78.91895939
213,KALMESHWAR,4.36188829196,TONDAKHAIRI,21.28146,78.96185,Belori bk.,21.27921128,79.00387858
214,KALMESHWAR,2.33325068195,BHADANGI,21.29749,78.93543,Bhandagi,21.28381303,78.95250932
215,KALMESHWAR,2.70280349782,KHAPRI,21.24314,78.84311,Bordoh,21.22463197,78.86001449
216,KALMESHWAR,0.195084946461,BUDHALA,21.32063,78.77502,Budhla,21.31931785,78.77627017
217,KALMESHWAR,0.934525593771,CHAKDOH,21.2838,78.76122,Chakdoh,21.27789821,78.75479861
218,KALMESHWAR,5.67004985098,NIMJI,21.16695,78.87171,Chinchbhuwan,21.1200127,78.89307496
219,KALMESHWAR,2.16991849774,TIDANGI,21.3994,78.78117,Dadhera,21.380639,78.7754022
220,KALMESHWAR,2.23545664724,DAHEGAON,21.21099,78.94646,Dahegaon,21.20159841,78.96552656
221,KALMESHWAR,1.57681956066,DHAPEWADA,21.30291,78.91566,Dhapewada bk.,21.30952547,78.9291232
222,KALMESHWAR,1.57681956066,DHAPEWADA,21.30291,78.91566,Dhapewada Kh.,21.30952547,78.9291232
223,KALMESHWAR,1.31852618143,BOREGAON(KH,21.2973,78.96147,Dhurkheda,21.29151394,78.97257873
224,KALMESHWAR,3.78614552982,KHAIRI(L),21.2546,78.95491,Dorli (bhodji),21.22356288,78.96993306
225,KALMESHWAR,3.40344375647,DAHEGAON,21.21099,78.94646,Dorli gangaji,21.18470004,78.96327177
226,KALMESHWAR,2.04623580527,BOREGAON(KH,21.2973,78.96147,Dorli (mani),21.27908959,78.96431425
227,KALMESHWAR,4.06568131322,SONOLI,21.35827,78.86696,Dudhabardi,21.35892731,78.90621361
228,KALMESHWAR,1.02657050757,SAWANGI(G),21.22035,78.8853,Ghogali,21.22721388,78.87867661
229,KALMESHWAR,2.91900571695,GHORAD,21.25065,78.87917,Ghorad,21.22878634,78.89475845
230,KALMESHWAR,1.93947862857,GONDKHAIRI,21.13636,78.908,Gondkhairi,21.12235442,78.91914508
231,KALMESHWAR,1.6481949585,KHAIRI(L),21.2546,78.95491,Gowari,21.25796764,78.97039867
232,KALMESHWAR,2.59538142872,SELU,21.2042,78.89861,Gumthala,21.18628066,78.88256854
233,KALMESHWAR,1.63865708705,BHADANGI,21.29749,78.93543,Hardoli,21.30253519,78.95029144
234,KALMESHWAR,2.11344357781,KALAMBI,21.18846,78.91705,Kalambi,21.17553621,78.93199641
235,KALMESHWAR,2.00025550058,KANYADOL,21.32874,78.86672,Kanyadhol,21.3174811,78.88178065
236,KALMESHWAR,4.16872013464,SAHULI,21.18415,78.94331,Karli,21.14859575,78.93055809
237,KALMESHWAR,3.9460183487,ASHTIKALA,21.18046,78.87556,Ketapar,21.16978716,78.91185505
238,KALMESHWAR,4.02314667181,SONEGAON,21.23493,78.82932,Khairi (Harji),21.20806085,78.85531311
239,KALMESHWAR,1.77308444273,KHAIRI(L),21.2546,78.95491,Khairi (Lakhmaji),21.24405342,78.9677422
240,KALMESHWAR,3.24350104238,BHADANGI,21.29749,78.93543,Khangaon,21.30110424,78.96649672
241,KALMESHWAR,4.74651740888,ASHTIKALA,21.18046,78.87556,Khapari (uma),21.14745461,78.90458776
242,KALMESHWAR,1.59518933525,KHUMARI,21.32313,78.83025,Khumari,21.32056826,78.84540245
243,KALMESHWAR,3.74055647411,BUDHALA,21.32063,78.77502,Khursapar,21.30408119,78.80645749
244,KALMESHWAR,1.04568996689,KOHALI,21.26481,78.80983,Kohali,21.25947411,78.81813936
245,KALMESHWAR,0.206750106962,KANYADOL,21.32874,78.86672,Kokarda,21.33036928,78.86768177
246,KALMESHWAR,5.12556469546,LINGA,21.21618,78.82121,Ladai (mal),21.17089991,78.81195308
247,KALMESHWAR,2.51979813973,LINGA,21.21618,78.82121,Linga,21.19357042,78.81957206
248,KALMESHWAR,2.61357456126,LOHAGAD,21.34242,78.72231,Lohagad,21.32365091,78.73749924
249,KALMESHWAR,1.89163210259,LONARA,21.19379,78.85691,Lonara,21.17729711,78.86138212
250,KALMESHWAR,1.83284457864,MADHASAWANGI,21.30688,78.88841,Madha sawangi,21.29930625,78.90412382
251,KALMESHWAR,1.96732155691,MANDVI,21.34404,78.80632,Mandvi,21.33266598,78.82086944
252,KALMESHWAR,1.04017065236,MHASEPATHAR,21.31106,78.82008,Mhasepathar,21.30369799,78.82627467
253,KALMESHWAR,2.24369383166,MOHAGAON,21.2996,78.84356,Mohagaon,21.29220431,78.8637097
254,KALMESHWAR,1.04568996689,KOHALI,21.26481,78.80983,Mohali,21.25947411,78.81813936
255,KALMESHWAR,1.98565191961,NILGAON,21.34907,78.90726,Nilgaon,21.34255713,78.925112
256,KALMESHWAR,1.52879372475,LONARA,21.19379,78.85691,Nimboli,21.18476901,78.84578219
257,KALMESHWAR,3.10789299998,NIMJI,21.16695,78.87171,Nimji,21.14226572,78.8857679
258,KALMESHWAR,3.52394974681,SONOLI,21.35827,78.86696,Panjra,21.3467456,78.8986578
259,KALMESHWAR,1.84265164149,PANUBALI,21.34611,78.86409,PANUBALI,21.33924573,78.88028337
260,KALMESHWAR,1.03061631619,PARDI(DE),21.28112,78.77224,Pardi (Desh),21.27279591,78.7766144
261,KALMESHWAR,3.35275013416,ZUNKI,21.26745,78.93374,Parsodi,21.23898481,78.94440931
262,KALMESHWAR,4.37674873365,KHAPRI,21.24314,78.84311,Peth ubali,21.25775046,78.88232541
263,KALMESHWAR,0.640139290325,PILKAPAR,21.33981,78.7921,Pilkapar,21.33828633,78.79806023
264,KALMESHWAR,1.69150722843,DAHEGAON,21.21099,78.94646,Pipla,21.19597536,78.9438396
265,KALMESHWAR,1.93717469563,PIPLA (KIN),21.31083,78.86988,Pipla (kinkheda),21.30063727,78.88504495
266,KALMESHWAR,1.66947086532,SONEGAON,21.23493,78.82932,Pohigond Khairi,21.22293706,78.81962989
267,KALMESHWAR,1.22904356971,CHAKDOH,21.2838,78.76122,Ramgiri,21.2946265,78.76360947
268,KALMESHWAR,2.80588877841,DAHEGAON,21.21099,78.94646,Sahajapur,21.19453409,78.92594102
269,KALMESHWAR,2.4258629123,SAHULI,21.18415,78.94331,Sahuli,21.16489668,78.95431252
270,KALMESHWAR,2.20613000853,SUSUNDRI,21.29174,78.81607,Sawandri,21.27403398,78.82567675
271,KALMESHWAR,1.83938390291,SELU,21.2042,78.89861,Selu,21.18919756,78.90608446
272,KALMESHWAR,2.4819097801,KANYADOL,21.32874,78.86672,Sindi,21.30642313,78.86714313
273,KALMESHWAR,2.27213719657,ZUNKI,21.26745,78.93374,Sindi,21.26670476,78.95565247
274,KALMESHWAR,1.21022185053,BHADANGI,21.29749,78.93543,Sonapar,21.28697257,78.93843522
275,KALMESHWAR,1.07474668647,SONOLI,21.35827,78.86696,Sonoli,21.35417448,78.87636032
276,KALMESHWAR,3.43024898519,SONPUR(AA),21.33295,78.93969,Sonpur,21.31549303,78.96699377
277,KALMESHWAR,1.38910075656,SUSUNDRI,21.29174,78.81607,Susundri,21.28511134,78.82743426
278,KALMESHWAR,0.786716317843,TELGAON,21.37449,78.80889,Telgaon,21.36877251,78.81336516
279,KALMESHWAR,1.04017245653,TELKAMTHEE,21.3767,78.85358,Telkamthi,21.36742728,78.85490534
280,KALMESHWAR,1.79031663903,TIDANGI,21.3994,78.78117,Tidangi,21.38925419,78.79459704
281,KALMESHWAR,1.51191813004,TISHTI(BU),21.3725,78.75276,Tishti bk.,21.35926728,78.75611701
282,KALMESHWAR,2.14914379119,NANDIKHEDA,21.36076,78.80338,Tishti kh.,21.3548829,78.78360976
283,KALMESHWAR,0.910740064695,KHAPRI,21.24314,78.84311,Ubagi,21.25001913,78.84787959
284,KALMESHWAR,1.76736856606,UBALI,21.26605,78.86778,Ubali,21.25775046,78.88232541
285,KALMESHWAR,2.15277148917,UPARWAHI,21.21697,78.85731,UPARWAHI,21.20384621,78.87257763
286,KALMESHWAR,0.73788550527,WADHONA(BU),21.29223,78.88268,Wadhona Bk.,21.28567956,78.88154027
287,KALMESHWAR,0.968964976895,SAWLI(KH),21.28683,78.87227,Wadhona kh.,21.28567956,78.88154027
288,KALMESHWAR,1.66064009407,WARODA,21.26424,78.90487,Waroda,21.25986334,78.92019172
289,KALMESHWAR,3.67715003801,MOHAGAON,21.2996,78.84356,Wathoda,21.26828771,78.85497463
290,KALMESHWAR,4.51411911326,CHAKDOH,21.2838,78.76122,Yelkapar,21.27027368,78.80229668
291,KALMESHWAR,0.908100419,LOHAGAD,21.34242,78.72231,Zilpi,21.34449734,78.7307897
292,KALMESHWAR,2.05087083288,ZUNKI,21.26745,78.93374,Zunki,21.25254193,78.94539247
293,Kamptee,2.47516577962,AADKA,21.08329,79.23938,Aadka,21.06445724,79.25209739
294,Kamptee,2.28524125529,AAWANDHI,21.16219,79.26257,Aawandhi,21.14551186,79.27544646
295,Kamptee,3.00034133676,AAJNI,21.20783,79.21813,Ajani,21.18834941,79.23815511
296,Kamptee,2.38499500028,KESURI,21.11107,79.34134,Ambadi,21.0896215,79.34145649
297,Kamptee,3.59843420308,BHAMEWADA,21.12286,79.38353,Asalwada,21.09494351,79.36598386
298,Kamptee,2.63922309932,MAHALGAON,21.14168,79.21942,Asoli.,21.11794915,79.21990172
299,Kamptee,2.08210458326,BABHULKHEDA,21.30459,79.03008,Babulkheda,21.29197957,79.04493648
300,Kamptee,3.46578506672,BHAMEWADA,21.12286,79.38353,Bhamewada,21.09664098,79.4015959
301,Kamptee,2.43717894015,BHILGAON,21.19505,79.14496,Bhilgaon,21.18581626,79.16627968
302,Kamptee,2.8408206308,BHOWRI,21.15551,79.2748,Bhowari,21.13510374,79.29128147
303,Kamptee,2.8810400138,BHUGAON,21.09133,79.33976,Bhugaon,21.06735007,79.35027601
304,Kamptee,2.63101599967,WAREGAON,21.2468,79.15631,Bidbina,21.25066618,79.18135603
305,Kamptee,2.38408683056,BIDGAON,21.13179,79.16787,Bidgaon.,21.11525332,79.18249995
306,Kamptee,2.3574113991,BINA,21.264,79.16367,Bina,21.25066618,79.18135603
307,Kamptee,3.98232303063,BABHULKHEDA,21.30459,79.03008,Chicholi,21.28931642,79.064848
308,Kamptee,3.38254723115,CHIKNA,21.10652,79.40571,Chikna,21.08213993,79.42520975
309,Kamptee,5.01927683119,PAWANGAON,21.16828,79.18275,Dhargaon,21.1425744,79.22253656
310,Kamptee,2.05502008931,DIGHORI,21.11884,79.22922,Dighori,21.1015178,79.23612528
311,Kamptee,2.92055439527,GADA,21.19556,79.23685,Gada,21.17660753,79.25635228
312,Kamptee,3.61151053244,GARLA,21.12861,79.25976,Garla,21.09614794,79.26088746
313,Kamptee,2.81140504565,GHORPAD,21.18875,79.19842,Ghorpad,21.17500138,79.22117618
314,Kamptee,3.31713808307,GUMTHALA,21.14975,79.29122,Gumthala,21.12355722,79.30652823
315,Kamptee,1.63448729553,GUMTHI,21.2679,79.04222,Gumthi,21.27117093,79.05759825
316,Kamptee,2.62112843831,JAKHEGAON,21.09968,79.37598,Jakhegaon,21.07967482,79.38934302
317,Kamptee,2.55616004569,KADHOLI,21.1435,79.24878,Kadholi,21.12512258,79.26358615
318,Kamptee,1.90892375684,KAPSI(BU),21.1462,79.19134,Kapsi bk,21.1290537,79.19042851
319,Kamptee,2.20471195838,KAWTHA,21.22375,79.13897,Kawtha,21.21277606,79.15668454
320,Kamptee,2.58723005127,KEM,21.09229,79.26431,Kem,21.07080536,79.27388313
321,Kamptee,3.6387158919,KESURI,21.11107,79.34134,Kesori,21.08438702,79.36164475
322,Kamptee,2.43205908565,KHAIRY,21.21721,79.15348,Khairy,21.20304391,79.17135545
323,Kamptee,2.88183833086,KHAPA,21.30046,79.06184,Khapa,21.28424981,79.08354325
324,Kamptee,0.825885335044,KHASALA,21.20072,79.13363,Khasala,21.2076144,79.13066658
325,Kamptee,2.47183749681,KHEDI,21.10708,79.19753,Khedi,21.08530533,79.20232656
326,Kamptee,3.25543789689,TEMSANA,21.08627,79.22514,Kusumbi,21.05708193,79.22269838
327,Kamptee,2.56767331305,LIHIGAON,21.16107,79.22985,Lihigaon,21.14491882,79.24754577
328,Kamptee,2.17870300725,LONKHAIRI,21.2776,79.06109,Lonkhairi,21.27083816,79.08082462
329,Kamptee,2.96446955088,MAHALGAON,21.14168,79.21942,Mahalgaon,21.12449755,79.24127423
330,Kamptee,2.73957874453,NANHA,21.0831,79.35938,Mangali,21.06492045,79.37720069
331,Kamptee,3.03429316137,KAWTHA,21.22375,79.13897,Mhasala,21.19794148,79.14847738
332,Kamptee,4.63377263977,LONKHAIRI,21.2776,79.06109,Nanda,21.26187441,79.1025024
333,Kamptee,3.75540604534,NANHA,21.0831,79.35938,Nanha,21.05311804,79.37604072
334,Kamptee,2.89344739628,WARAMBHA,21.05288,79.33449,Nerala,21.04627682,79.36145931
335,Kamptee,2.29054661535,NERI,21.18661,79.27525,Neri,21.17150681,79.29027285
336,Kamptee,1.44049638509,CHIKHALI,21.08619,79.30347,Nimba,21.07326601,79.30251466
337,Kamptee,2.3211919262,PALSAD,21.10852,79.27284,Palsad,21.08962613,79.282354
338,Kamptee,5.27118539666,KHEDI,21.10708,79.19753,Pandherkawada,21.0599891,79.20336807
339,Kamptee,2.04636115168,KHEDI,21.10708,79.19753,Pandhurna,21.09075904,79.18841542
340,Kamptee,4.0592210995,KORADI,21.256102,79.083834,Panjara,21.2291383,79.11023705
341,Kamptee,0.879423987694,TEMSANA,21.08627,79.22514,Parsodi,21.08137063,79.218486
342,Kamptee,2.10724666006,PAWANGAON,21.16828,79.18275,Pawangaon,21.16064067,79.20134739
343,Kamptee,0.969819071061,KAPSI(BU),21.1462,79.19134,Powari,21.14536158,79.20064816
344,Kamptee,2.85901750765,RANALA,21.20669,79.1789,Ranala,21.1847862,79.19334247
345,Kamptee,2.73957874453,NANHA,21.0831,79.35938,Ranmangali,21.06492045,79.37720069
346,Kamptee,2.40144440383,GARLA,21.12861,79.25976,Sawali,21.11084679,79.27292808
347,Kamptee,5.61685071163,UMRI,21.12485,79.29817,Selu,21.08090515,79.32486983
348,Kamptee,4.64811923084,GHORPAD,21.18875,79.19842,Shirpur,21.15829907,79.22913082
349,Kamptee,5.32683286264,SHIWNI,21.09229,79.26432,Shivani,21.05509403,79.29667293
350,Kamptee,3.00501957752,SURADEVI,21.24729,79.12282,Suradevi,21.22919565,79.14435588
351,Kamptee,3.09291737689,BABHULKHEDA,21.30459,79.03008,Tandulwani,21.30423351,79.05993305
352,Kamptee,3.35351851806,BIDGAON,21.13179,79.16787,Tarodi bk.,21.10216491,79.17392595
353,Kamptee,1.85127108614,TARODI(BU),21.11811,79.17906,TARODI(BU),21.10216491,79.17392595
354,Kamptee,1.72069619612,TEMSANA,21.08627,79.22514,Temsana,21.07414426,79.23544356
355,Kamptee,2.73484740513,UMRI,21.12485,79.29817,Umari,21.1017227,79.30714159
356,Kamptee,4.59521339626,NERI,21.18661,79.27525,Ungaon,21.16489919,79.31295958
357,Kamptee,3.30492171522,WADODA,21.13172,79.32252,Wadoda,21.11387011,79.34799669
358,Kamptee,2.81490147374,WARAMBHA,21.05288,79.33449,Warambha,21.03240663,79.35044316
359,Kamptee,2.29418068578,WAREGAON,21.2468,79.15631,Waregaon,21.22966376,79.16863776
360,Kamptee,4.22620526412,UMRI,21.12485,79.29817,Yekardi,21.09301761,79.32043014
361,Kamptee,1.8329619452,YERKHEDA,21.21306,79.18729,YERKHEDA,21.20093898,79.19927338
362,Kamptee,0.776044438321,WARAMBHA,21.05288,79.33449,Zharap,21.04777278,79.32939334
363,Katol,2.58202790496,JUNAPANI,21.15234,78.56744,Ahmednagar,21.17484866,78.57355909
364,Katol,1.40017485677,ANJANGAON,21.26405,78.68704,Ajangaon,21.25146974,78.68645483
365,Katol,1.20213518338,RINGANABODI,21.12926,78.71519,Akewada,21.11847527,78.71599841
366,Katol,2.30789136932,MARAGSUR,21.20658,78.70788,Alagondi,21.18974012,78.69486671
367,Katol,1.39308086568,AMBALA(SO),21.2715,78.55138,Ambada (sonak),21.26046756,78.55775036
368,Katol,3.02097295965,MASLI,21.36638,78.53434,Babulkheda,21.34377692,78.51815511
369,Katol,3.61788258062,GANGALDOH,21.30481,78.6645,Bhajipani,21.29241204,78.63221312
370,Katol,1.41920158178,BHORGAD,21.23816,78.47651,Bhorgad,21.23273212,78.48890298
371,Katol,2.01341964288,GONDI(MOH),21.36422,78.70798,Bid Jatamzari,21.37312603,78.69105072
372,Katol,0.860785206395,BIHALGONDI,21.14939,78.67098,Bihalgondi,21.1457967,78.67833185
373,Katol,3.05808579987,SABKUND,21.19986,78.5963,Bilavargondi,21.17246297,78.59372509
374,Katol,1.86263305628,KAMPTEE,21.07233,78.62764,Bopapur,21.08294345,78.64152891
375,Katol,3.65135161105,GANGALDOH,21.30481,78.6645,Bordoh,21.27865405,78.64319212
376,Katol,2.18431560078,PARDI(GOT),21.26054,78.63457,Borgondi,21.24703866,78.61925976
377,Katol,3.65984260885,RIDHORA,21.23291,78.62513,Borkhedi,21.20053524,78.63149346
378,Katol,2.73163671386,KOHLA,21.28257,78.67144,Bramhapuri,21.25815868,78.66848447
379,Katol,2.77931402236,RINGANABODI,21.12926,78.71519,Chakdoh,21.13012553,78.74197052
380,Katol,0.70265365591,CHANDANPARDI,21.16328,78.5379,Chandanpardi,21.16910357,78.54053047
381,Katol,1.20996625195,CHARGAON,21.26514,78.75054,Chargaon,21.25525459,78.75542026
382,Katol,2.80628298067,MARAGSUR,21.20658,78.70788,Chaukigad,21.18136033,78.70686243
383,Katol,5.44239544482,PANDHARDHAKNI,21.27881,78.45954,Chaurepathar,21.25430951,78.5050072
384,Katol,1.40230744703,MALEGAON,21.30649,78.72112,Chendkapur,21.30176882,78.73367193
385,Katol,2.43405244333,SIRSAWADI,21.29467,78.58766,Chichala,21.28476296,78.56671058
386,Katol,1.60341050493,JUNAPANI,21.15234,78.56744,Chicholi,21.16675476,78.56784947
387,Katol,0.738976762511,CHIKHALAGAD,21.20492,78.49609,Chikhlagad,21.20692387,78.5028867
388,Katol,2.92089885028,PANWADI,21.31668,78.56445,Delwadi,21.29294222,78.57652414
389,Katol,3.51150040116,KATALABODI,21.17659,78.75776,Dhankundav,21.14501174,78.75743867
390,Katol,0.834101737666,DHAWALAPUR,21.26584,78.65522,Dhawalapur,21.25835315,78.65571863
391,Katol,2.19144385828,FETRI,21.28389,78.54765,Dhiwarwadi,21.27426087,78.56610375
392,Katol,0.695051447594,DHOTIWADA,21.04748,78.65892,Dhotiwada,21.04627275,78.66549146
393,Katol,1.02340833072,DHURKHEDA,21.11995,78.63561,Dhurkheda,21.11315944,78.64226986
394,Katol,1.90189265549,DIGRAS(BU),21.33216,78.54421,Digras (Bk),21.3164287,78.55141742
395,Katol,2.13103938489,DODKI,21.10555,78.64885,Dodki,21.1030348,78.66921509
396,Katol,2.40059743318,DORLI(BHA),21.38212,78.57814,Dorli (Bhandwalkar),21.36362887,78.59010594
397,Katol,0.778104927956,DORLI(BHI),21.25322,78.77997,Dorli (Bk),21.24796388,78.78492661
398,Katol,0.778104927956,DORLI(BHI),21.25322,78.77997,Dorli (Kh),21.24796388,78.78492661
399,Katol,1.20887613755,DUDHALA,21.13635,78.64514,Dudhala,21.14122813,78.65555678
400,Katol,1.31383977531,FETRI,21.28389,78.54765,Fetri,21.27394577,78.55449824
401,Katol,1.87237547244,GANGALDOH,21.30481,78.6645,Gangaldoh,21.28797425,78.66416303
402,Katol,1.10971284456,GARAMSUR,21.16625,78.73795,Garamsur,21.15628605,78.73734545
403,Katol,1.91805081483,GHARATWADA,21.22974,78.6059,Gharatwada,21.21646679,78.61771812
404,Katol,2.64866994598,KATALABODI,21.17659,78.75776,Ghorpad,21.17779665,78.78327239
405,Katol,0.81573662482,GHUBDI,21.08802,78.69924,Ghubadi,21.08514896,78.70647546
406,Katol,2.81679341424,TAPNI,21.38249,78.64731,Gollarkhapa,21.35861592,78.65640532
407,Katol,2.08941851148,GONDIDIGRAS,21.36562,78.59536,Gondidigras,21.35345856,78.61074076
408,Katol,1.48910993819,MALEGAON,21.30649,78.72112,Gondikhapa,21.3174731,78.71289502
409,Katol,1.30138649893,GONDI(MOH),21.36422,78.70798,Gondimohgaon,21.35277327,78.70536134
410,Katol,2.87551250427,GONHI,21.33501,78.61811,Gonhi,21.3102025,78.62594958
411,Katol,0.637769782603,GHARATWADA,21.22974,78.6059,Gujarkhedi,21.22401087,78.60619221
412,Katol,0.728830104885,PANWADI,21.31668,78.56445,Harankhuri,21.31140549,78.56862688
413,Katol,2.5754161622,RINGANABODI,21.12926,78.71519,Hardoli,21.12961696,78.69036227
414,Katol,2.7124110342,HATLA,21.26098,78.65952,Hatla,21.2377256,78.66742391
415,Katol,1.47329793063,ESAPUR(BU),21.33043,78.64984,Isapur(Bk),21.31877896,78.64306697
416,Katol,0.977663332354,ESAPUR(KH),21.32632,78.64792,Isapur (Kh),21.31877896,78.64306697
417,Katol,2.60762870113,JUNAPANI,21.15234,78.56744,Jamgad,21.13936428,78.58838432
418,Katol,2.01341964288,GONDI(MOH),21.36422,78.70798,Jatamzari,21.37312603,78.69105072
419,Katol,3.34247107287,KAMPTEE,21.07233,78.62764,Jatlapur,21.09839035,78.64369621
420,Katol,0.253189080491,JUNAPANI,21.15234,78.56744,Junapani,21.15215503,78.56987341
421,Katol,2.48032305805,FETRI,21.28389,78.54765,Junewani,21.26503777,78.53485521
422,Katol,1.81150734738,KACHARI(SA),21.19444,78.65655,Kachari Savanga,21.17816582,78.65574974
423,Katol,1.89175529287,KALAMBHA,21.36257,78.56796,Kalambha,21.34624379,78.57309768
424,Katol,1.67421438357,KACHARI(SA),21.19444,78.65655,Kalkuhi,21.18577747,78.64334188
425,Katol,4.86259913391,GANESHPUR,21.17177,78.67078,Kalmunda,21.17300279,78.71765734
426,Katol,1.27571178151,KAMPTEE,21.07233,78.62764,Kamthi,21.06869336,78.63930078
427,Katol,1.94771460757,WADHONA,21.31795,78.5774,Karla,21.30833573,78.59311675
428,Katol,1.11216693126,KATALABODI,21.17659,78.75776,Katlabodi,21.16702779,78.75461455
429,Katol,3.23789626084,MINIWADA,21.10503,78.70287,Kawdimet,21.08280833,78.68270041
430,Katol,2.63314336905,LADGAON,21.22616,78.56649,Kedarpur,21.20338647,78.55952747
431,Katol,3.4857337403,BORI,21.35514,78.6718,Khairi (Navghare),21.32452466,78.66456645
432,Katol,1.91573518163,KHAMLI,21.38085,78.60285,Khamli,21.36976831,78.61701617
433,Katol,1.16595503691,KHANGAON,21.29745,78.54637,Khangaon,21.29368865,78.55687514
434,Katol,2.38221666448,NANDORA,21.1663,78.61376,Khapa,21.15802971,78.63495228
435,Katol,2.8475343509,DHOTIWADA,21.04748,78.65892,Khapa (Bk),21.04685941,78.68635103
436,Katol,1.93557057834,KHAPRI(BARO),21.13581,78.55406,Khapari (Barokar),21.14990323,78.54310572
437,Katol,3.0876520389,RIDHORA,21.23291,78.62513,Khapari (Kh),21.22493826,78.65366542
438,Katol,1.47648547924,KHURSAPAR,21.16077,78.58225,Khursapur,21.15775028,78.59611521
439,Katol,1.62740932479,KHUTAMBA,21.22131,78.59282,Khutamba,21.20706219,78.59641023
440,Katol,1.9540932259,PUSAGONDI,21.09557,78.65915,Kinki Dhoda,21.0793019,78.66627385
441,Katol,1.65233455438,KOHLA,21.28257,78.67144,Kohala,21.26822372,78.67559596
442,Katol,3.87130799023,RIDHORA,21.23291,78.62513,Kokarda,21.19945643,78.6147864
443,Katol,1.62307906603,KHANGAON,21.29745,78.54637,Kolambi,21.28299204,78.54421519
444,Katol,1.81247948337,BHORGAD,21.23816,78.47651,Kolhu,21.22205055,78.47917615
445,Katol,1.42128475056,KONDHALI,21.13906,78.64252,Kondhali,21.12965979,78.65180561
446,Katol,1.31076524405,KONDHASAOLI,21.22778,78.66576,Kondhasaoli,21.21687156,78.67055302
447,Katol,1.78921383458,KOTWALBARDI,21.22308,78.78103,Kotwalbardi,21.20699015,78.78121623
448,Katol,2.93986145343,BIHALGONDI,21.14939,78.67098,Kundi,21.14404068,78.69874146
449,Katol,0.980546449051,LADGAON,21.22616,78.56649,Ladgaon,21.22993949,78.57503722
450,Katol,4.38967690173,MALEGAON,21.30649,78.72112,Lakholi,21.27400177,78.69705025
451,Katol,1.8425672425,LINGA,21.25711,78.63155,Linga,21.24259941,78.64013547
452,Katol,3.79430131782,KATALABODI,21.17659,78.75776,Mandala,21.14494019,78.77143626
453,Katol,0.849381691404,MARAGSUR,21.20658,78.70788,Maragsur,21.19894861,78.7075223
454,Katol,1.29400071746,MASLI,21.36638,78.53434,Masli,21.3596513,78.54453522
455,Katol,0.692550704687,MASOD,21.07634,78.62218,Masod,21.08256806,78.62212676
456,Katol,1.2523157005,MENDHEPATHAR,21.24571,78.68479,Mendhepathar,21.23498618,78.68848173
457,Katol,1.94088682126,NANDORA,21.1663,78.61376,Mendhepathar (Jangli),21.18036405,78.62484636
458,Katol,2.47955292822,MENDHAKI,21.35389,78.62937,Mendki,21.33610493,78.64381218
459,Katol,1.90380373691,METPANJRA,21.25941,78.70053,Metpanjara,21.24233382,78.70186307
460,Katol,1.14519315986,MINIWADA,21.10503,78.70287,Mhasala,21.10886953,78.69262624
461,Katol,3.53270089015,MALEGAON,21.30649,78.72112,Mhaskhapra,21.30199111,78.687363
462,Katol,1.00742983481,MINIWADA,21.10503,78.70287,Miniwada,21.10395702,78.71251308
463,Katol,4.16594693454,PANDHARDHAKNI,21.27881,78.45954,Mohgaon (Dhole),21.25280682,78.48848261
464,Katol,4.16594693454,PANDHARDHAKNI,21.27881,78.45954,Mohgaon (Jangli),21.25280682,78.48848261
465,Katol,3.43660277636,KALAMBHA,21.36257,78.56796,Mohkhedi,21.34068565,78.59139172
466,Katol,1.6198271252,DORLI(BHA),21.38212,78.57814,Mukani,21.38672657,78.5929817
467,Katol,1.2730713933,KATALABODI,21.17659,78.75776,Murli,21.18797312,78.75907538
468,Katol,1.49467078982,MURTI,21.18789,78.50926,Murti,21.19014793,78.52347171
469,Katol,0.196315489493,NANDORA,21.1663,78.61376,Nandora,21.16456273,78.61409725
470,Katol,1.72555845324,PANCHADHAR,21.20091,78.63316,Panchdhar,21.20295284,78.64966014
471,Katol,2.28620972257,PANDHARDHAKNI,21.27881,78.45954,Pandhardhakani,21.26682435,78.47746697
472,Katol,3.06314001513,PARDI(GOT),21.26054,78.63457,Panjra (Bk),21.23729737,78.65043521
473,Katol,1.52926132516,PANJRAKATE,21.12014,78.65418,Panjra (Kate),21.12188055,78.66880487
474,Katol,2.19603147674,PANWADI,21.31668,78.56445,Panwadi,21.29730083,78.56853529
475,Katol,2.16450324675,PARADSINGA,21.31803,78.51966,Paradsinga,21.30138417,78.53049194
476,Katol,1.01139186682,PARDI(GOT),21.26054,78.63457,Pardi (Gotmare),21.25422892,78.6415981
477,Katol,1.15388247361,LADGAON,21.22616,78.56649,Parsodi,21.2197235,78.55775801
478,Katol,3.94504356465,DONGARGAON,21.30591,78.60309,Pathar,21.27666243,78.62464377
479,Katol,0.53030991811,PUSAGONDI,21.09557,78.65915,Pusagondi,21.09095086,78.66042214
480,Katol,2.49222158851,RAJNI,21.39848,78.59109,Rajni,21.38518299,78.61046758
481,Katol,1.51462686202,RAULGAON,21.23096,78.77937,Raulgaon,21.22558777,78.7927984
482,Katol,1.6404482008,RIDHORA,21.23291,78.62513,Ridhora,21.22028454,78.63331737
483,Katol,0.282305744951,RINGANABODI,21.12926,78.71519,Ringanabodi,21.12854722,78.71780235
484,Katol,1.95183058665,SABKUND,21.19986,78.5963,Sabkund,21.18418367,78.60477019
485,Katol,1.75814815792,BIHALGONDI,21.14939,78.67098,Salai (Bk),21.15521855,78.65522027
486,Katol,3.77085905062,YENWA,21.34063,78.59615,Salai (Bk),21.30807422,78.60634284
487,Katol,4.15435940811,KHURSAPAR,21.16077,78.58225,Salai (Kh),21.14935294,78.62039452
488,Katol,2.96839905441,BHORGAD,21.23816,78.47651,Saoli,21.21631927,78.49297753
489,Katol,2.44542268623,LINGA,21.25711,78.63155,Saoli (Bk),21.23587899,78.63770431
490,Katol,0.162685446552,RIDHORA,21.23291,78.62513,Saoli (Kh),21.23410142,78.62604101
491,Katol,4.75097727466,GANESHPUR,21.17177,78.67078,Shekapur,21.1549151,78.71288109
492,Katol,1.41340326575,KONDHALI,21.13906,78.64252,Shirmi,21.12817218,78.6354876
493,Katol,1.45259262717,SIRSAWADI,21.29467,78.58766,Sirsawadi,21.28292428,78.59379648
494,Katol,1.13955199792,SONKHAMB,21.27106,78.72647,Sonkhamb,21.26089762,78.72504949
495,Katol,0.41014188317,CHIKHALI(MALO),21.22302,78.6872,Sonmoh,21.21937844,78.68782921
496,Katol,2.07711152468,SONOLI,21.36605,78.62694,Sonoli,21.35164283,78.63970688
497,Katol,3.03543855201,KACHARI(SA),21.19444,78.65655,Sonpur,21.18063134,78.68180548
498,Katol,4.0713146066,CHIKHALAGAD,21.20492,78.49609,Tandulwani,21.2035521,78.5353357
499,Katol,1.5152868346,TAPNI,21.38249,78.64731,Tapani,21.37300668,78.65781928
500,Katol,2.85484420653,METPANJRA,21.25941,78.70053,Tarabodi,21.23729023,78.71451457
501,Katol,3.40815862798,KHARI(KH),21.11177,78.58651,Taroda,21.13228001,78.61092723
502,Katol,3.89783020924,METPANJRA,21.25941,78.70053,Ubagi,21.23851273,78.73072704
503,Katol,0.627488144198,DODKI,21.10555,78.64885,Vasantnagar,21.10674456,78.65476185
504,Katol,2.33794054965,WADHONA,21.31795,78.5774,Wadhona (Lodhi),21.29899148,78.58715834
505,Katol,2.05053131645,PARADSINGA,21.31803,78.51966,Wadvihara,21.32190209,78.53901429
506,Katol,0.537456726168,KHUTAMBA,21.22131,78.59282,Waghoda,21.22539651,78.59005095
507,Katol,1.07474945116,WAI(KU),21.2042,78.67949,Wai (Bk),21.20042133,78.66994787
508,Katol,0.573739854472,WAI(KU),21.2042,78.67949,Wai (Kh),21.20064075,78.68349686
509,Katol,1.3504436584,WAJBODI,21.22832,78.71259,Wajbodi,21.21669243,78.71635176
510,Katol,3.46259945449,CHIKHALAGAD,21.20492,78.49609,Walni,21.21165322,78.52870201
511,Katol,1.95166875367,WANDLIWAGH,21.25304,78.60284,Wandli (bu),21.23733362,78.61124544
512,Katol,2.06256145834,WANDALI(KH),21.36011,78.54558,Wandli (kh),21.34543543,78.5577619
513,Katol,2.91093553284,KOTWALBARDI,21.22308,78.78103,Yenvihira,21.22220934,78.75296228
514,Katol,1.619471466,YENWA,21.34063,78.59615,Yenwa,21.32993391,78.60676218
515,Katol,1.68505021893,YERLA(DHOTE),21.33308,78.56177,Yerla (Dhote),21.32437605,78.57508717
516,Katol,1.10178302518,ZILPA,21.34227,78.68551,Zilpa,21.3324487,78.68691877
517,Kuhi,2.52907858765,ADAM,21.00017,79.45043,Adam,20.97774596,79.45450526
518,Kuhi,3.8370498233,RAJOLA,21.07424,79.52443,Agargaon,21.06339432,79.48932446
519,Kuhi,3.50326368924,ESAPUR(NAVE),20.97604,79.3295,Ajni,20.9532377,79.35278194
520,Kuhi,1.23036426371,WADEGAON(K),21.03808,79.19245,Ajni,21.02707546,79.19121312
521,Kuhi,2.4742794761,AKOLI,21.0179,79.34412,Akoli,20.99595502,79.34806417
522,Kuhi,3.13408142671,AMBADI,21.05719,79.3652,Ambadi,21.0338525,79.38213407
523,Kuhi,4.9242014437,MAHASLI,21.04423,79.57698,Ambhorakala,21.00751876,79.60351342
524,Kuhi,4.00351113464,BORI(N),21.05622,79.53038,Amti,21.02333436,79.51467506
525,Kuhi,2.97464816819,BORI(N),21.05622,79.53038,Awarmara,21.06581641,79.55713871
526,Kuhi,4.40935814985,SATARA,20.972921,79.40341,Bamhani,20.94828641,79.43668612
527,Kuhi,2.65529112772,BANOR,20.94231,79.3827,Banor,20.91951263,79.39030957
528,Kuhi,5.56351415352,CHITAPUR,21.05942,79.28211,Bhamewada,21.02708345,79.32301853
529,Kuhi,2.74904568893,BHATRA,21.01072,79.40891,Bhatara,20.98679848,79.41559717
530,Kuhi,2.50957453564,BHIVAPUR-FEGAD(PUNARVASIT),20.93389,79.57873,Bhiwapur,20.93600642,79.60278783
531,Kuhi,1.64918102029,DEVADIKALA,21.03976,79.4617,Bhiwkund,21.02508183,79.46397853
532,Kuhi,2.83413889577,SILLI,20.99274,79.3613,Bhojapur,20.97117203,79.34675381
533,Kuhi,3.91124836812,AMBADI,21.05719,79.3652,Bhowardeo,21.04367026,79.39999474
534,Kuhi,2.45441155423,BHATRA,21.01072,79.40891,Bidbothli,21.00245225,79.4308332
535,Kuhi,5.05943324928,KHOBNA,21.06177,79.40647,Bodkhipeth,21.01631871,79.40420154
536,Kuhi,3.0488204738,BORI(N),21.05622,79.53038,Bori (naik),21.0299264,79.53870926
537,Kuhi,2.69175273048,PARSODI(R),20.93646,79.50261,Bori (sadachar),20.91701114,79.48717874
538,Kuhi,3.22191181594,WELTUR,20.99726,79.56922,Bothli,20.9685187,79.56528357
539,Kuhi,3.04925057218,SAWANGI,20.93498,79.5697,Bramhani,20.911371,79.58463518
540,Kuhi,4.35866613362,BANOR,20.94231,79.3827,Chada,20.90575184,79.39784125
541,Kuhi,2.44028077165,CHANNA,20.99369,79.52319,Channa,20.97179054,79.52471948
542,Kuhi,3.41244626034,MALNI,21.02367,79.31106,Chanoda,21.0147503,79.34251717
543,Kuhi,2.946926373,CHAPEGADI,21.07376,79.43591,Chapegadi,21.04875327,79.44531543
544,Kuhi,2.946926373,CHAPEGADI,21.07376,79.43591,Chapeghat,21.04875327,79.44531543
545,Kuhi,3.03555538048,MAZRI,20.9938,79.47974,Chichal,20.97767764,79.50333522
546,Kuhi,2.67891245973,CHAPEGADI,21.07376,79.43591,Chichghat,21.07626544,79.46158907
547,Kuhi,1.00142827701,MAHASLI,21.04423,79.57698,Chichghat,21.05314785,79.57832731
548,Kuhi,1.28345276303,ADAM,21.00017,79.45043,Chikhalabodi,20.99491261,79.43942362
549,Kuhi,2.09310537904,CHIKNA,20.90219,79.45433,Chikna tukum,20.88349402,79.45667358
550,Kuhi,2.2560840407,MUSALGAON,20.96804,79.3821,Chipdi,20.96478824,79.40354719
551,Kuhi,3.50347793512,CHITAPUR,21.05942,79.28211,Chitapur,21.03065846,79.29589404
552,Kuhi,1.56750003646,WELGAON,20.9122,79.49748,Dahegaon,20.90766753,79.51176941
553,Kuhi,3.11543673497,DEVADIKALA,21.03976,79.4617,Deolikala,21.01232678,79.46779957
554,Kuhi,2.42827007314,DWALIKHURD,21.03944,79.47279,Deoli kh.,21.01826619,79.47851609
555,Kuhi,3.56956115703,THANA,20.90307,79.4937,Dhamna,20.87257465,79.48296657
556,Kuhi,3.40495092962,MAHASLI,21.04423,79.57698,Dhamni,21.0284966,79.60512627
557,Kuhi,1.60595745266,KHOKARLA,20.96902,79.59329,Dhanla,20.95479318,79.59595426
558,Kuhi,5.7683742239,TITUR,21.06672,79.26081,Dhanoli,21.016002,79.27248962
559,Kuhi,5.31520286724,TITUR,21.06672,79.26081,Dipala,21.01893035,79.25970544
560,Kuhi,2.94910885628,DODMA,21.01146,79.25614,Dodma,20.98626773,79.26502234
561,Kuhi,1.40613487635,DONGERMOUDA,20.91367,79.4788,Dongarmauda,20.90300419,79.48607252
562,Kuhi,0.705878687197,BHIVAPUR-FEGAD(PUNARVASIT),20.93389,79.57873,Fegad,20.93281759,79.58542904
563,Kuhi,2.62068933649,MAHASLI,21.04423,79.57698,Gondpipri,21.06241419,79.59304599
564,Kuhi,1.71787244376,GONHA,20.97745,79.61734,Gonha,20.96689072,79.62941746
565,Kuhi,1.13078200459,GOTHANGAON,20.89846,79.54526,Gothangaon,20.89708167,79.55604498
566,Kuhi,2.17903390405,HARDOLI?,20.92053,79.46398,Hardoli,20.90142118,79.45932893
567,Kuhi,1.27605948975,HARDOLI(N),21.03462,79.56059,Hardoli,21.02318689,79.56165047
568,Kuhi,1.28287895829,ADAM,21.00017,79.45043,Hudpa,20.99410648,79.46094345
569,Kuhi,3.03314655434,ESAPUR(NAVE),20.97604,79.3295,Isapur (navegaon),20.9491021,79.33409664
570,Kuhi,0.520004936681,JIWANAPUR (PUNARVASIT),20.91233,79.61209,Jiwanapur,20.9169939,79.6124575
571,Kuhi,3.7958099951,RAJOLA,21.07424,79.52443,Kanheri dongarmoh,21.04493266,79.50567339
572,Kuhi,3.7958099951,RAJOLA,21.07424,79.52443,Kanheri kh.,21.04493266,79.50567339
573,Kuhi,0.989735946305,KARAHNDLA,20.9272,79.54001,Karhandla,20.92078442,79.5466154
574,Kuhi,3.89881857649,MUSALGAON,20.96804,79.3821,Katara,20.94946119,79.41394289
575,Kuhi,3.2279748486,KINHI,20.96558,79.49422,Kesori,20.95550916,79.52337641
576,Kuhi,3.54345026881,PACHKHEDI(G),20.94753,79.50746,Khairlanji,20.94784409,79.54158059
577,Kuhi,1.13277591544,WADEGAON(K),21.03808,79.19245,Khalasana,21.04317943,79.20189913
578,Kuhi,1.38383408799,KHARADA,20.92451,79.62689,Kharada,20.92526087,79.64018956
579,Kuhi,1.1619782069,SALVA,21.04918,79.44186,Kharbi,21.04371643,79.4323154
580,Kuhi,4.02639385523,KUJBA,21.01636,79.51048,Khenda,20.99054495,79.48328064
581,Kuhi,2.84988860747,SASEGAON,21.00669,79.28617,Khetapur,21.03065846,79.29589404
582,Kuhi,3.62970212544,KHOBNA,21.06177,79.40647,Khobna,21.03056016,79.4167188
583,Kuhi,2.65573802912,KHOKARLA,20.96902,79.59329,Khokarla,20.95143026,79.61059122
584,Kuhi,4.32501301942,DEVADIKALA,21.03976,79.4617,Khursapar,21.01862311,79.49668122
585,Kuhi,3.1975529009,KUCHADI,21.06215,79.2291,Kuchadi,21.03938722,79.24792871
586,Kuhi,2.22543545739,KUJBA,21.01636,79.51048,Kujba,20.99659172,79.50713209
587,Kuhi,3.80350176568,BHATRA,21.01072,79.40891,Lohara,20.98318216,79.43064346
588,Kuhi,1.42594694313,PACHKHEDI(G),20.94753,79.50746,Madnapur,20.94443351,79.52078493
589,Kuhi,2.54641903912,MAZRI,20.9938,79.47974,Majri,20.97111387,79.48308807
590,Kuhi,3.76515160422,BANOR,20.94231,79.3827,Malchi,20.9085457,79.37996474
591,Kuhi,3.10018621044,MALNI,21.02367,79.31106,Malni,20.99998885,79.32682323
592,Kuhi,2.36297023582,GONHA,20.97745,79.61734,Maloda,20.98625248,79.63805545
593,Kuhi,0.353271257394,MANDHAL,20.95291,79.45942,Mandhal,20.95011771,79.45779721
594,Kuhi,2.38035128274,MALNI,21.02367,79.31106,Mangli,21.00251838,79.30752829
595,Kuhi,5.82427222733,AKOLI,21.0179,79.34412,Mendhegaon,20.97723581,79.30875694
596,Kuhi,1.67309953547,MAHASLI,21.04423,79.57698,Mhasli,21.02919177,79.57644411
597,Kuhi,4.97274524466,ESAPUR(NAVE),20.97604,79.3295,Mohadara,20.93830632,79.35520312
598,Kuhi,3.11522920341,KUCHADI,21.06215,79.2291,Mohadi,21.03413424,79.22899564
599,Kuhi,0.609427525178,CHAPEGADI,21.07376,79.43591,Mohgaon,21.06891044,79.4331736
600,Kuhi,2.01122443543,BANOR,20.94231,79.3827,Murbi,20.93434128,79.40008542
601,Kuhi,3.10450168125,MUSALGAON,20.96804,79.3821,Musalgaon,20.94030492,79.37866983
602,Kuhi,3.54955189881,BORI(N),21.05622,79.53038,Navegaon,21.04877029,79.56364052
603,Kuhi,1.28179886356,SIRSI(NAVE),20.95198,79.63532,Navegaon,20.94046378,79.63477423
604,Kuhi,2.99351047505,DODMA,21.01146,79.25614,Nawargaon,20.99854502,79.28144253
605,Kuhi,4.50382823406,SALVA,21.04918,79.44186,Newri,21.00881741,79.43823837
606,Kuhi,4.33006650135,PARDI,20.92567,79.41439,Pachkhedi,20.89025299,79.39706087
607,Kuhi,2.32446475254,PACHKHEDI(G),20.94753,79.50746,Pachkhedi (gandli),20.93218517,79.52266002
608,Kuhi,1.01429915247,BHATRA,21.01072,79.40891,Pandegaon,21.00757116,79.41808073
609,Kuhi,1.84585980643,SAWANGI,20.93498,79.5697,Pandhargota,20.91841777,79.56849837
610,Kuhi,3.69106648481,KUJBA,21.01636,79.51048,Paoni,20.98721067,79.49346931
611,Kuhi,2.64764124879,MAHASLI,21.04423,79.57698,Paoni,21.04494667,79.6024809
612,Kuhi,1.27175308338,WADEGAON(K),21.03808,79.19245,Pipari,21.03431493,79.18087919
613,Kuhi,3.30024154918,GONHA,20.97745,79.61734,Pipri,20.97158593,79.64849934
614,Kuhi,2.1262346905,RAJOLA,21.07424,79.52443,Rajola,21.05560441,79.52902092
615,Kuhi,1.32874672772,RAJOLI,20.9113,79.55488,Rajoli,20.90765414,79.5670622
616,Kuhi,2.22029500201,SHIKARPUR,20.96909,79.56278,Ratnapur,20.95943467,79.58149696
617,Kuhi,3.7293468662,PARSODI(R),20.93646,79.50261,Rengatur,20.91273736,79.52799235
618,Kuhi,3.97374361064,BANOR,20.94231,79.3827,Ridhora,20.91023338,79.36583295
619,Kuhi,3.52852895343,HARDOLI(N),21.03462,79.56059,Ruyad,21.00670617,79.54442127
620,Kuhi,2.20916279281,RUYAD,20.95638,79.42374,Ruyad,20.93652941,79.42286304
621,Kuhi,3.21579725428,SALVA,21.04918,79.44186,Salwa,21.02145452,79.45067449
622,Kuhi,4.02586145632,SASEGAON,21.00669,79.28617,Sasegaon,20.97111418,79.29337048
623,Kuhi,2.82860904672,SATARA,20.972921,79.40341,Satara,20.94946119,79.41394289
624,Kuhi,5.22334884064,RAJOLA,21.07424,79.52443,Sawarkheda,21.03731807,79.49331097
625,Kuhi,4.63525303174,AMBADI,21.05719,79.3652,Sawli,21.01592761,79.37154973
626,Kuhi,1.52257934709,SHIKARPUR,20.96909,79.56278,Shikarpur,20.95542341,79.5636883
627,Kuhi,4.68902979809,DODMA,21.01146,79.25614,Shivani,20.97278872,79.23812802
628,Kuhi,0.95325062667,KINHI,20.96558,79.49422,Shiwani,20.96192685,79.50252521
629,Kuhi,3.95366047786,SILLI,20.99274,79.3613,Silli,20.95806735,79.36973589
630,Kuhi,0.935136324272,SIRSI(NAVE),20.95198,79.63532,Sirsi (navegaon),20.94890189,79.64370035
631,Kuhi,2.46580407672,SIRSI(NAVE),20.95198,79.63532,Sonarwahi,20.93832203,79.61661359
632,Kuhi,1.91408223915,SHIKARPUR,20.96909,79.56278,Sonpuri,20.96828651,79.54436553
633,Kuhi,2.97706789523,TARNA,20.90144,79.40165,Tarna,20.87579902,79.40989626
634,Kuhi,4.78738229948,CHITAPUR,21.05942,79.28211,Tarni,21.02119011,79.30332655
635,Kuhi,1.36997045539,TAROLI,20.95369,79.55498,Taroli,20.9415855,79.55743912
636,Kuhi,4.12570289873,HARDOLI(N),21.03462,79.56059,Tekepar,21.01154037,79.52946684
637,Kuhi,4.03350548294,AKOLI,21.0179,79.34412,Tembhari,20.98162731,79.34447291
638,Kuhi,1.58779575469,THANA,20.90307,79.4937,Thana,20.88880723,79.49296276
639,Kuhi,3.04009313682,TITUR,21.06672,79.26081,Titur,21.04220536,79.27378045
640,Kuhi,1.66840222261,TUDKA (PUNARVASIT),20.96798,79.62963,Tudka,20.96038307,79.64348614
641,Kuhi,3.1511552426,VIRKHANDI,20.9201,79.43653,Virkhandi,20.89176808,79.43720902
642,Kuhi,2.71451089441,WADEGAON(K),21.03808,79.19245,Wadegaon (Kale),21.01677364,79.20521623
643,Kuhi,1.34169400731,WADEGON(MA),20.96215,79.45683,Wadegaon (mandhal),20.95011771,79.45779721
644,Kuhi,2.60546652184,WAG,20.93681,79.43746,Wag,20.913403,79.43631258
645,Kuhi,2.78751430066,WELGAON,20.9122,79.49748,Welgaon,20.89710626,79.51890583
646,Kuhi,1.94238538258,WELTUR,20.99726,79.56922,Weltur,20.982762,79.57965674
647,MOUDA,0.621223692639,AADASA,21.22331,79.55491,Adasa,21.21772565,79.55508743
648,MOUDA,1.90676394015,AADEGAON,21.35164,79.48975,Adegaon,21.35025691,79.50810158
649,MOUDA,0.514053131504,ANJANGAON,21.19441,79.42281,Ajangaon,21.19638649,79.4272924
650,MOUDA,1.99366007319,AROLI,21.32149,79.44181,Aroli,21.30476763,79.44875211
651,MOUDA,0.999604890829,AASHTI(NAV),21.26741,79.36873,Ashti,21.26045269,79.37483886
652,MOUDA,2.53533379438,GHOTMUNDRI,21.23508,79.51911,Ashti,21.21458094,79.50840028
653,MOUDA,1.45242260934,BABDEO,21.20528,79.37728,Babadeo,21.19348211,79.38329263
654,MOUDA,0.995661459233,BANOR,21.24901,79.39614,BANOR,21.24499709,79.40472842
655,MOUDA,2.91929023269,DHUDHALA,21.29883,79.37406,Barshi,21.27657995,79.38901594
656,MOUDA,2.05598968248,BERDEPAR,21.34422,79.44176,Berdipar,21.33362488,79.45802859
657,MOUDA,5.29327669061,DAHEGAON,21.19753,79.50688,Bhamewada,21.1675948,79.46718463
658,MOUDA,1.84024118783,BHANDEWADI,21.32262,79.45282,Bhandewadi,21.31435818,79.46821326
659,MOUDA,1.00462739968,BHENDALA,21.23066,79.42714,Bhendala,21.22326508,79.4327085
660,MOUDA,2.64652934787,DAHEGAON,21.19753,79.50688,Bhowari,21.18120993,79.52546059
661,MOUDA,1.47797277863,CHACHER,21.28182,79.33662,Chacher,21.27397809,79.34813704
662,MOUDA,0.863204385952,PIPRI,21.22155,79.47654,Charbha,21.22079773,79.46825151
663,MOUDA,4.79766295833,ZULLAR,21.16331,79.33695,Chehadi,21.14160465,79.37693322
664,MOUDA,0.220633260469,CHICHOLI,21.16767,79.48384,Chicholi,21.16937295,79.48493203
665,MOUDA,2.12808465006,NIHARWANI,21.16612,79.54277,Chikhalabodi,21.18497358,79.53924276
666,MOUDA,0.407685074296,CHIRVA,21.13069,79.44964,Chirwha,21.1273893,79.45135125
667,MOUDA,4.91091940803,NANADEVI,21.18302,79.36476,Dahali,21.14671933,79.39173522
668,MOUDA,1.18966370154,DAHEGAON,21.19753,79.50688,Dahegaon,21.19534688,79.51811381
669,MOUDA,3.834732343,MORGAON,21.27496,79.52721,Deomundhari,21.24556558,79.54656296
670,MOUDA,1.56699003574,DHANI,21.25474,79.42401,Dhani,21.24132004,79.42862451
671,MOUDA,0.775572066842,DHANLA,21.18726,79.47103,Dhanla,21.18959482,79.47807903
672,MOUDA,1.49547340872,DHANOLI,21.33516,79.53075,Dhanoli,21.32603499,79.5413565
673,MOUDA,2.54505353283,DHARMAPURI,21.27234,79.50568,Dharmapuri,21.25471765,79.52135254
674,MOUDA,0.816894690201,GHOTMUNDRI,21.23508,79.51911,Dholmara,21.23027719,79.51314599
675,MOUDA,1.01983893417,DHUDHALA,21.29883,79.37406,Dudhala,21.29457284,79.38277917
676,MOUDA,0.987138490657,DHARMAPURI,21.27234,79.50568,Ejani,21.26662919,79.51297369
677,MOUDA,1.34057365,GANGNER,21.23119,79.32436,Gangner,21.22536676,79.3356849
678,MOUDA,1.5485043676,GHOTMUNDRI,21.23508,79.51911,Ghotmundhari,21.2261627,79.53058538
679,MOUDA,0.482664051176,GOWRI,21.11821,79.50659,Gowari,21.11447816,79.50896658
680,MOUDA,0.79979042585,BANOR,21.24901,79.39614,Hingana,21.25557742,79.39299275
681,MOUDA,3.85548012414,AADASA,21.22331,79.55491,Hiwara,21.18869108,79.55283042
682,MOUDA,3.24711722288,GANGNER,21.23119,79.32436,Hiwara,21.22142421,79.35388363
683,MOUDA,2.0150965812,INDORA,21.30644,79.49843,Indora,21.28927733,79.50467518
684,MOUDA,1.96274477824,ANJANGAON,21.19441,79.42281,Isapur,21.19637186,79.40399521
685,MOUDA,4.06271796208,AADEGAON,21.35164,79.48975,Kathalabodi,21.34900368,79.52887687
686,MOUDA,4.35628145264,BHANDEWADI,21.32262,79.45282,Khaparkheda,21.3472957,79.48548812
687,MOUDA,2.17199233097,PARDIKALA,21.27129,79.42987,Khaparkheda (Gadi Patil Teli),21.2683292,79.40915119
688,MOUDA,2.32702685161,TUMAN,21.28921,79.41065,Khaparkheda (Kirad),21.2683292,79.40915119
689,MOUDA,1.96284060741,KHARDA,21.28741,79.48128,Kharda,21.27140557,79.48927204
690,MOUDA,0.613663746803,KHAT,21.24202,79.54949,Khat,21.24222719,79.55540693
691,MOUDA,2.65031804904,TONDLI,21.31019,79.53137,Khidki,21.32074279,79.55431079
692,MOUDA,1.3375749781,SALVA,21.23392,79.29824,Khopadi,21.23562699,79.31101472
693,MOUDA,2.77180845245,NANADEVI,21.18302,79.36476,Kirnapur,21.1588449,79.35824197
694,MOUDA,2.60619161835,KODAMENDHI,21.32411,79.47639,Kodamendhi,21.31322424,79.49867139
695,MOUDA,2.1636905808,LAPKA,21.15708,79.41372,Korad,21.15933834,79.43444411
696,MOUDA,4.83696632498,PANMARA,21.10699,79.46801,Kotgaon,21.09375721,79.51242637
697,MOUDA,2.78912218075,DHAMANGAON,21.18567,79.42791,Kumbhari,21.1781781,79.4022373
698,MOUDA,1.47151409009,LAPKA,21.15708,79.41372,Lapaka,21.1488302,79.42481505
699,MOUDA,1.41191176121,BORGAON,21.15702,79.48335,Mahadula,21.15580661,79.49690301
700,MOUDA,0.756418165694,MAHALGAON,21.27217,79.56281,Mahalgaon,21.26651921,79.56687423
701,MOUDA,3.34407989953,BABDEO,21.20528,79.37728,Mangli (Chande),21.18305085,79.35555432
702,MOUDA,1.72983022171,BHENDALA,21.23066,79.42714,Mangli(Gosai),21.2183343,79.4169578
703,MOUDA,1.2310073502,MANGLITELI,21.21037,79.44451,Mangli(Teli),21.20455817,79.45461697
704,MOUDA,0.62065053259,MARODI,21.16063,79.45012,Marodi,21.15538354,79.45216281
705,MOUDA,2.69770827095,MATHANI,21.14238,79.38634,Mathani,21.11839672,79.39026476
706,MOUDA,0.996654689526,MOHALI,21.13717,79.48959,Mohadi,21.12942824,79.48474735
707,MOUDA,2.88323772759,MORGAON,21.27496,79.52721,Morgaon,21.24942961,79.53207341
708,MOUDA,1.93013682643,PIMPALGAON,21.281175,79.553162,Murmadi,21.29552707,79.56364034
709,MOUDA,1.19199008047,NANADEVI,21.18302,79.36476,Nanadevi,21.17471248,79.37202568
710,MOUDA,1.90960635944,NANDAPURI,21.33318,79.33074,Nandapuri,21.32157532,79.34433009
711,MOUDA,3.9032299319,NARSALA,21.23392,79.33175,Narsala,21.20155049,79.34631712
712,MOUDA,3.24378940859,DHARMAPURI,21.27234,79.50568,Nawargaon,21.24320298,79.5072146
713,MOUDA,4.13950090333,AASHTI(NAV),21.26741,79.36873,Nawegaon,21.23044566,79.36398972
714,MOUDA,3.6870000467,LAPKA,21.15708,79.41372,Nawegaon,21.17281797,79.44501616
715,MOUDA,1.16082719872,NERLA,21.30361,79.34498,Nerla,21.3028496,79.35615545
716,MOUDA,0.266863039121,NIHARWANI,21.16612,79.54277,Niharwani,21.16559069,79.5452802
717,MOUDA,0.175743897572,NIMKHEDA,21.25744,79.41393,Nimkheda,21.25609389,79.4148187
718,MOUDA,1.85078079677,NISATKHEDA,21.25648,79.30983,Nisatkheda,21.26011438,79.32725877
719,MOUDA,2.23211652571,AADASA,21.22331,79.55491,Panjara,21.20704862,79.5422845
720,MOUDA,1.26282698654,PANMARA,21.10699,79.46801,Panmara,21.10024437,79.4778033
721,MOUDA,1.20474718028,PARDIKALA,21.27129,79.42987,Pardikala,21.26178135,79.43544307
722,MOUDA,2.08415415575,PAWADDOUDA,21.13261,79.41432,Pawaddauna,21.11974354,79.42893157
723,MOUDA,1.25929837774,PIPRI,21.22155,79.47654,Pipari,21.21359664,79.48518871
724,MOUDA,3.2707534902,NANADEVI,21.18302,79.36476,Rahadi,21.16447958,79.38924901
725,MOUDA,1.07115890058,RAJOLI,21.27471,79.45854,Rajoli,21.26576147,79.46236747
726,MOUDA,2.29323238707,REWRAL,21.26447,79.46632,Rewaral,21.24706171,79.47818528
727,MOUDA,2.21279946564,BHANDEWADI,21.32262,79.45282,Shivadouli,21.32836321,79.47327391
728,MOUDA,3.01338908087,AADASA,21.22331,79.55491,Shiwani,21.21470081,79.52734499
729,MOUDA,1.32778355374,TANDA,21.27712,79.53863,Shrikhanda,21.26814461,79.53017816
730,MOUDA,3.75293011105,NARSALA,21.23392,79.33175,Sigori,21.20034029,79.32810797
731,MOUDA,2.42976920841,MARODI,21.16063,79.45012,Singori,21.14960382,79.47034883
732,MOUDA,1.10163123105,SIRSOLI,21.28548,79.53803,Sirsoli,21.27984686,79.54677637
733,MOUDA,3.49652379856,ZULLAR,21.16331,79.33695,Sukali,21.15528826,79.36955265
734,MOUDA,2.1552403002,TONDLI,21.31019,79.53137,Sukli,21.29653509,79.54613484
735,MOUDA,1.75263404737,TUMAN,21.28921,79.41065,Tarodi,21.29026858,79.42752805
736,MOUDA,0.924132565106,TARSA,21.22495,79.37991,Tarsa,21.22435068,79.38880248
737,MOUDA,0.905003744476,TONDLI,21.31019,79.53137,Tondli (Burj),21.30410373,79.53717006
738,MOUDA,0.905003744476,TONDLI,21.31019,79.53137,Tondli Rithi,21.30410373,79.53717006
739,MOUDA,1.06066585366,TUMAN,21.28921,79.41065,Tuman,21.28136673,79.41647623
740,MOUDA,5.6671326092,MOHALI,21.13717,79.48959,Wadhana,21.09669261,79.45639147
741,MOUDA,2.00376609164,BORIDHIVARI,21.32831,79.50771,Wagbodi,21.33277596,79.52645201
742,MOUDA,0.586219984952,DHARMAPURI,21.27234,79.50568,Wagholi  (Rithi),21.27554854,79.51016912
743,MOUDA,2.31927331848,WAKESHAWAR,21.293412,79.508098,Wakeshwar,21.28262681,79.52725821
744,MOUDA,4.30036482371,PAWADDOUDA,21.13261,79.41432,Wanjra,21.09868638,79.43422749
745,MOUDA,2.37014453368,SIRSOLI,21.28548,79.53803,Waygaon,21.29856379,79.55608989
746,MOUDA,3.47919750193,ZULLAR,21.16331,79.33695,Zullar,21.13718651,79.35541524
747,NAGPUR,3.54747322896,VIHIRGAON,21.08747,79.16217,Adyali,21.05556859,79.16180852
748,NAGPUR,2.16483920097,ALAGONDI,20.8381,78.98373,Alagondi,20.81958943,78.99018471
749,NAGPUR,0.692157127901,ASTHA,20.76946,78.97316,Ashta,20.76650868,78.96729856
750,NAGPUR,1.3234878938,BORGAON,21.22181,78.97877,Ashti,21.21077061,78.98354316
751,NAGPUR,1.75621393947,BAHADURA,21.09864,79.16392,Bahadura,21.08576109,79.17371896
752,NAGPUR,1.4436767948,BAILWADA,21.2628,79.03866,Bailwada,21.25028868,79.04238207
753,NAGPUR,1.41448530604,BAJARGAON,21.1393,78.77089,Bajargaon,21.12683471,78.77360955
754,NAGPUR,1.65342002471,BRAMAHNI,20.84058,78.96239,Bamhani,20.82821802,78.97123163
755,NAGPUR,5.08082391162,SHIRPUR,21.15719,78.83819,Bandhara,21.1609168,78.78935707
756,NAGPUR,5.43516996264,RUI,21.02043,79.07195,Banwadi,20.97926759,79.10018591
757,NAGPUR,3.38343491425,BESA,21.08537,79.09385,Beltarodi,21.0549441,79.09422954
758,NAGPUR,2.12151356099,BESA,21.08537,79.09385,Besa,21.06922586,79.10474682
759,NAGPUR,2.36549908703,BHARATWADA,21.23702,79.02161,Bhartwada,21.22663984,79.04153131
760,NAGPUR,2.92290750317,BHOKARA,21.22725,79.06741,Bhokara (CT),21.21351279,79.09145129
761,NAGPUR,1.52683561284,SHIRPUR,21.15719,78.83819,Bhuyari,21.14404823,78.83392275
762,NAGPUR,5.11699310383,CHICHOLI,21.1949,78.97914,Bodhala,21.17553382,79.02391052
763,NAGPUR,2.06211840254,BORKHEDI,20.86096,78.9736,Borkhedi,20.8427013,78.97707403
764,NAGPUR,2.25075544287,BORI,20.91223,79.00471,Borkhedi (CT),20.91701988,79.0257638
765,NAGPUR,2.98576769393,BOTHALI,20.96733,79.02706,Bothali,20.94360162,79.04051902
766,NAGPUR,2.05061146582,BRAMHANWADA,21.25489,79.00933,Brahmanwada,21.24121634,79.02260686
767,NAGPUR,1.14845543088,LONARA,21.23886,79.05727,Chakkikhapa,21.22862095,79.0558164
768,NAGPUR,3.04472759763,PETHKALDONGRI,21.13587,78.86942,Chandrapur,21.11000938,78.87906806
769,NAGPUR,1.96492454279,SONEGAON(LO),20.7933,78.95745,Chichkotha,20.794998,78.97626478
770,NAGPUR,2.54273695691,CHICHOLI,21.1949,78.97914,Chicholi,21.177359,78.99487419
771,NAGPUR,2.13328885557,CHIKNA,21.02441,79.13655,Chikana,21.00995647,79.15006517
772,NAGPUR,3.50232086092,ALAGONDI,20.8381,78.98373,Chimanzari,20.81335153,78.96288526
773,NAGPUR,3.35936732534,KHAPRI,21.050568,79.046314,Dahegaon,21.02170908,79.03673715
774,NAGPUR,1.89961550368,DAHELI,20.78544,78.99808,Daheli,20.77065586,79.00723588
775,NAGPUR,3.14741174479,DEVDI(GUJAR),20.92208,79.06003,Deoli (Gujar),20.89568323,79.07096809
776,NAGPUR,2.04098876261,SATNAVRI,21.13164,78.80395,Dhaga,21.13913492,78.78598649
777,NAGPUR,3.34858280007,HUDKESHWAR(K),21.05667,79.13198,Dhamana,21.0317199,79.1500486
778,NAGPUR,2.25240088738,DHAMNA(LI),21.13695,78.84337,Dhamna,21.12511239,78.86099241
779,NAGPUR,1.78654002767,DUDHA,20.844949,78.932077,Dhawalpeth,20.85782998,78.94235317
780,NAGPUR,1.89818732996,DURGDHAMNA,21.15921,78.96134,Drugdhamna,21.14536833,78.97205281
781,NAGPUR,1.48001974336,DUDHA,20.844949,78.932077,Dudha,20.83598232,78.9426022
782,NAGPUR,2.5683922074,FETRI,21.20555,78.98818,Fetari,21.19104954,79.00746429
783,NAGPUR,2.78887375736,RUI,21.02043,79.07195,Gawasi Manapur,20.99552993,79.06872921
784,NAGPUR,3.22010482064,PIMPLA,21.08168,79.11934,Ghogali,21.05339526,79.11268183
785,NAGPUR,2.51847778637,GHOGALI,21.26847,79.07078,Ghoghali,21.25279517,79.08832286
786,NAGPUR,5.8102429242,KOLAR,20.91084,79.03615,Ghoti,20.86714625,79.06682276
787,NAGPUR,3.72956844951,DONGARGAON,20.98663,79.03069,Ghuti,20.96271066,79.05587134
788,NAGPUR,1.72243891471,GODHANI,21.22103,79.06156,Godhani (Railway),21.20793613,79.07043805
789,NAGPUR,1.18505458198,BAHADURA,21.09864,79.16392,Gonhi,21.08850663,79.16038201
790,NAGPUR,3.71220286301,YERLA,21.20901,78.96355,Gonhi,21.19560897,78.99634695
791,NAGPUR,1.19850036181,WELAHARI,21.05006,79.09295,Gotal pajri,21.04067978,79.09863837
792,NAGPUR,2.18236051847,GUMTHALA,21.25749,79.04682,Gumthala,21.24917174,79.06589376
793,NAGPUR,1.64787246343,HUDKESHWAR(K),21.05667,79.13198,Hudkeshwar  kh.,21.04640139,79.1434296
794,NAGPUR,3.24155469985,KINHALMAKADI,20.84958,79.01487,Jaipur,20.85340951,79.04579476
795,NAGPUR,3.2533369068,JAMTHA,21.01776,79.03006,Jamtha,20.99168772,79.04428147
796,NAGPUR,1.10340354969,BORKHEDI,20.86096,78.9736,Jangeshwar,20.85673204,78.98320701
797,NAGPUR,2.53372903502,ASTHA,20.76946,78.97316,Jasapur,20.77504454,78.94953273
798,NAGPUR,1.48250693777,KALMNA,21.05924,79.16369,Kalamana,21.04842678,79.17204726
799,NAGPUR,4.23593655368,SALAI(G),21.01478,79.12661,Kaldongri,20.9773885,79.11880617
800,NAGPUR,3.68581003195,KALKUHI,21.07135,79.02945,Kalkuhi,21.04641684,79.05285537
801,NAGPUR,2.5491661943,HUDKESHWAR(K),21.05667,79.13198,Kanhalgaon,21.0341807,79.1272127
802,NAGPUR,3.70675598766,KINHALMAKADI,20.84958,79.01487,Kanhalgaon,20.84119099,79.04939254
803,NAGPUR,1.90387335158,KAPSI(KU),21.1414,79.17771,Kapsi kh,21.1290537,79.19042851
804,NAGPUR,2.12638713055,MANGLI,20.82608,78.92519,Kawtha,20.80772454,78.93092821
805,NAGPUR,3.01206531694,KHADGAON,21.18363,78.95367,Khadgaon,21.16435182,78.97407718
806,NAGPUR,2.9709516869,SHIRPUR,21.15719,78.83819,Khairi,21.13549516,78.82146893
807,NAGPUR,2.87846415051,KHAPRI,21.050568,79.046314,Khapari,21.02941154,79.06229677
808,NAGPUR,1.34610360781,KINHALMAKADI,20.84958,79.01487,Khapari Subhedar,20.85059376,79.0277786
809,NAGPUR,0.81060279921,BAHADURA,21.09864,79.16392,Kharabi,21.10320807,79.15783051
810,NAGPUR,0.81339047294,DAHELI,20.78544,78.99808,Kharda,20.78365288,78.99049291
811,NAGPUR,2.82362564071,KHARSOLI,21.03973,79.11026,Kharsoli,21.01668757,79.12169259
812,NAGPUR,3.741775257,DONGARGAON,20.98663,79.03069,Khasarmari,20.9753541,79.06464649
813,NAGPUR,0.597399436028,PANJRI(LO),20.97951,79.061,Khatmari,20.9753541,79.06464649
814,NAGPUR,2.82448781904,KINHALMAKADI,20.84958,79.01487,Kinhalmakadi,20.82687986,79.02706629
815,NAGPUR,2.35464216262,HUDKESHWAR(K),21.05667,79.13198,Kirnapur,21.03558386,79.13406579
816,NAGPUR,3.77795752744,KOLAR,20.91084,79.03615,Kolar,20.88373306,79.05807595
817,NAGPUR,2.50507684452,LAWHA,21.16831,78.97885,Lava,21.15535486,78.99861392
818,NAGPUR,3.44897062452,DHAMNA(LI),21.13695,78.84337,Linga,21.11411601,78.86587497
819,NAGPUR,2.18577541821,LONARA,21.23886,79.05727,Lonare,21.2327985,79.07733147
820,NAGPUR,1.81170165603,MAHURZARI,21.22481,79.00728,Mahurzari,21.21439871,79.02072418
821,NAGPUR,0.111691013344,MANGLI,20.82608,78.92519,Mangli,20.82528828,78.92452863
822,NAGPUR,3.36557507581,BOTHALI,20.96733,79.02706,Mohgaon,20.93706386,79.02677094
823,NAGPUR,1.07194948718,SONEGAON(LO),20.7933,78.95745,Mohgaon,20.80140991,78.9518748
824,NAGPUR,1.45965094253,MANGRUR,20.95487,79.07772,Nawarmari,20.96629936,79.08463405
825,NAGPUR,3.5567921099,CHIKNA,21.02441,79.13655,Nawegaon,21.00416773,79.1630819
826,NAGPUR,2.95169654248,CHIKNA,21.02441,79.13655,Nimbha,21.02412559,79.1649868
827,NAGPUR,1.2413414804,SATNAVRI,21.13164,78.80395,Pachanvari,21.12075946,78.8012718
828,NAGPUR,2.5000084301,PANJRI(BU),21.03558,79.06501,Panjari farm,21.01816695,79.08024698
829,NAGPUR,2.80609998744,PANJRI(LO),20.97951,79.061,Panjari lodhi,20.95591668,79.07059075
830,NAGPUR,2.65532095486,PANJRI(BU),21.03558,79.06501,Parsodi,21.01181758,79.06247575
831,NAGPUR,1.72652310413,PETHKALDONGRI,21.13587,78.86942,Pethkaldongari,21.12150201,78.87573053
832,NAGPUR,4.61909930606,KHARSOLI,21.03973,79.11026,Pewatha,20.99833657,79.11400212
833,NAGPUR,3.60402298206,KHARSOLI,21.03973,79.11026,Pilkapar,21.01885538,79.13682383
834,NAGPUR,2.60531181349,PIMPLA,21.08168,79.11934,Pipla,21.05922856,79.12652118
835,NAGPUR,3.4856598857,GODHANI,21.22103,79.06156,Pithesur,21.19955989,79.03705986
836,NAGPUR,1.65782487937,DAHELI,20.78544,78.99808,Pohi,20.78668451,79.01397149
837,NAGPUR,2.97885162486,RAMA,20.83631,79.00561,Rama,20.81004301,79.01124293
838,NAGPUR,0.667820186405,BORI,20.91223,79.00471,Rengapar,20.90659933,79.00694675
839,NAGPUR,2.80443848826,RUI,21.02043,79.07195,Rui,21.00020821,79.08809573
840,NAGPUR,2.96624864291,SALAI(G),21.01478,79.12661,Salai gadhani,20.99160384,79.14075918
841,NAGPUR,1.83916120858,SATNAVRI,21.13164,78.80395,Satnavari,21.12436675,78.81987554
842,NAGPUR,1.73046904881,SAWANGA,21.11076,78.75382,Sawanga,21.09611492,78.75946271
843,NAGPUR,2.31640171387,WELAHARI,21.05006,79.09295,Shankarpur,21.0295681,79.0889339
844,NAGPUR,1.20553268266,SHIVA,21.12003,78.74362,Shiwa,21.11032587,78.74880225
845,NAGPUR,5.69929493695,MANGRUR,20.95487,79.07772,Sindivihiri,20.90542476,79.0921734
846,NAGPUR,2.48211277231,SHIRPUR,21.15719,78.83819,Sirpur,21.13811955,78.85062936
847,NAGPUR,2.61158916794,SONURLI,20.89642,79.0066,Sonurli,20.87377999,79.01328842
848,NAGPUR,4.16542988578,PANJRI(LO),20.97951,79.061,Sukli,20.94522292,79.07715899
849,NAGPUR,1.44717889164,SURABARDI,21.14231,78.94941,Surabardi,21.13232969,78.9583659
850,NAGPUR,2.28393850362,DAHELI,20.78544,78.99808,Tamaswadi,20.77012826,78.98343677
851,NAGPUR,2.93172594233,DUDHA,20.844949,78.932077,Tarsi,20.849706,78.95982667
852,NAGPUR,3.23330083773,KALKUHI,21.07135,79.02945,Telhara,21.04228306,79.03030044
853,NAGPUR,3.63948269484,ALAGONDI,20.8381,78.98373,Tembhari,20.80541277,78.98553321
854,NAGPUR,3.81396459644,MANGRUR,20.95487,79.07772,Tumdi,20.92057117,79.07799728
855,NAGPUR,1.98619588616,UMARGAON,21.07295,79.17231,Umergaon,21.05942012,79.18480731
856,NAGPUR,4.017999775,SONURLI,20.89642,79.0066,Vathoda,20.86028555,79.00644503
857,NAGPUR,2.31039089383,VIHIRGAON,21.08747,79.16217,Vihirgaon,21.07049577,79.17501243
858,NAGPUR,3.08935049358,VYAHAD,21.12805,78.87907,Vyahad,21.10270829,78.89127847
859,NAGPUR,4.55346778797,BOTHALI,20.96733,79.02706,Wakeshwar,20.93946056,79.05918831
860,NAGPUR,2.43627453287,WALNI,21.26078,78.97717,Walani,21.25256364,78.99896373
861,NAGPUR,4.32034106755,PANJRI(BU),21.03558,79.06501,Warada,21.01284607,79.09876561
862,NAGPUR,3.1082302712,WARANGA,20.94712,79.0435,Waranga,20.92020227,79.05156956
863,NAGPUR,2.82368758109,WELAHARI,21.05006,79.09295,Wela harichandra,21.03168798,79.11173308
864,NAGPUR,2.87608008846,YERLA,21.20901,78.96355,Yerla,21.19068233,78.98312599
865,NAGPUR,4.02217160651,RUI,21.02043,79.07195,Zari,20.98484101,79.07888003
866,Narkhed,0.92987167068,AGRA,21.42695,78.71626,Agra,21.43504058,78.71853243
867,Narkhed,0.46988493428,AMABADA(SAI),21.33576,78.28232,Ambada,21.33841437,78.28585005
868,Narkhed,0.671108455759,AMBALA(DE),21.45446,78.6094,Ambada (Deshmukh),21.45754852,78.61497141
869,Narkhed,5.66835586869,SAWARGAON,21.40013,78.63301,Ambola,21.41031047,78.57935948
870,Narkhed,0.241502098511,AARAMBHI,21.26828,78.3492,Arambhi,21.26893687,78.35142147
871,Narkhed,0.607730298313,THATURWADA,21.34891,78.51614,Babulkheda,21.34377692,78.51815511
872,Narkhed,0.436556875209,BANORCHANDRA,21.32801,78.33301,Banor,21.32604768,78.33666045
873,Narkhed,3.69078073979,BANOR(P),21.47604,78.60771,Banor,21.45378087,78.58125307
874,Narkhed,0.905025030077,THADIPAWNI,21.34481,78.30918,Baradpavni,21.33851241,78.31471567
875,Narkhed,1.43262578194,BELONA,21.48464,78.48114,Belona,21.49124557,78.493028
876,Narkhed,3.27036101066,MANIKWADA,21.49706,78.49553,Bhaiwadi,21.47753154,78.51916468
877,Narkhed,1.04235139488,BHARSINGI,21.36141,78.45364,Bharsingi,21.35670657,78.46234673
878,Narkhed,1.64518880966,BHISHNUR,21.356787,78.508756,Bhidhnur,21.36368944,78.52280805
879,Narkhed,3.54084460007,MADNA,21.39887,78.44266,Bopapur,21.39033146,78.4756079
880,Narkhed,4.22567591832,AGRA,21.42695,78.71626,Borkhedi(Mal),21.39649613,78.69184271
881,Narkhed,3.12479442244,MALAPUR,21.39774,78.66169,Borkhedi (Theke),21.39649613,78.69184271
882,Narkhed,3.15416190495,SHEMDA,21.45293,78.70454,Chorkhairi,21.46575616,78.6773548
883,Narkhed,2.04197071988,DATEWADI,21.34923,78.40056,Datewadi,21.35004601,78.42025746
884,Narkhed,0.816694639843,DAWSA,21.34484,78.33578,Dawasa,21.34507705,78.34366151
885,Narkhed,1.31036081628,DEWDI,21.43586,78.44709,Dewali,21.43700671,78.45969006
886,Narkhed,1.80269227354,MOHANDIDHOTRA,21.42151,78.53331,Dhotra,21.41690886,78.55000869
887,Narkhed,0.578007993161,DINDARGAON,21.40778,78.48349,Dindargaon,21.40712483,78.48902883
888,Narkhed,0.978131361211,GODHANI(G),21.48861,78.46032,Gaimukh,21.49601328,78.46542589
889,Narkhed,1.89413519028,YERLA,21.45898,78.48423,Gangaldoh,21.47525615,78.48963022
890,Narkhed,1.06146033224,GHOGRA,21.28459,78.41357,Ghogra,21.28295396,78.42366311
891,Narkhed,3.55228790786,MANIKWADA,21.49706,78.49553,Gondegaon,21.50339363,78.52918414
892,Narkhed,0.573887641929,GODHANI(G),21.48861,78.46032,Gondhani,21.48548711,78.46473598
893,Narkhed,1.13641555219,KHARASI,21.24508,78.41744,Gumgaon,21.23509767,78.41979108
894,Narkhed,1.16948566034,HIWARMATH,21.28098,78.36521,Hiwara,21.27752537,78.3758707
895,Narkhed,0.852481294731,ROHNA,21.34735,78.48007,Indarwada,21.34191452,78.47426522
896,Narkhed,2.73609556602,YERLA,21.45898,78.48423,Indora,21.47354457,78.50554117
897,Narkhed,2.4016762912,JALALKHEDA,21.38433,78.41891,Jalalkheda,21.38224132,78.44199681
898,Narkhed,1.32162590335,JAMGAON(B),21.32779,78.43387,Jamgaon Bk,21.32199291,78.4450087
899,Narkhed,1.90034262804,JAMGAON(KU),21.33892,78.44248,Jamgaon Kh,21.32199291,78.4450087
900,Narkhed,3.15747034298,KHARASI,21.24508,78.41744,Jatlapur,21.24770287,78.38710364
901,Narkhed,2.35140933812,JAMGAON(KU),21.33892,78.44248,Jolwadi,21.34676991,78.46356155
902,Narkhed,3.56486425627,GHOGRA,21.28459,78.41357,Junewani,21.27525344,78.44648409
903,Narkhed,0.685081188967,JUNONA(FUKE),21.41743,78.64433,Junona (Fuke),21.41159066,78.64644067
904,Narkhed,3.80196416268,DEWDI,21.43586,78.44709,Junona (Gharad),21.43072099,78.48340489
905,Narkhed,0.993948891597,JAMGAON(KU),21.33892,78.44248,Karanjoli,21.34785384,78.44279957
906,Narkhed,3.02222290921,JALALKHEDA,21.38433,78.41891,Karimabad,21.37307473,78.44547761
907,Narkhed,1.79205088507,KHAIRGAON,21.44257,78.44892,Khairgaon,21.45444704,78.46062418
908,Narkhed,4.29420082378,SAIWADA(A),21.33327,78.27968,Khalangondri,21.30071621,78.30198209
909,Narkhed,0.958530868067,KHANDALA(BU),21.38939,78.56243,Khandala[Bk],21.38584291,78.57086774
910,Narkhed,1.18724389705,KHAPA(GU),21.30531,78.42576,Khapa,21.30106969,78.4362777
911,Narkhed,2.63976396776,SHEMDA,21.45293,78.70454,Khapri,21.43485875,78.68799969
912,Narkhed,3.6764458937,KHAPRIKENE,21.32434,78.50597,Khaprikene,21.29136116,78.50343837
913,Narkhed,0.382593251692,KHARADA,21.25361,78.3689,Kharala,21.25700686,78.36948776
914,Narkhed,0.764553625524,KHARASI,21.24508,78.41744,Kharashi,21.24789887,78.42416876
915,Narkhed,0.616365410963,KHARBADI,21.37734,78.35632,Kharbadi,21.37191709,78.35755288
916,Narkhed,2.16315976933,SAIWADA(A),21.33327,78.27968,Khargad,21.33347328,78.25879634
917,Narkhed,2.28448382188,KHARSOLI,21.44138,78.49782,Kharsoli,21.44008713,78.5198486
918,Narkhed,0.95758277261,KHEDI(GOGO),21.45866,78.64436,Khedi Gowargondi,21.46726061,78.64388951
919,Narkhed,1.49588690807,KHEDIKARYAT,21.43019,78.51526,Khedikaryat,21.42686723,78.52926407
920,Narkhed,2.8004125821,KHARBADI,21.37734,78.35632,Khedi Kh,21.36390746,78.33344364
921,Narkhed,3.00512778701,VIVRA,21.35629,78.47846,Khushalpur,21.35925716,78.50730321
922,Narkhed,2.21379131666,PIPLA(KE),21.39816,78.74232,Khutkheri,21.40398217,78.72187127
923,Narkhed,1.32191399783,YENIKONI,21.43965,78.58261,Koni,21.42882419,78.58788749
924,Narkhed,1.26620962814,GHOGRA,21.28459,78.41357,Lohara,21.27375907,78.40979687
925,Narkhed,3.4786363967,MALAPUR,21.39774,78.66169,Lohgad(Mal],21.41812898,78.68717571
926,Narkhed,3.12479442244,MALAPUR,21.39774,78.66169,Lohgad (Theke),21.39649613,78.69184271
927,Narkhed,0.662380711363,MADNA,21.39887,78.44266,Madna,21.39661095,78.44858003
928,Narkhed,2.56563501792,KHARBADI,21.37734,78.35632,Mahajanpur,21.35553153,78.34822946
929,Narkhed,1.56926564739,MAHENDRI,21.37129,78.36561,Mahendri,21.37999002,78.37754298
930,Narkhed,1.27303656023,MAYWADI,21.33743,78.45014,Maiwadi,21.33168815,78.46077342
931,Narkhed,0.824638110207,MALAPUR,21.39774,78.66169,Malapur,21.39334822,78.66810823
932,Narkhed,0.627666296,DAWSA,21.34484,78.33578,Mamdapur,21.34747493,78.3304203
933,Narkhed,2.91103262417,MANIKWADA,21.49706,78.49553,Manikwada,21.51378802,78.51717493
934,Narkhed,0.878000403985,KHEDI(GOGO),21.45866,78.64436,Mannath,21.45360556,78.65087803
935,Narkhed,2.03402393983,HIWARMATH,21.28098,78.36521,Math,21.29233961,78.38059758
936,Narkhed,0.674217487099,MENDHALA,21.32944,78.37768,Mendhala,21.33213418,78.38351142
937,Narkhed,0.242065755196,MASORA,21.42984,78.62663,Mhasora,21.42766335,78.6265912
938,Narkhed,0.698130254927,MOGRA,21.44099,78.57386,Mogra,21.43530385,78.57100009
939,Narkhed,1.00689978394,MOHDIDALVI,21.50069,78.55493,Mohadi (Dalvi),21.50467497,78.56366956
940,Narkhed,1.80269227354,MOHANDIDHOTRA,21.42151,78.53331,Mohadi (Dhotra),21.41690886,78.55000869
941,Narkhed,1.21756588984,MOHAGAON(B),21.39791,78.72735,Mohgaon,21.38804928,78.73246307
942,Narkhed,1.21756588984,MOHAGAON(B),21.39791,78.72735,Mohgaon (Bhadade),21.38804928,78.73246307
943,Narkhed,0.645154684708,NARSINGI,21.37132,78.45424,Naigaon (Thakre),21.37670449,78.45656079
944,Narkhed,4.37825180244,JUNONA(FUKE),21.41743,78.64433,Nanda (shinde),21.43584371,78.60694238
945,Narkhed,1.87441057134,PETHISMAILPUR,21.37922,78.40644,Nandni,21.37548442,78.38878766
946,Narkhed,3.62798874969,KHARSOLI,21.44138,78.49782,Nandori,21.45633036,78.52897835
947,Narkhed,1.03775565162,KHAPRIKENE,21.32434,78.50597,Narayanpur,21.32833797,78.51502298
948,Narkhed,1.3043169083,NARSINGI,21.37132,78.45424,Narsingi,21.37185703,78.46682295
949,Narkhed,3.8858784331,DEWDI,21.43586,78.44709,Nasirpur,21.44621139,78.48295
950,Narkhed,5.0517230715,MANIKWADA,21.49706,78.49553,Nawegaon,21.50354403,78.5438591
951,Narkhed,3.13410580145,JAMGAON(KU),21.33892,78.44248,Panwadi,21.32575449,78.46923502
952,Narkhed,3.0052805945,YERLA,21.45898,78.48423,Parsodi,21.46050186,78.51322429
953,Narkhed,2.17985681161,PETHISMAILPUR,21.37922,78.40644,Peth Ismailpur (Muktapur),21.36949464,78.42471872
954,Narkhed,1.1521463873,MANIKWADA,21.49706,78.49553,Pilapur,21.50709375,78.49830885
955,Narkhed,1.23023576953,WADHONA,21.32145,78.36669,Pimpaldhara,21.32545258,78.35561763
956,Narkhed,0.978307132303,PIPLA(KE),21.39816,78.74232,Pipla (kewalram),21.3955466,78.75134292
957,Narkhed,1.33922569237,SHEMDA,21.45293,78.70454,Pipla (kh),21.45877853,78.69322744
958,Narkhed,0.536512567742,BANOR(P),21.47604,78.60771,Pithori,21.47139046,78.60632459
959,Narkhed,2.82066288403,JALALKHEDA,21.38433,78.41891,Ramgaon,21.38881449,78.44572364
960,Narkhed,5.32050161673,BANORCHANDRA,21.32801,78.33301,Rampuri(Mal),21.28354821,78.31403185
961,Narkhed,2.83727367996,BANORCHANDRA,21.32801,78.33301,Rampuri (Rayyatwari),21.30286361,78.33765639
962,Narkhed,1.15253482363,RAMTHI,21.29124,78.35191,Ramthi,21.29728053,78.36095008
963,Narkhed,4.26399236233,JAMGAON(KU),21.33892,78.44248,Ranwadi,21.30909556,78.4683553
964,Narkhed,2.29743585109,ROHNA,21.34735,78.48007,Rohana,21.32853247,78.48922968
965,Narkhed,2.36087578757,BHARSINGI,21.36141,78.45364,Sahajapur,21.35940553,78.47633608
966,Narkhed,1.78159815869,SAIWADA(A),21.33327,78.27968,Saiwada,21.34820266,78.28591526
967,Narkhed,1.68862786508,SAKHARKHEDA,21.34874,78.3453,Sakharkheda,21.3464349,78.36141596
968,Narkhed,4.67549256567,MOHDIDALVI,21.50069,78.55493,Sardi,21.47446978,78.59025641
969,Narkhed,0.549671156938,LOHARISAWANGA,21.2573,78.39948,Sawanga (Lohari),21.26224101,78.39931816
970,Narkhed,0.199972055305,SHEMDA,21.45293,78.70454,Shemda,21.45156962,78.70580381
971,Narkhed,0.813922137463,SINDI,21.43149,78.65757,Shindi (Umari),21.42434574,78.65928164
972,Narkhed,0.644483113013,SINGARKHEDA,21.37645,78.54747,Singarkheda,21.37923534,78.55292839
973,Narkhed,1.09809178626,SINJAR,21.35606,78.37492,Sinjar,21.35683895,78.38549045
974,Narkhed,0.713642748294,SAIWADA(A),21.33327,78.27968,Tara,21.32948231,78.27411789
975,Narkhed,5.45698578296,DATEWADI,21.34923,78.40056,Telegaon,21.30020864,78.40304197
976,Narkhed,0.905025030077,THADIPAWNI,21.34481,78.30918,Thadipavni,21.33851241,78.31471567
977,Narkhed,2.14015411931,THATURWADA,21.34891,78.51614,Thaturwada,21.3402684,78.53460431
978,Narkhed,1.26796264353,THUGAONDEV,21.41106,78.45317,Thugaon (Deo),21.40908021,78.46523228
979,Narkhed,0.938529987303,THUGAONNIPANI,21.42301,78.48964,Thugaon (Nipani),21.42361467,78.49868356
980,Narkhed,2.71191203756,KINKHEDA,21.40426,78.49139,Tinkheda,21.39943429,78.51706722
981,Narkhed,1.85273491977,MOGRA,21.44099,78.57386,Toyapar,21.42723501,78.56375792
982,Narkhed,2.83727367996,BANORCHANDRA,21.32801,78.33301,Udapur (Rayyatwari),21.30286361,78.33765639
983,Narkhed,0.545958290536,UMRI,21.43623,78.66362,Umari,21.44102702,78.66249532
984,Narkhed,1.95367189881,UMTHA,21.34065,78.40771,Umatha,21.32693408,78.41949826
985,Narkhed,0.713642748294,SAIWADA(A),21.33327,78.27968,Utara,21.32948231,78.27411789
986,Narkhed,0.932362750118,WADHONA,21.32145,78.36669,Wadhona,21.31946762,78.37543578
987,Narkhed,0.876757465053,WADWIHIRA,21.34746,78.39859,Wadvihara,21.34088769,78.40326692
988,Narkhed,2.01308645863,THATURWADA,21.34891,78.51614,Warjali,21.33265538,78.52469844
989,Narkhed,1.66014510483,VIVRA,21.35629,78.47846,Wiwara,21.35667527,78.4944855
990,Narkhed,0.355957317587,YENIKONI,21.43965,78.58261,Yeni,21.44221158,78.58467264
991,Narkhed,1.1835750289,YERLA,21.45898,78.48423,Yerla,21.45385335,78.49425282
992,Parseoni,2.39542393379,AAMDI,21.37231,79.25025,Aamdi,21.357805,79.2673529
993,Parseoni,4.33849238617,SUWARDARA,21.48018,79.12605,Ambazari,21.51518289,79.1075239
994,Parseoni,3.06405957703,AAMGAON,21.41838,79.15523,Amgaon,21.40946383,79.18323677
995,Parseoni,1.04053059753,CHARGAON,21.46573,79.13891,Aoleghat,21.4564177,79.13792057
996,Parseoni,3.44475742369,AAMGAON,21.41838,79.15523,Baburwada,21.39405535,79.17583577
997,Parseoni,4.49228072905,CHARGAON,21.46573,79.13891,Bachhera,21.45222391,79.17982158
998,Parseoni,3.37344839139,BAKHARI,21.32494,79.18775,Bakhari,21.30783568,79.21464694
999,Parseoni,4.34023062375,DHAWLAPUR,21.54972,79.11473,Banera,21.53026243,79.15110766
1000,Parseoni,2.08768041415,BANPURI,21.32339,79.28931,Banpuri,21.31015292,79.30360243
1001,Parseoni,0.827411422245,PARSIONI,21.3717,79.15124,Bansingi,21.36749523,79.15783243
1002,Parseoni,2.10156306144,BANPURI,21.32339,79.28931,Beldongari,21.33538231,79.30499192
1003,Parseoni,2.10650849894,BHAGIMAHARI,21.41155,79.13202,Bhagimahari,21.40247515,79.14988153
1004,Parseoni,5.30132641342,CHARGAON,21.46573,79.13891,Bhivagad,21.47249585,79.18962211
1005,Parseoni,1.4082523816,BITOLI,21.43614,79.16699,Bhulewadi,21.4347633,79.18051521
1006,Parseoni,2.72429981828,BITOLI,21.43614,79.16699,Bitoli,21.42779907,79.19173797
1007,Parseoni,2.84301698168,BORDA,21.27735,79.25914,Borada (G),21.26076142,79.28001803
1008,Parseoni,5.04004296259,NAVEGAON(K),21.45949,79.17426,Borban,21.49388547,79.20598234
1009,Parseoni,0.541405563923,KHEDI,21.26327,79.29154,Bori (Rani),21.25980013,79.29520516
1010,Parseoni,2.58671944606,BORI(SINGAR),21.20634,79.304,Bori  (singori),21.20034029,79.32810797
1011,Parseoni,5.03456971996,WARADA,21.28045,79.21871,Champa (Ri),21.27658949,79.2671225
1012,Parseoni,3.05649150273,CHARGAON,21.46573,79.13891,Chargaon,21.46042182,79.16788994
1013,Parseoni,3.07296005751,SAWLI,21.41446,79.07248,Chicholi,21.3868243,79.07240269
1014,Parseoni,1.19296811266,DHAWLAPUR,21.54972,79.11473,Dhawalapur,21.54849505,79.12618944
1015,Parseoni,3.87647727089,ITGAON,21.33546,79.12101,Digalwadi,21.33992066,79.15812994
1016,Parseoni,2.05387337056,DORLI,21.28054,79.16364,Dorli,21.27137464,79.1808495
1017,Parseoni,1.57462030804,DUMRI(KALA),21.33828,79.24614,Dumari Kala,21.3282657,79.25688874
1018,Parseoni,1.23980654759,KERDI,21.30671,79.24676,Dumari Kh.,21.31637776,79.24079769
1019,Parseoni,5.29701520167,AAMGAON,21.41838,79.15523,Dundakhairi,21.38139924,79.18748235
1020,Parseoni,3.59819300698,GAWNA,21.32384,79.17848,Garanda,21.29815633,79.19960917
1021,Parseoni,4.22979911803,SUWARDARA,21.48018,79.12605,Gargoti,21.51737485,79.1174823
1022,Parseoni,1.81777586154,GAWNA,21.32384,79.17848,Gawana,21.31478967,79.19309391
1023,Parseoni,3.99122530272,NAVEGAON(K),21.45949,79.17426,Ghat Khairi,21.449355,79.21125694
1024,Parseoni,3.4219350164,GHATROHNA,21.27298,79.17624,Ghat Rohana,21.26383566,79.20777181
1025,Parseoni,5.24131429599,UMRIPALI,21.43147,79.18161,Ghukashi,21.41162449,79.22753768
1026,Parseoni,3.12514068294,GONDEGAON,21.25948,79.20628,Gondegaon,21.24255798,79.23035689
1027,Parseoni,5.0853105292,MAHULI,21.41266,79.18558,Gundhari (pande),21.38966026,79.2280365
1028,Parseoni,2.76934314487,GUNDRIWANDHE,21.32844,79.1432,Gundhari (Wandhe),21.31979035,79.16827147
1029,Parseoni,2.82847905401,HINGNABORI,21.2996,79.15372,Hingana (Ba),21.28979524,79.17891151
1030,Parseoni,5.10060855593,AAMDI,21.37231,79.25025,Hiwari,21.3544674,79.29562634
1031,Parseoni,2.57700015584,ITGAON,21.33546,79.12101,Itgaon,21.32338038,79.14224281
1032,Parseoni,3.60473407546,JUNIKAMPTEE,21.25043,79.1834,Juni  Kamptee,21.2339137,79.21332875
1033,Parseoni,3.72521110298,MAHULI,21.41266,79.18558,Kalapatha,21.38146888,79.19871098
1034,Parseoni,4.13215007283,PALASAVALI,21.45,79.14307,Kalbhairao,21.41956717,79.16598084
1035,Parseoni,2.88844358752,NAVEGAON(K),21.45949,79.17426,Kamthi,21.45644318,79.20197836
1036,Parseoni,4.45034377273,TEKADI(KA),21.45893,79.08627,Kanhadevi,21.42340874,79.1060822
1037,Parseoni,2.65854946522,KARMBHAD,21.37283,79.11273,Karmbhad,21.36078981,79.13491052
1038,Parseoni,2.22966255887,KERDI,21.30671,79.24676,Keradi,21.29706552,79.26562927
1039,Parseoni,2.53748168403,KHANDALA(GH),21.2154,79.26673,Khandala   (Ghatate),21.20696008,79.28947277
1040,Parseoni,1.61726721489,KHEDI,21.26327,79.29154,Khedi,21.26180648,79.3070676
1041,Parseoni,3.38280666306,KOLITMARA,21.55458,79.17375,Kirangi Sarra,21.55165227,79.20630762
1042,Parseoni,1.8288685166,KOLITMARA,21.55458,79.17375,Kolitmara,21.55731857,79.1911874
1043,Parseoni,0.913400841907,PALASAVALI,21.45,79.14307,Kondasawari,21.44215484,79.14568631
1044,Parseoni,4.15360127509,NIMBA,21.39996,79.0917,Kusumdhara,21.41919417,79.12609508
1045,Parseoni,4.41141664725,UMRIPALI,21.43147,79.18161,Lohara (Ri),21.42617733,79.22384802
1046,Parseoni,3.91504677156,SAWLI,21.41446,79.07248,Mahadula,21.38158812,79.08602747
1047,Parseoni,3.25524224367,MAHULI,21.41266,79.18558,Mahuli,21.39865619,79.21319322
1048,Parseoni,3.1948209853,SUWARDARA,21.48018,79.12605,Makardhokada,21.47171373,79.15555449
1049,Parseoni,2.52267671286,KOLITMARA,21.55458,79.17375,Mehakepar,21.53324024,79.18203
1050,Parseoni,0.699260040932,SAWLI,21.41446,79.07248,Mogra,21.41425824,79.07923145
1051,Parseoni,4.65415809104,DHAWLAPUR,21.54972,79.11473,Narhar,21.54145045,79.15884318
1052,Parseoni,2.9587049827,NAVEGAON(K),21.45949,79.17426,Navegaon,21.44449651,79.19787785
1053,Parseoni,2.94085119191,NAYAKUND,21.367161,79.196033,Nayakund,21.35628214,79.22191799
1054,Parseoni,3.67612144787,NILAJ,21.21151,79.27894,Nilaj,21.19656531,79.31057096
1055,Parseoni,2.80948535581,NIMBA,21.39996,79.0917,Nimba,21.3855865,79.11401714
1056,Parseoni,1.92612164355,NIMKHEDA,21.29146,79.2765,Nimkheda,21.28470895,79.29362049
1057,Parseoni,2.50600040176,PALASAVALI,21.45,79.14307,Palasavali,21.44123067,79.16537521
1058,Parseoni,3.72894520621,UMRIPALI,21.43147,79.18161,Pali,21.4376709,79.21701575
1059,Parseoni,3.66012947778,PALORA,21.36724,79.16755,Palora,21.34768911,79.19598373
1060,Parseoni,1.13630590615,NIMKHEDA,21.29146,79.2765,Panjara (Ri),21.28164618,79.27955779
1061,Parseoni,2.50055474103,PARSIONI,21.3717,79.15124,Parsioni,21.36352297,79.17373495
1062,Parseoni,1.36101075727,PIPLA,21.33584,79.18584,Parsodi,21.33757156,79.17283162
1063,Parseoni,1.38410163124,BHAGIMAHARI,21.41155,79.13202,Pendhari,21.39942078,79.12901583
1064,Parseoni,1.16287409765,PIPLA,21.33584,79.18584,Pipla,21.3283984,79.19372837
1065,Parseoni,2.15902486918,PALASAVALI,21.45,79.14307,Rangari(Rithi),21.44945971,79.16392339
1066,Parseoni,1.51099548029,NIMBA,21.39996,79.0917,Sakarla,21.40575186,79.10490309
1067,Parseoni,1.9766995751,SALAI(MA),21.42083,79.18064,Salai,21.41053201,79.19620498
1068,Parseoni,2.15465861658,SALAI(MO),21.44079,79.0696,Salai (Mokasa),21.43269227,79.08851251
1069,Parseoni,2.91382255621,SUWARDARA,21.48018,79.12605,Saleghat,21.4564177,79.13792057
1070,Parseoni,1.4739072422,SATAK,21.33493,79.26739,Satak,21.32945004,79.28034709
1071,Parseoni,1.92062634492,SAWLI,21.41446,79.07248,Sawli,21.40140781,79.08463135
1072,Parseoni,3.50641768245,SUWARDARA,21.48018,79.12605,Siladevi,21.50072313,79.1517618
1073,Parseoni,3.07223901611,BORI(SINGAR),21.20634,79.304,Singardip,21.17952124,79.31112514
1074,Parseoni,2.32865116802,HINGNABORI,21.2996,79.15372,Singori,21.27997225,79.16155698
1075,Parseoni,1.57241989643,DORLI,21.28054,79.16364,Soholi,21.26959794,79.15402706
1076,Parseoni,2.10380738013,KOLITMARA,21.55458,79.17375,Surera,21.54427462,79.19080956
1077,Parseoni,0.266578896745,SUWARDARA,21.48018,79.12605,Suwardhara,21.48247817,79.12678356
1078,Parseoni,3.02166463909,TAMASWADI,21.31054,79.129,Tamaswadi,21.29975593,79.15577275
1079,Parseoni,2.77966395889,TEKADI(KA),21.45893,79.08627,Tekadi,21.44808497,79.11046982
1080,Parseoni,2.9901754615,TEKADI(KH),21.25579,79.22652,Tekadi (CT),21.2495176,79.25457772
1081,Parseoni,1.29927788644,NIMKHEDA,21.29146,79.2765,Telang Khedi,21.30112215,79.28355232
1082,Parseoni,3.25205731996,UMRIPALI,21.43147,79.18161,Umari,21.42019266,79.21059808
1083,Parseoni,2.60965800407,WAGHODA,21.29383,79.17889,Waghoda,21.28330794,79.20140465
1084,Parseoni,2.70294602861,WARADA,21.28045,79.21871,Warada,21.26567554,79.23942436
1085,Parseoni,5.5225560577,GHATROHNA,21.27298,79.17624,Yesamba,21.28005374,79.22899499
1086,Ramtek,1.09836286263,AAJNI,21.30112,79.31125,Ajani,21.29529184,79.31980981
1087,Ramtek,2.74622476362,KHANORA,21.55598,79.42577,Akola,21.55551447,79.45231989
1088,Ramtek,1.61376874353,PATHARAI,21.52217,79.29906,Ambazari,21.5147327,79.28566382
1089,Ramtek,3.12674466805,NAVERGAON,21.37501,79.35949,Amgaon,21.39781662,79.37715521
1090,Ramtek,1.55872061917,AASOLI,21.35766,79.45382,Asoli,21.3538437,79.46830286
1091,Ramtek,0.301829937591,BANDRA,21.63694,79.38604,Bandra,21.63962966,79.38564646
1092,Ramtek,1.10242900647,BELDA,21.58461,79.43813,Belda,21.58523414,79.44877093
1093,Ramtek,0.781103401901,BHANDARBODI,21.40201,79.45047,Bhandar Bodi,21.40367052,79.45780112
1094,Ramtek,0.931378027501,BHILEWADA,21.42372,79.29837,Bhilewada,21.41971935,79.30627501
1095,Ramtek,1.23668542194,MANAPUR,21.38038,79.32107,Bhojapur,21.36940843,79.31911373
1096,Ramtek,2.52624031443,KHUMARI,21.44637,79.29412,Bhondewada,21.44465024,79.31845893
1097,Ramtek,3.32693240841,KHAIRI(BI),21.39395,79.28919,Bijewada,21.36740479,79.30401411
1098,Ramtek,1.11620399733,KANDRI,21.41915,79.27644,Bondri,21.42390611,79.26694397
1099,Ramtek,0.683452661513,BORDA,21.44822,79.27322,Borda,21.4480771,79.27982197
1100,Ramtek,1.56348506928,BOTHIYAPALORA,21.53724,79.34508,Bothiya(palora),21.55011036,79.33899268
1101,Ramtek,2.35618788994,BOTHIYAPALORA,21.53724,79.34508,Chargaon,21.5338311,79.32259674
1102,Ramtek,1.41565611086,KHAIRI(BI),21.39395,79.28919,Chargaon,21.39635397,79.30261762
1103,Ramtek,2.32499603765,SONEGHAT,21.42374,79.31105,Chaugan,21.4271491,79.33321086
1104,Ramtek,2.83148347175,KARWAHI,21.66894,79.44977,Chawari,21.64569586,79.4609585
1105,Ramtek,2.91601473744,BORDA,21.44822,79.27322,Chhatrapur,21.43944745,79.24666847
1106,Ramtek,2.08715502633,CHICHALA,21.35041,79.34148,Chichda,21.34138196,79.35914856
1107,Ramtek,3.00587881498,KIRNAPUR,21.31887,79.40321,Chokhala,21.30819408,79.42986838
1108,Ramtek,4.5920435316,BOTHIYAPALORA,21.53724,79.34508,Chorbahuli(fo),21.5011714,79.36669964
1109,Ramtek,4.07912856436,KHUMARI,21.44637,79.29412,Chorbahuli (mogra),21.44934048,79.33340444
1110,Ramtek,0.920152379924,DONGRI,21.44202,79.33755,Chorkhumari,21.44934048,79.33340444
1111,Ramtek,0.77786212066,DAHODA,21.53459,79.26645,Dahoda,21.53575162,79.27386606
1112,Ramtek,0.577827043658,DEWLAPAR,21.58577,79.36853,Deolapar,21.58835596,79.3636826
1113,Ramtek,2.6637406861,BORDA,21.44822,79.27322,Deoli,21.43223983,79.29239352
1114,Ramtek,0.642189951311,DONGARTAL,21.59989,79.35028,Dongartal,21.60199878,79.34449729
1115,Ramtek,0.113514605871,DONGRI,21.44202,79.33755,Dongri,21.44185308,79.33863201
1116,Ramtek,2.08670895647,KARWAHI,21.66894,79.44977,Dulara,21.65108577,79.44355187
1117,Ramtek,1.35458235063,HIWRABAJAR,21.54042,79.42171,Fulzari,21.54732618,79.43249905
1118,Ramtek,3.92848453801,PIPRIYA,21.57172,79.29434,Fulzari(fv).),21.58198481,79.25798691
1119,Ramtek,3.81317268477,BANDRA,21.63694,79.38604,Garra,21.66922713,79.39847282
1120,Ramtek,2.31395434041,DAHODA,21.53459,79.26645,Ghoti,21.55403591,79.2744166
1121,Ramtek,4.74765192166,MAHADULA,21.39479,79.43006,Ghoti,21.35210077,79.4309153
1122,Ramtek,3.27576463982,SALAI,21.52531,79.43304,Ghoti,21.49714786,79.42374593
1123,Ramtek,3.18281692582,BELDA,21.58461,79.43813,Goreghat,21.61265979,79.43199588
1124,Ramtek,2.36378272417,UMRI,21.45486,79.38168,Gudegaon,21.43532911,79.37266241
1125,Ramtek,4.95520678535,PANCHALA,21.39881,79.40245,Guguldoh,21.42648224,79.43997018
1126,Ramtek,2.18186047425,CHICHALA,21.35041,79.34148,Hamlapuri,21.33163629,79.347607
1127,Ramtek,2.88208412537,BHANDARBODI,21.40201,79.45047,Hasapur,21.38213011,79.46833171
1128,Ramtek,0.704352681223,LOHADONGRI,21.32662,79.36029,Hatodi,21.32410827,79.36653256
1129,Ramtek,1.6268345875,PATHARAI,21.52217,79.29906,Hiwara,21.53652546,79.30209516
1130,Ramtek,0.314385714466,HIWRABAJAR,21.54042,79.42171,Hiwara(bazar),21.53835857,79.41962969
1131,Ramtek,2.18753506919,KANDRI,21.41915,79.27644,Hiwara (bende),21.41558267,79.29722193
1132,Ramtek,1.93544744576,HIWRAHIWRI,21.36694,79.28259,Hiwrahiwri,21.3544674,79.29562634
1133,Ramtek,1.42685216917,DAHODA,21.53459,79.26645,Jamuniya,21.54720026,79.26389651
1134,Ramtek,3.02576966291,WADAMBA,21.60592,79.38021,Junewani,21.59342915,79.406211
1135,Ramtek,1.69444166567,KACHURWAHI,21.33544,79.38533,Kachurwahi,21.32337345,79.39532075
1136,Ramtek,1.89154270346,DONGARTAL,21.59989,79.35028,Kadbikheda,21.61514244,79.34217814
1137,Ramtek,1.85056168769,DONGARTAL,21.59989,79.35028,Kamthi,21.60818631,79.36579728
1138,Ramtek,1.24034017017,KANDRI,21.41915,79.27644,Kandri (CT),21.41128289,79.28493435
1139,Ramtek,0.710485506373,KARWAHI,21.66894,79.44977,Karwahi,21.66933054,79.45663257
1140,Ramtek,1.09994381592,KATTA,21.56831,79.36657,Katta,21.57030739,79.3561522
1141,Ramtek,2.86583241785,SONEGHAT,21.42374,79.31105,Kawadak (dudhala),21.40666961,79.33179138
1142,Ramtek,3.66874976319,MANAPUR,21.38038,79.32107,Kawalapur,21.35013551,79.30691115
1143,Ramtek,1.60971999635,KHAIRI(BI),21.39395,79.28919,Khairi,21.38042008,79.29471978
1144,Ramtek,1.26586846995,KHANORA,21.55598,79.42577,Khanora,21.5603938,79.41448693
1145,Ramtek,2.76797958914,PIPRIYA,21.57172,79.29434,Khapa,21.59535768,79.30273391
1146,Ramtek,2.3783432748,BOTHIYAPALORA,21.53724,79.34508,Kharpada,21.52245184,79.36169217
1147,Ramtek,2.34098623637,KATTA,21.56831,79.36657,Khidki,21.56801556,79.38920588
1148,Ramtek,3.89200278784,KACHURWAHI,21.33544,79.38533,Khodegaon,21.30229531,79.39740544
1149,Ramtek,0.832965537579,KHUMARI,21.44637,79.29412,Khumari,21.45064911,79.30072606
1150,Ramtek,4.17646064533,BANDRA,21.63694,79.38604,Khursapar,21.67399909,79.37946325
1151,Ramtek,1.50280790839,KIRNAPUR,21.31887,79.40321,Kirnapur,21.30716196,79.41045685
1152,Ramtek,3.57741757751,SHIWNI(BHO),21.39175,79.47176,Kirnapur,21.37895006,79.50345913
1153,Ramtek,1.87627433228,KHANORA,21.55598,79.42577,Lakhapur,21.56734802,79.43917786
1154,Ramtek,4.94335629966,PINDAKAPAR(L),21.59957,79.48858,Lodha,21.64369251,79.49443235
1155,Ramtek,2.19916955453,LOHADONGRI,21.32662,79.36029,Lohadongari,21.31477146,79.377289
1156,Ramtek,2.75694053333,MAHADULA,21.39479,79.43006,Lohara,21.3706603,79.43618119
1157,Ramtek,0.644657043516,MAHADULA,21.39479,79.43006,Mahadula,21.39012261,79.4337535
1158,Ramtek,2.71105742412,PINDAKAPAR(S),21.43085,79.34391,Maharajpur,21.44827488,79.36223098
1159,Ramtek,2.14187058554,UMRI,21.45486,79.38168,Maharapeth (R),21.44827488,79.36223098
1160,Ramtek,1.79990797565,MANAPUR,21.38038,79.32107,Manapur,21.36871225,79.3331184
1161,Ramtek,1.06457856473,MANDRI,21.41404,79.39874,Mandri,21.40978111,79.40795025
1162,Ramtek,2.39287943779,MANDRI,21.41404,79.39874,Manegaon,21.43038927,79.41377123
1163,Ramtek,2.68725003631,WARGHAT,21.54801,79.40308,Manegaon,21.54256049,79.37776671
1164,Ramtek,3.37641176329,KARWAHI,21.66894,79.44977,Manegaon Tek,21.68503425,79.42206179
1165,Ramtek,3.51433186918,UMRI,21.45486,79.38168,Mangli,21.42668968,79.36628572
1166,Ramtek,2.2646819238,MANSAR,21.39785,79.26211,Mansar,21.38585094,79.27978449
1167,Ramtek,3.66954801218,BORI,21.36661,79.40438,Masala,21.33579983,79.4170751
1168,Ramtek,5.01419709322,KHUMARI,21.44637,79.29412,Mogra,21.47792348,79.32873555
1169,Ramtek,2.57479337874,BOTHIYAPALORA,21.53724,79.34508,Moudi,21.52508998,79.32388929
